Station_Id_C,Datetime,Station_Name,City,Cnty,Lat,Lon,Alti,PRS,TEM,RHU,VAP,PWV
57351,2025-06-03 17:00:00,坛子岭,宜昌市,夷陵区,30.8333,111.0167,231.0,982.8,21.0,93.0,23.11760647202531,56.21533333333325
57352,2025-06-03 17:00:00,三斗坪,宜昌市,夷陵区,30.8092,111.0003,185.3,987.9,21.4,85.0,21.654421091330303,42.56499999999995
57353,2025-06-03 17:00:00,苏家坳,宜昌市,夷陵区,30.8378,111.0164,191.8,987.3,22.2,84.0,22.472223600944503,46.00399999999998
57354,2025-06-03 17:00:00,神农顶,省直辖县级行政区划,神农架林区,31.4558,110.2711,2948.1,715.1,7.1,35.0,3.5291548526743197,6.377499999999995
57367,2025-06-03 17:00:00,大老岭,宜昌市,夷陵区,31.0836,110.9406,1910.0,809.4,15.1,31.0,5.316663858371589,13.889500000000004
57451,2025-06-03 17:00:00,绿葱坡,恩施土家族苗族自治州,巴东县,30.8131,110.2539,1813.5,819.1,15.2,41.0,7.0770867658658485,17.633999999999993
Q0004,2025-06-03 17:00:00,沪渝K1464,恩施土家族苗族自治州,利川市,30.2789,108.8711,1082.2,889.4,15.3,85.0,14.766602507974234,26.606000000000005
Q0005,2025-06-03 17:00:00,沪渝K1439,恩施土家族苗族自治州,利川市,30.2444,109.1197,1131.4,885.5,14.8,99.0,16.654065400206427,29.36818333333335
Q0007,2025-06-03 17:00:00,沪渝K1412,恩施土家族苗族自治州,恩施市,30.2389,109.3664,706.7,929.6,18.6,74.0,15.848985060433996,36.65549999999998
Q0008,2025-06-03 17:00:00,沪渝K1407,恩施土家族苗族自治州,巴东县,30.2439,109.4128,545.1,946.1,19.1,80.0,17.678049922843147,33.49749999999999
Q0010,2025-06-03 17:00:00,沪渝K1375,恩施土家族苗族自治州,恩施市,30.4114,109.5864,729.9,926.4,18.4,99.0,20.939223141038045,43.469
Q0011,2025-06-03 17:00:00,沪渝K1369,恩施土家族苗族自治州,恩施市,30.455,109.6258,624.1,937.4,19.0,99.0,21.740462260123145,53.36399999999999
Q0013,2025-06-03 17:00:00,沪渝K1351,恩施土家族苗族自治州,恩施市,30.4628,109.7828,780.1,920.3,17.3,75.0,14.801078457971116,28.277
Q0014,2025-06-03 17:00:00,沪渝K1343,恩施土家族苗族自治州,恩施市,30.4997,109.8508,903.4,907.8,16.8,77.0,14.72176842914368,27.124000000000013
Q0015,2025-06-03 17:00:00,沪渝K1336,恩施土家族苗族自治州,建始县,30.55,109.8914,879.8,910.0,16.9,88.0,16.932018150798314,34.57549999999996
Q0019,2025-06-03 17:00:00,沪渝K1305,恩施土家族苗族自治州,巴东县,30.6308,110.1639,865.2,911.7,16.5,74.0,13.880907623678096,27.203500000000037
Q0021,2025-06-03 17:00:00,沪渝K1291,恩施土家族苗族自治州,巴东县,30.6119,110.3097,1104.2,886.9,15.1,99.0,16.979023289638302,33.40299999999999
Q0022,2025-06-03 17:00:00,沪渝k1283,恩施土家族苗族自治州,恩施市,30.6217,110.3864,923.0,899.2,17.5,72.0,14.389806872176914,25.07700000000004
Q0026,2025-06-03 17:00:00,沪渝K1262,宜昌市,长阳土家族自治县,30.6247,110.6047,597.8,940.1,16.7,73.0,13.868618501451149,27.48799999999999
Q0028,2025-06-03 17:00:00,沪渝K1179,宜昌市,市辖区,30.5711,111.4003,54.9,999.2,21.5,95.0,24.35079580833201,50.57649999999999
Q0030,2025-06-03 17:00:00,沪渝K1208,宜昌市,长阳土家族自治县,30.5589,111.1281,241.9,981.5,20.5,77.0,18.559681385052823,27.722000000000023
Q0032,2025-06-03 17:00:00,沪渝K1097,荆州市,荆州区,30.3922,112.195,25.4,1003.6,23.8,82.0,24.17004362856217,55.12600000000012
Q0033,2025-06-03 17:00:00,沪渝K1069,荆州市,荆州区,30.3353,112.4733,25.4,1004.3,24.8,90.0,28.168364921594563,49.4215
Q0034,2025-06-03 17:00:00,沪渝K1065,省直辖县级行政区划,潜江市,30.3383,112.5164,24.4,1003.9,24.1,97.0,29.11202580232069,57.53100000000007
Q0037,2025-06-03 17:00:00,沪渝K933,武汉市,蔡甸区,30.4533,113.8225,17.0,1004.8,23.3,88.0,25.167798951258103,46.94350000000002
Q0039,2025-06-03 17:00:00,沪渝k959,省直辖县级行政区划,仙桃市,30.3486,113.5853,15.2,1004.6,24.1,86.0,25.81066205154206,47.14450000000005
Q0040,2025-06-03 17:00:00,沪渝K982,省直辖县级行政区划,仙桃市,30.3631,113.3619,9.0,1005.1,24.1,87.0,26.11078602888557,60.19300000000015
Q0047,2025-06-03 17:00:00,黄黄785,黄冈市,浠水县,30.2406,115.1297,19.8,1005.9,22.2,91.0,24.344908901023214,55.92349999999996
Q0049,2025-06-03 17:00:00,黄黄K761,黄冈市,蕲春县,30.1353,115.33,21.4,1005.5,23.6,85.0,24.75414817963027,64.55450000000005
Q0050,2025-06-03 17:00:00,黄黄K742,黄冈市,武穴市,30.0289,115.4664,41.4,1003.6,21.3,94.0,23.80080211896941,50.89000000000008
Q0051,2025-06-03 17:00:00,黄黄K730,黄冈市,武穴市,30.0039,115.5917,38.0,1004.6,20.8,95.0,23.32585370704353,51.35249999999994
Q0052,2025-06-03 17:00:00,黄黄K722,黄冈市,武穴市,30.0161,115.6708,42.5,1003.1,21.9,81.0,21.276594630792577,37.118500000000026
Q0053,2025-06-03 17:00:00,黄黄K714,黄冈市,武穴市,30.0278,115.7514,22.2,1005.6,22.0,93.0,24.57830516547447,47.17250000000004
Q0054,2025-06-03 17:00:00,黄黄K708,黄冈市,黄梅县,30.0278,115.8164,23.1,1006.0,21.9,99.0,26.004726770968706,52.92966666666664
Q0055,2025-06-03 17:00:00,黄黄K700,黄冈市,黄梅县,30.0333,115.8986,25.2,1005.5,21.9,88.0,23.115312685305515,47.970000000000006
Q0056,2025-06-03 17:00:00,黄黄K685,黄冈市,黄梅县,30.1047,116.0217,45.9,1003.4,22.0,99.0,26.16400227292444,50.542
Q0058,2025-06-03 17:00:00,大广K2491,黄石市,市辖区,30.1703,114.9136,25.0,1004.2,22.2,91.0,24.344908901023214,53.531499999999966
Q0061,2025-06-03 17:00:00,大广K2520,黄石市,大冶市,29.9158,114.8833,57.7,1001.3,20.2,87.0,20.584798142992017,40.049500000000045
Q0064,2025-06-03 17:00:00,大广K2552,黄石市,阳新县,29.6617,114.9464,23.5,1005.5,19.7,89.0,20.41530419602247,41.75433333333339
Q0065,2025-06-03 17:00:00,大广K2560,黄石市,阳新县,29.6053,114.9322,37.1,1003.0,18.5,96.0,20.432420857530417,37.71983333333334
Q0066,2025-06-03 17:00:00,大广K2583,咸宁市,通山县,29.4306,114.8339,281.9,974.6,19.5,65.0,14.725846506888749,26.010500000000008
Q0067,2025-06-03 17:00:00,杭瑞K731,咸宁市,崇阳县,29.3742,113.8803,81.0,997.7,20.7,99.0,24.158675132454945,48.58400000000003
Q0069,2025-06-03 17:00:00,杭瑞K679,咸宁市,通山县,29.5817,114.3203,81.0,994.7,19.3,92.0,20.5848442978129,48.235499999999966
Q0071,2025-06-03 17:00:00,杭瑞K640,咸宁市,通山县,29.7172,114.6692,128.1,993.0,18.5,99.0,21.070934009328244,35.320500000000024
Q0072,2025-06-03 17:00:00,杭瑞K620,黄石市,阳新县,29.7147,114.8767,167.3,989.3,18.8,95.0,20.602949828421576,45.51650000000007
Q0074,2025-06-03 17:00:00,杭瑞K583,黄石市,阳新县,29.7067,115.2367,54.2,1001.4,19.0,98.0,21.52086163123301,40.75249999999995
Q0079,2025-06-03 17:00:00,福银K1447,十堰市,郧西县,33.08,110.3,444.3,958.2,17.8,92.0,18.738295978622357,38.18899999999994
Q0080,2025-06-03 17:00:00,福银K1421,十堰市,郧西县,32.95,110.5,395.1,962.9,19.1,84.0,18.561952418985303,29.83199999999997
Q0081,2025-06-03 17:00:00,福银K1405,十堰市,郧西县,32.86,110.65,275.8,974.6,20.2,72.0,17.035695014889942,32.846999999999994
Q0082,2025-06-03 17:00:00,福银K1398,十堰市,郧西县,32.82,110.7,205.1,982.6,21.4,82.0,20.89014740575394,38.71150000000001
Q0083,2025-06-03 17:00:00,福银K1338,十堰市,丹江口市,32.51,111.14,162.4,988.0,20.6,90.0,21.8274186883164,44.24750000000003
Q0087,2025-06-03 17:00:00,福银K1277,襄阳市,谷城县,32.28,111.66,73.4,997.6,21.9,91.0,23.903334708668204,38.81949999999998
Q0089,2025-06-03 17:00:00,福银K1234,襄阳市,市辖区,32.19,112.1,76.5,997.4,21.9,71.0,18.64985455291695,38.01699999999997
Q0093,2025-06-03 17:00:00,福银K1103,随州市,市辖区,31.67,113.26,101.0,995.8,20.6,92.0,22.31247243694565,43.84150000000003
Q0094,2025-06-03 17:00:00,福银K1093,随州市,市辖区,31.6,113.33,83.0,998.2,21.5,91.0,23.325499142718037,40.55899999999999
Q0095,2025-06-03 17:00:00,福银K1076,随州市,市辖区,31.48,113.43,110.0,995.1,20.6,98.0,23.767633682833413,38.77400000000004
Q0096,2025-06-03 17:00:00,福银K1064,孝感市,安陆市,31.39,113.51,97.7,997.3,21.6,93.0,23.984595339312413,57.52349999999998
Q0100,2025-06-03 17:00:00,福银K993,孝感市,市辖区,30.98,114.05,29.2,1003.9,22.6,95.0,26.0412622777853,55.44399999999999
Q0103,2025-06-03 17:00:00,襄荆K1620,荆门市,钟祥市,31.54,112.28,56.7,999.9,23.2,5.0,1.421367790967218,6.161499999999997
Q0104,2025-06-03 17:00:00,襄荆K1634,荆门市,钟祥市,31.42,112.34,68.6,1001.6,22.2,88.0,23.542329486703768,43.00750000000004
Q0106,2025-06-03 17:00:00,襄荆K1685,荆门市,市辖区,30.99,112.27,51.3,1000.3,22.8,92.0,25.52702340891781,44.939999999999934
Q0107,2025-06-03 17:00:00,襄荆K1704,荆门市,市辖区,30.82,112.24,75.1,998.3,23.2,88.0,25.016073121023037,42.766999999999925
Q0108,2025-06-03 17:00:00,襄荆K1715交通气象站,荆门市,沙洋县,30.7,112.22,50.4,1001.4,23.4,5.0,1.4386551300322878,8.2065
Q0109,2025-06-03 17:00:00,襄荆K1745,荆门市,沙洋县,30.45,112.21,42.3,1003.2,23.9,90.0,26.688269574318127,47.34524999999995
Q0600,2025-06-03 17:00:00,洪湖石码头,荆州市,洪湖市,29.8361,113.5272,26.0,1004.6,23.0,90.0,25.27672862740071,48.28400000000001
Q0603,2025-06-03 17:00:00,石首海事码头,荆州市,石首市,29.7378,112.4081,20.0,1003.7,22.3,100.0,26.916132691735225,59.578499999999934
Q0604,2025-06-03 17:00:00,公安航道码头,荆州市,公安县,30.0744,112.215,11.0,1003.3,22.8,92.0,25.52702340891781,43.1165
Q0605,2025-06-03 17:00:00,江陵航道码头,荆州市,江陵县,30.03,112.4025,50.0,1003.4,23.3,85.0,24.30980580519248,39.99400000000005
Q0606,2025-06-03 17:00:00,杨林矶海事码头,荆州市,市辖区,30.3206,112.2025,15.0,1003.1,22.6,91.0,24.9447880766154,52.68299999999999
Q0607,2025-06-03 17:00:00,阳逻海事水上搜救中心,武汉市,新洲区,30.6586,114.5494,40.0,1004.8,23.7,86.0,25.196821075849897,44.48800000000003
Q0608,2025-06-03 17:00:00,金口航道码头,武汉市,江夏区,30.3672,114.1486,0.0,1004.8,23.2,79.0,22.45761109728204,43.40499999999998
Q0609,2025-06-03 17:00:00,嘉鱼簰洲湾海事站房,咸宁市,嘉鱼县,30.2064,113.9283,20.0,1004.6,22.5,91.0,24.79361671548889,48.20749999999998
Q0611,2025-06-03 17:00:00,秭归泄滩小学,宜昌市,秭归县,31.0047,110.6128,194.5,986.1,21.3,94.0,23.80080211896941,47.021
Q0612,2025-06-03 17:00:00,长江航道宜昌综合码头,宜昌市,宜都市,30.5539,111.39,40.0,1002.1,22.0,91.0,24.049739462991152,46.65149999999997
Q0613,2025-06-03 17:00:00,宜昌海事局孙家河执法队,宜昌市,宜都市,30.4106,111.5064,60.0,1002.6,22.0,90.0,23.78545661174949,48.269999999999975
Q0614,2025-06-03 17:00:00,松滋河口,宜昌市,宜都市,30.3075,111.6236,40.0,1002.4,22.7,72.0,19.856782318065047,41.729
Q0615,2025-06-03 17:00:00,枝江姚港,宜昌市,枝江市,30.3725,111.64,50.0,1002.8,22.2,94.0,25.14748831534266,48.88149999999995
Q0616,2025-06-03 17:00:00,枝江七星台,宜昌市,枝江市,30.4125,111.8875,40.0,1003.0,23.1,83.0,23.45235661848248,38.95607500000003
Q0617,2025-06-03 17:00:00,监利何王庙,荆州市,监利市,29.7708,113.0303,40.0,1003.9,23.1,89.0,25.147707699336628,51.01949999999995
Q0618,2025-06-03 17:00:00,监利三洲,荆州市,监利市,29.6517,112.9492,30.0,1004.0,21.4,2.0,0.5095157903842424,2.798500000000004
Q0619,2025-06-03 17:00:00,洪湖龙口汽渡码头,荆州市,洪湖市,29.9542,113.8303,30.0,1004.4,22.7,88.0,24.26940061096839,46.588166666666666
Q0701,2025-06-03 17:00:00,水口白灯船,武汉市,新洲区,30.6869,114.5175,4.0,1004.4,23.5,89.0,25.76314428935245,44.47999999999998
Q0702,2025-06-03 17:00:00,牧鹅洲白灯船,武汉市,新洲区,30.5583,114.6317,4.0,1004.5,24.3,69.0,20.95872068473193,40.568000000000005
Q0704,2025-06-03 17:00:00,沙市河段航道整治一期工程提示标,荆州市,沙市区,30.3142,112.2003,8.0,1002.4,22.7,100.0,27.578864330645896,54.34099999999992
Q0705,2025-06-03 17:00:00,公安大桥进口白泵船,荆州市,公安县,30.0753,112.3128,7.0,1002.4,23.4,90.0,25.895792340581178,46.05799999999997
Q0707,2025-06-03 17:00:00,桃花洲中提示标,荆州市,洪湖市,29.7636,112.6675,6.0,1002.9,22.1,100.0,26.59003260274658,58.36400000000001
Q0725,2025-06-03 17:00:00,天兴洲航道整治建筑物上提示标,武汉市,江岸区,30.6411,114.3525,4.0,1004.1,24.1,87.0,26.11078602888557,49.640999999999984
Q0729,2025-06-03 17:00:00,黄冈大桥#1红浮,黄冈市,市辖区,30.5308,114.8308,4.0,1004.2,23.7,84.0,24.6108484926906,44.194999999999936
Q0737,2025-06-03 17:00:00,李家洲#3红浮,黄冈市,市辖区,30.1289,115.2844,3.0,1004.9,22.7,88.0,24.26940061096839,56.81100000000004
Q1000,2025-06-03 17:00:00,江滩,武汉市,江岸区,30.5944,114.3017,28.8,1005.0,23.1,83.0,23.45235661848248,50.11750000000004
Q1001,2025-06-03 17:00:00,潘塘,武汉市,新洲区,30.9978,114.8886,62.0,1000.3,21.5,85.0,21.78755414429706,46.427000000000014
Q1002,2025-06-03 17:00:00,三店,武汉市,新洲区,30.9278,114.7925,28.0,1004.9,22.5,90.0,24.52115938894506,49.486500000000014
Q1003,2025-06-03 17:00:00,李集,武汉市,新洲区,30.8803,114.6789,24.6,1005.1,21.7,97.0,25.169759665953112,51.14500000000007
Q1004,2025-06-03 17:00:00,旧街,武汉市,新洲区,30.8169,114.8717,27.0,1004.9,20.9,90.0,22.234657832325297,42.18862499999997
Q1005,2025-06-03 17:00:00,辛冲,武汉市,新洲区,30.7997,114.8161,40.0,1003.7,21.8,89.0,23.235564329724536,38.11699999999997
Q1006,2025-06-03 17:00:00,汪集,武汉市,新洲区,30.8086,114.73,37.0,1003.5,22.6,90.0,24.670669526322914,50.891000000000055
Q1007,2025-06-03 17:00:00,仓埠,武汉市,江岸区,30.8736,114.6136,28.8,1002.7,22.7,86.0,23.71782332435547,43.80199999999997
Q1008,2025-06-03 17:00:00,凤凰,武汉市,新洲区,30.9403,114.7225,67.0,1001.5,21.0,95.0,23.61475929938069,43.723500000000016
Q1010,2025-06-03 17:00:00,化工,武汉市,洪山区,30.5064,114.3839,40.8,1004.0,23.2,83.0,23.594705330055817,43.16800000000001
Q1011,2025-06-03 17:00:00,五一大队,武汉市,东西湖区,30.7475,114.0272,26.0,1005.6,22.3,96.0,25.839487384065816,51.28049999999999
Q1013,2025-06-03 17:00:00,湖北省农科院,武汉市,洪山区,30.4836,114.3192,31.0,1005.0,22.5,87.0,23.70378740931356,49.53449999999995
Q1014,2025-06-03 17:00:00,花山工作基地,武汉市,市辖区,30.5325,114.5006,41.0,1003.1,22.4,64.0,17.33151565074548,33.75799999999998
Q1016,2025-06-03 17:00:00,湖北省预备役师,武汉市,洪山区,30.5333,114.5058,29.0,1004.3,20.7,83.0,20.25424278781576,33.57250000000002
Q1017,2025-06-03 17:00:00,和平公园,武汉市,青山区,30.6381,114.3803,22.0,1005.1,21.7,90.0,23.3533852570699,46.6928
Q1018,2025-06-03 17:00:00,纱帽,武汉市,汉南区,30.3322,114.0706,19.0,1005.1,22.9,88.0,24.56569261782414,44.39699999999998
Q1019,2025-06-03 17:00:00,湘口,武汉市,汉南区,30.2669,113.8478,25.0,1005.1,22.4,89.0,24.101638951817936,43.95499999999999
Q1020,2025-06-03 17:00:00,邓南,武汉市,汉南区,30.3078,113.9783,27.0,1004.7,22.7,96.0,26.47570975742006,53.51349999999999
Q1021,2025-06-03 17:00:00,东荆,武汉市,汉南区,30.3461,113.9131,24.0,1005.1,22.5,90.0,24.52115938894506,39.71149999999998
Q1022,2025-06-03 17:00:00,气象预警中心,武汉市,东西湖区,30.6703,114.1803,32.0,1005.5,22.3,92.0,24.76284207639641,38.155499999999975
Q1023,2025-06-03 17:00:00,建和分校,武汉市,洪山区,30.4614,114.2383,23.2,1005.4,23.1,86.0,24.30003215890955,42.3265
Q1024,2025-06-03 17:00:00,实验小学,武汉市,东西湖区,30.6242,114.1408,26.0,1005.5,24.1,77.0,23.10954625545045,39.43199999999999
Q1025,2025-06-03 17:00:00,白玉公园,武汉市,青山区,30.6014,114.4875,25.0,1005.5,21.3,94.0,23.80080211896941,48.84033333333331
Q1026,2025-06-03 17:00:00,沌阳,武汉市,汉南区,30.455,114.1294,28.0,1005.3,22.5,95.0,25.883446021664227,53.926499999999976
Q1027,2025-06-03 17:00:00,华师,武汉市,洪山区,30.5183,114.3594,43.1,1003.1,23.0,80.0,22.46820322435619,44.95549999999996
Q1028,2025-06-03 17:00:00,常青路,武汉市,东西湖区,30.6731,114.2292,24.0,1005.6,22.6,90.0,24.670669526322914,46.847000000000016
Q1029,2025-06-03 17:00:00,光谷二十七小学,武汉市,洪山区,30.5644,114.4858,26.8,1004.9,23.1,81.0,22.88723959153109,50.417
Q1030,2025-06-03 17:00:00,材保所,武汉市,东西湖区,30.6772,114.2828,35.0,1005.5,22.9,85.0,23.72822582403468,47.842999999999975
Q1031,2025-06-03 17:00:00,湖北省第二师范,武汉市,洪山区,30.4789,114.4464,35.0,1003.9,22.0,85.0,22.46404235554118,39.5685
Q1032,2025-06-03 17:00:00,百步亭社区,武汉市,江岸区,30.6644,114.3136,26.0,1005.7,22.3,86.0,23.147874114892293,47.22149999999999
Q1033,2025-06-03 17:00:00,南湖社区,武汉市,武昌区,30.5133,114.3114,19.0,1005.5,22.6,85.0,23.30007677486053,47.54899999999998
Q1036,2025-06-03 17:00:00,东湖落雁景区,武汉市,市辖区,30.5517,114.4369,23.0,1005.5,22.4,80.0,21.664394563431856,43.00933333333339
Q1038,2025-06-03 17:00:00,天兴洲,武汉市,洪山区,30.6708,114.41,25.0,1005.0,21.1,92.0,23.01005742829146,40.58900000000005
Q1039,2025-06-03 17:00:00,光谷二十一小学,武汉市,洪山区,30.5031,114.4803,45.3,1003.2,22.8,70.0,19.422735202437455,32.18799999999993
Q1040,2025-06-03 17:00:00,五云,武汉市,江岸区,30.7594,114.6317,24.0,1003.5,21.6,97.0,25.016190837777454,42.36750000000007
Q1041,2025-06-03 17:00:00,鄢家湖,武汉市,江岸区,30.6386,114.5739,11.5,1005.3,21.0,96.0,23.863335713058383,47.76799999999996
Q1042,2025-06-03 17:00:00,席家岗,武汉市,江岸区,30.8764,114.4739,32.5,1004.0,21.2,96.0,24.15844897488738,43.09349999999999
Q1043,2025-06-03 17:00:00,六指中心福利院,武汉市,江岸区,30.8822,114.5217,39.2,1003.8,21.9,92.0,24.166008716455764,55.01750000000008
Q1044,2025-06-03 17:00:00,青华,武汉市,江岸区,30.8683,114.5803,42.3,1003.6,21.2,92.0,23.15184693426708,39.5275
Q1045,2025-06-03 17:00:00,大咀,武汉市,江岸区,30.7972,114.4647,31.3,1003.7,22.8,92.0,25.52702340891781,44.263500000000015
Q1052,2025-06-03 17:00:00,武汉植物园,武汉市,洪山区,30.5447,114.42,23.3,1005.4,21.6,87.0,22.43720209161484,45.360499999999945
Q1054,2025-06-03 17:00:00,湖大,武汉市,武昌区,30.5814,114.3311,23.0,1005.3,23.7,82.0,24.024875909531296,36.51200000000002
Q1057,2025-06-03 17:00:00,林业站,武汉市,洪山区,30.6369,114.5061,33.0,1005.6,20.5,92.0,22.175203732790383,43.04599999999997
Q1061,2025-06-03 17:00:00,青山,武汉市,青山区,30.6411,114.4039,33.5,1004.6,22.7,82.0,22.61466875112963,33.664999999999935
Q1071,2025-06-03 17:00:00,士官学校,武汉市,洪山区,30.51,114.4581,35.0,1004.7,21.1,91.0,22.75994810841873,42.22400000000002
Q1072,2025-06-03 17:00:00,堤角公园,武汉市,江岸区,30.6664,114.335,27.0,1005.2,21.6,89.0,22.95299984084736,38.73950000000005
Q1073,2025-06-03 17:00:00,湖北省移动公司,武汉市,江汉区,30.6272,114.2394,25.0,1005.4,22.7,85.0,23.44203468104901,38.095500000000015
Q1081,2025-06-03 17:00:00,汉南,武汉市,汉南区,30.255,114.0589,22.1,1005.3,22.5,84.0,22.886415429682053,38.89450000000003
Q1082,2025-06-03 17:00:00,沌口,武汉市,汉南区,30.4769,114.1631,18.1,1005.1,22.6,94.0,25.767143727492822,53.898499999999984
Q1083,2025-06-03 17:00:00,春笋,武汉市,汉南区,30.4156,114.1306,21.6,1005.5,22.4,95.0,25.726468544075324,46.03299999999996
Q1084,2025-06-03 17:00:00,恒大农业,武汉市,汉南区,30.3267,114.0014,23.3,1005.2,21.8,93.0,24.27985935577957,45.75849999999991
Q1085,2025-06-03 17:00:00,武湖湿地,武汉市,汉南区,30.2131,113.8472,22.6,1005.4,22.4,91.0,24.643248815903736,45.56300000000002
Q1086,2025-06-03 17:00:00,喜鹊湖,武汉市,汉南区,30.22,113.8256,21.3,1005.5,21.7,91.0,23.61286731548179,49.2045
Q1087,2025-06-03 17:00:00,龙灵山,武汉市,汉南区,30.4258,114.1092,33.7,1004.2,22.0,86.0,22.728325206782845,43.97200000000002
Q1088,2025-06-03 17:00:00,武汉西,武汉市,汉南区,30.4586,114.0606,29.0,1004.7,22.3,88.0,23.686196768727,37.16450000000003
Q1101,2025-06-03 17:00:00,道观河,武汉市,新洲区,30.8781,114.9839,83.0,997.9,21.5,82.0,21.018581645086574,48.07600000000002
Q1102,2025-06-03 17:00:00,阳逻,武汉市,江岸区,30.6969,114.5339,25.0,1005.5,22.5,93.0,25.33853136857656,46.83800000000007
Q1103,2025-06-03 17:00:00,涨渡湖,武汉市,新洲区,30.6675,114.7861,18.7,1005.9,22.3,88.0,23.686196768727,34.48049999999995
Q1104,2025-06-03 17:00:00,双柳,武汉市,新洲区,30.5964,114.6472,23.0,1005.2,22.5,84.0,22.886415429682053,40.25750000000004
Q1105,2025-06-03 17:00:00,将军山,武汉市,新洲区,30.8894,115.0589,344.5,969.2,20.8,73.0,17.92407705909661,36.5795
Q1106,2025-06-03 17:00:00,徐古,武汉市,新洲区,30.9481,114.9694,73.0,999.8,21.5,74.0,18.967988313858616,38.05850000000004
Q1107,2025-06-03 17:00:00,徐治湾,武汉市,新洲区,30.8731,114.7681,25.0,1004.8,22.1,91.0,24.19692966849939,50.080499999999965
Q1108,2025-06-03 17:00:00,方院,武汉市,新洲区,30.9156,114.6519,39.3,1003.5,20.8,96.0,23.571389009222937,45.86100000000001
Q1109,2025-06-03 17:00:00,杨裴,武汉市,江岸区,30.7858,114.5475,31.6,1004.2,21.9,94.0,24.69135673203089,45.84016666666666
Q1111,2025-06-03 17:00:00,陈家田,武汉市,新洲区,30.975,114.7111,51.1,1002.2,20.2,97.0,22.950866895060063,43.971500000000006
Q1112,2025-06-03 17:00:00,大雾山,武汉市,新洲区,30.8286,114.9725,196.4,985.8,22.9,56.0,15.632713484069908,31.09700000000001
Q1113,2025-06-03 17:00:00,王寨,武汉市,新洲区,30.8742,114.8856,30.1,1004.6,21.4,88.0,22.41869477690667,36.885
Q1114,2025-06-03 17:00:00,春光,武汉市,新洲区,30.9244,114.6972,55.4,1001.7,21.4,90.0,22.92821056729091,50.93083333333334
Q1115,2025-06-03 17:00:00,易河,武汉市,新洲区,30.9389,114.9081,36.0,1004.0,21.0,97.0,24.111912126736076,51.16949999999995
Q1116,2025-06-03 17:00:00,李岗,武汉市,新洲区,30.9575,114.87,60.0,1001.2,21.4,91.0,23.18296846248304,29.71950000000004
Q1117,2025-06-03 17:00:00,徐寨,武汉市,新洲区,30.9631,114.7978,28.0,1004.9,22.3,91.0,24.493680749479054,46.85349999999996
Q1118,2025-06-03 17:00:00,陈路,武汉市,新洲区,30.6256,114.7536,22.2,1005.5,22.6,91.0,24.9447880766154,54.25450000000001
Q1119,2025-06-03 17:00:00,滨湖,武汉市,新洲区,30.6903,114.705,26.5,1004.9,22.2,92.0,24.61243537246303,44.980999999999966
Q1120,2025-06-03 17:00:00,航天新城,武汉市,新洲区,30.5981,114.6917,22.5,1005.4,22.1,86.0,22.867428038362057,37.94050000000004
Q1121,2025-06-03 17:00:00,大泊,武汉市,新洲区,30.7686,114.6692,20.6,1005.4,22.3,96.0,25.839487384065816,52.61650000000005
Q1122,2025-06-03 17:00:00,冯铺,武汉市,新洲区,30.7528,114.7064,23.9,1005.1,22.8,92.0,25.52702340891781,54.90649999999994
Q1123,2025-06-03 17:00:00,人胜,武汉市,新洲区,30.8286,114.6825,23.6,1005.1,22.7,94.0,25.924132470807145,50.89300000000002
Q1124,2025-06-03 17:00:00,杨铺,武汉市,新洲区,30.7658,114.815,35.4,1003.9,22.6,92.0,25.21890662690787,47.45499999999996
Q1125,2025-06-03 17:00:00,朱岗,武汉市,新洲区,30.7722,114.8658,39.5,1003.5,21.3,88.0,22.281601983716047,41.727
Q1126,2025-06-03 17:00:00,毛集,武汉市,新洲区,30.6581,114.6303,22.0,1003.9,21.4,79.0,20.125873720177577,26.73950000000003
Q1128,2025-06-03 17:00:00,王瓦,武汉市,新洲区,30.7972,114.6519,13.8,1005.2,21.8,95.0,24.802006868807087,41.558000000000014
Q1129,2025-06-03 17:00:00,四道沟,武汉市,新洲区,30.73,114.7775,20.2,1005.6,21.2,95.0,23.906798464732304,32.22350000000001
Q1130,2025-06-03 17:00:00,道观河水库,武汉市,新洲区,30.8692,115.0061,92.7,997.5,20.3,82.0,19.522138569590435,43.47849999999998
Q1131,2025-06-03 17:00:00,大屋冲,武汉市,新洲区,30.9228,115.0169,109.7,995.5,20.5,71.0,17.113472445957797,37.11999999999995
Q1132,2025-06-03 17:00:00,凤凰镇中心小学,武汉市,新洲区,30.9228,114.7528,34.0,1002.5,22.8,87.0,24.139685180172272,38.5195
Q1133,2025-06-03 17:00:00,旧街利河小学,武汉市,新洲区,30.8536,114.9625,31.0,1003.1,20.7,84.0,20.498269809355712,26.997500000000024
Q1134,2025-06-03 17:00:00,双柳汉昕小学,武汉市,新洲区,30.6467,114.8336,15.0,1005.7,22.1,88.0,23.39922869041699,37.77249999999997
Q1135,2025-06-03 17:00:00,刘六,武汉市,新洲区,30.8819,114.8447,32.0,1003.2,21.8,89.0,23.235564329724536,38.71999999999997
Q1136,2025-06-03 17:00:00,涨渡湖湿地森林公园,武汉市,新洲区,30.6756,114.7642,28.8,1005.8,22.4,94.0,25.455663612032428,57.51500000000011
Q1191,2025-06-03 17:00:00,紫薇都市田园,武汉市,江岸区,30.8192,114.6042,35.7,1003.7,21.6,92.0,23.72669646469615,46.50450000000001
Q1199,2025-06-03 17:00:00,邾城,武汉市,新洲区,30.8331,114.7997,26.4,1004.8,22.1,90.0,23.93102934247192,33.88649999999996
Q1201,2025-06-03 17:00:00,姚家集,武汉市,黄陂区,31.2047,114.3831,48.5,1002.9,20.9,97.0,23.964020108172814,49.7373333333333
Q1202,2025-06-03 17:00:00,蔡家榨,武汉市,黄陂区,30.9883,114.5211,88.0,998.3,22.2,89.0,23.809855958143583,49.899500000000025
Q1203,2025-06-03 17:00:00,李家集,武汉市,黄陂区,30.9947,114.2333,37.5,1002.4,21.3,98.0,24.813602209138327,50.284500000000016
Q1204,2025-06-03 17:00:00,天河机场,武汉市,黄陂区,30.8131,114.2119,35.0,1003.5,23.1,87.0,24.582590672385248,51.757000000000005
Q1207,2025-06-03 17:00:00,蔡店,武汉市,黄陂区,31.2856,114.3106,67.0,1000.8,21.3,95.0,24.05400214151164,51.12200000000001
Q1208,2025-06-03 17:00:00,祁家湾,武汉市,黄陂区,30.8853,114.2261,41.0,1003.6,22.8,89.0,24.694620471670486,49.15150000000006
Q1209,2025-06-03 17:00:00,横店,武汉市,黄陂区,30.8003,114.2903,38.0,1002.8,23.6,81.0,23.589247088824145,45.816500000000005
Q1210,2025-06-03 17:00:00,盘龙城,武汉市,黄陂区,30.7506,114.3008,30.0,1003.5,23.0,82.0,23.02990830496509,41.53350000000004
Q1212,2025-06-03 17:00:00,夏家寺水库,武汉市,黄陂区,31.0553,114.4678,49.0,1001.5,21.9,93.0,24.428682724243327,53.342999999999975
Q1213,2025-06-03 17:00:00,刘家山,武汉市,黄陂区,31.3047,114.2033,537.0,949.4,21.8,79.0,20.624826764586945,47.33900000000003
Q1214,2025-06-03 17:00:00,三里桥,武汉市,江岸区,30.7583,114.4194,23.0,1005.8,21.4,95.0,24.20200004325152,42.81150000000002
Q1215,2025-06-03 17:00:00,罗汉寺,武汉市,黄陂区,30.9933,114.3361,48.0,1002.7,21.5,97.0,24.863444141139,51.13300000000003
Q1216,2025-06-03 17:00:00,长轩岭,武汉市,黄陂区,31.1075,114.3617,49.0,1002.9,21.8,92.0,24.01878559926581,33.48299999999999
Q1217,2025-06-03 17:00:00,现代农展中心,武汉市,江岸区,30.7003,114.5036,21.0,1005.6,21.8,93.0,24.27985935577957,44.55133333333328
Q1218,2025-06-03 17:00:00,源泉,武汉市,黄陂区,31.2347,114.23,100.2,995.4,19.8,96.0,22.15814878446242,57.62949999999992
Q1219,2025-06-03 17:00:00,矿巴水库,武汉市,黄陂区,31.0919,114.2014,105.3,997.8,21.7,90.0,23.3533852570699,53.03549999999999
Q1220,2025-06-03 17:00:00,武湖,武汉市,江岸区,30.7003,114.4181,29.0,1005.3,23.1,85.0,24.01747364543386,47.07750000000004
Q1221,2025-06-03 17:00:00,滠口,武汉市,黄陂区,30.7122,114.3606,17.3,1004.6,22.4,90.0,24.372443883860832,47.80599999999998
Q1222,2025-06-03 17:00:00,农科院北区,武汉市,江岸区,30.7164,114.4722,28.0,1005.4,21.9,90.0,23.64066070088064,53.46086666666668
Q1224,2025-06-03 17:00:00,崇杰,武汉市,黄陂区,31.2561,114.3842,50.2,1002.7,21.3,96.0,24.30720216405387,55.37249999999997
Q1225,2025-06-03 17:00:00,梅店水库,武汉市,黄陂区,31.1831,114.3153,65.1,1000.7,21.5,94.0,24.094471641928514,54.48287499999997
Q1226,2025-06-03 17:00:00,道士冲,武汉市,黄陂区,31.2664,114.2336,106.9,995.9,20.2,95.0,22.477653144646453,48.373000000000005
Q1227,2025-06-03 17:00:00,姚家老屋,武汉市,黄陂区,31.2417,114.2836,87.3,998.1,20.8,93.0,22.834783102684725,38.59949999999989
Q1228,2025-06-03 17:00:00,双墩,武汉市,黄陂区,30.8536,114.1789,22.0,1003.7,23.2,90.0,25.58462023740992,43.342000000000006
Q1229,2025-06-03 17:00:00,红旗,武汉市,黄陂区,30.9553,114.1625,21.6,1003.7,21.9,95.0,24.954030739818453,46.175499999999936
Q1230,2025-06-03 17:00:00,同兴集,武汉市,黄陂区,31.1272,114.4814,46.7,1001.1,21.2,93.0,23.40349744442215,48.87449999999998
Q1231,2025-06-03 17:00:00,磨盘,武汉市,黄陂区,31.1839,114.4325,61.2,999.4,21.0,93.0,23.11760647202531,45.21200000000001
Q1232,2025-06-03 17:00:00,吊箭楼,武汉市,黄陂区,31.1419,114.4219,73.8,997.9,21.8,90.0,23.49663808623829,40.22050000000001
Q1233,2025-06-03 17:00:00,卧虎,武汉市,黄陂区,31.035,114.3906,29.0,1003.0,21.3,93.0,23.547602096427187,60.28950000000012
Q1234,2025-06-03 17:00:00,院基寺水库,武汉市,黄陂区,31.0972,114.315,48.5,1000.8,21.4,94.0,23.947242148059395,46.56550000000004
Q1235,2025-06-03 17:00:00,彭家冲,武汉市,黄陂区,31.0725,114.2422,86.4,998.9,21.0,92.0,22.86903005834762,56.26900000000005
Q1236,2025-06-03 17:00:00,红十月水库,武汉市,黄陂区,30.9511,114.4708,49.0,1000.9,22.1,92.0,24.462829994526857,51.49299999999997
Q1237,2025-06-03 17:00:00,北新,武汉市,黄陂区,31.0414,114.3053,60.4,999.3,22.4,87.0,23.56002908773214,37.799999999999976
Q1238,2025-06-03 17:00:00,余家冲水库,武汉市,黄陂区,31.3386,114.2825,96.0,995.2,21.1,96.0,24.01049470778239,57.67325000000008
Q1239,2025-06-03 17:00:00,官家砦,武汉市,黄陂区,31.0269,114.1628,34.0,1002.6,22.4,91.0,24.643248815903736,56.0595
Q1243,2025-06-03 17:00:00,定正,武汉市,黄陂区,30.9133,114.4825,21.0,1003.7,21.3,96.0,24.30720216405387,50.98999999999998
Q1244,2025-06-03 17:00:00,黄陂石门,武汉市,黄陂区,31.1486,114.3,62.7,999.8,20.2,96.0,22.714260019853256,57.08900000000004
Q1245,2025-06-03 17:00:00,仁和,武汉市,黄陂区,31.25,114.3386,27.9,1002.7,20.8,95.0,23.32585370704353,45.63749999999996
Q1246,2025-06-03 17:00:00,帽子村,武汉市,黄陂区,31.1961,114.4222,55.1,1000.0,21.4,93.0,23.692484252867278,50.73549999999997
Q1247,2025-06-03 17:00:00,白庙集,武汉市,黄陂区,30.9967,114.2653,53.0,1002.5,22.3,90.0,24.224519422561706,47.491541666666606
Q1248,2025-06-03 17:00:00,白龙寺,武汉市,黄陂区,30.9969,114.4553,28.8,1004.3,21.9,94.0,24.69135673203089,45.229666666666674
Q1250,2025-06-03 17:00:00,童家湖,武汉市,黄陂区,30.7614,114.1772,14.3,1005.0,23.6,87.0,25.33659872503334,45.50399999999998
Q1251,2025-06-03 17:00:00,艾馆,武汉市,黄陂区,30.9539,114.6003,55.1,999.9,22.1,88.0,23.39922869041699,45.09150000000003
Q1252,2025-06-03 17:00:00,全华,武汉市,黄陂区,30.8608,114.2969,43.9,1001.5,22.3,95.0,25.570326057148463,51.47750000000005
Q1253,2025-06-03 17:00:00,下店,武汉市,黄陂区,30.9294,114.3856,35.8,1002.6,22.6,96.0,26.31538082807777,47.68899999999999
Q1254,2025-06-03 17:00:00,黄陂郑店,武汉市,黄陂区,30.9661,114.2142,32.9,1002.1,22.0,96.0,25.37115371919945,57.43400000000001
Q1255,2025-06-03 17:00:00,茶庙,武汉市,黄陂区,31.2994,114.4211,65.4,999.0,21.5,93.0,23.83814747552502,60.12675000000011
Q1270,2025-06-03 17:00:00,木兰天池,武汉市,黄陂区,31.1797,114.2817,337.8,971.7,20.0,89.0,20.798829398317345,46.838500000000046
Q1271,2025-06-03 17:00:00,云雾山,武汉市,黄陂区,31.1264,114.2086,122.0,994.5,20.4,99.0,23.715532265124068,58.82550000000002
Q1301,2025-06-03 17:00:00,老屋汤,武汉市,江夏区,30.3508,114.4364,20.5,1005.5,21.7,96.0,24.910277607541225,48.54300000000004
Q1302,2025-06-03 17:00:00,安山,武汉市,江夏区,30.1533,114.2303,42.0,1003.2,21.9,88.0,23.115312685305515,47.14800000000002
Q1303,2025-06-03 17:00:00,金口,武汉市,江夏区,30.3481,114.1275,27.6,1005.0,22.2,100.0,26.75264714398155,50.01250000000002
Q1304,2025-06-03 17:00:00,郑店,武汉市,江夏区,30.285,114.2281,32.6,1004.8,21.3,95.0,24.05400214151164,52.659
Q1305,2025-06-03 17:00:00,法泗,武汉市,江夏区,30.1131,114.1917,24.0,1005.1,24.0,84.0,25.059336160472427,35.35049999999999
Q1306,2025-06-03 17:00:00,五里界,武汉市,江夏区,30.3058,114.4239,38.2,1003.7,21.9,96.0,25.216704747606013,50.325500000000005
Q1307,2025-06-03 17:00:00,山坡,武汉市,江夏区,30.0333,114.3808,40.0,1003.0,20.8,93.0,22.834783102684725,49.27399999999997
Q1308,2025-06-03 17:00:00,湖泗,武汉市,江夏区,30.0231,114.4622,40.8,1003.6,20.7,95.0,23.182567046295148,55.2632499999999
Q1309,2025-06-03 17:00:00,舒安,武汉市,江夏区,30.1494,114.5,32.3,1003.8,21.0,94.0,23.366182885703,54.677000000000014
Q1310,2025-06-03 17:00:00,乌龙泉,武汉市,江夏区,30.2106,114.3286,35.0,1003.7,21.7,92.0,23.87234937389368,52.13200000000002
Q1311,2025-06-03 17:00:00,庙山,武汉市,江夏区,30.4372,114.3781,19.7,1005.6,22.1,93.0,24.72873032055432,47.72999999999999
Q1313,2025-06-03 17:00:00,梁子湖,武汉市,江夏区,30.2603,114.4494,22.8,1005.4,23.0,91.0,25.55758116770517,41.62149999999996
Q1314,2025-06-03 17:00:00,庙山天玺湾,武汉市,江夏区,30.3864,114.38,22.0,1005.7,22.4,84.0,22.747614291603444,50.85150000000002
Q1316,2025-06-03 17:00:00,中央大公园,武汉市,江夏区,30.3872,114.3056,26.0,1005.5,22.2,95.0,25.415014786782475,48.86899999999989
Q1317,2025-06-03 17:00:00,郑店海吉星,武汉市,江夏区,30.3178,114.2592,28.0,1005.4,20.8,95.0,23.32585370704353,52.75200000000006
Q1318,2025-06-03 17:00:00,五里界锦绣,武汉市,江夏区,30.3278,114.3869,27.0,1003.8,21.1,97.0,24.260604027655123,54.4414999999999
Q1319,2025-06-03 17:00:00,舒安未来家园,武汉市,江夏区,30.1294,114.4775,35.0,1005.3,22.2,85.0,22.73975007238432,46.36800000000001
Q1320,2025-06-03 17:00:00,湖泗祝祠,武汉市,江夏区,30.005,114.5111,55.0,1003.0,20.7,95.0,23.182567046295148,52.96624999999997
Q1321,2025-06-03 17:00:00,舒安嗣孟,武汉市,江夏区,30.0417,114.5383,49.0,1003.6,20.9,98.0,24.211071861865324,53.99883333333327
Q1322,2025-06-03 17:00:00,乌龙泉茗泉谷,武汉市,江夏区,30.2406,114.3142,66.0,1001.8,21.4,93.0,23.692484252867278,56.11800000000002
Q1323,2025-06-03 17:00:00,山坡光星,武汉市,江夏区,30.0956,114.3458,24.0,1005.6,20.5,100.0,24.103482318250418,45.59175000000008
Q1324,2025-06-03 17:00:00,乌龙泉杨湖,武汉市,江夏区,30.2308,114.4347,24.0,1005.6,21.4,96.0,24.45675793844364,51.87749999999997
Q1325,2025-06-03 17:00:00,金口南岸,武汉市,江夏区,30.2164,114.0742,24.0,1005.6,22.8,91.0,25.2495557631687,36.16349999999998
Q1326,2025-06-03 17:00:00,金水花篮棚,武汉市,江夏区,30.2019,114.1539,21.0,1005.6,23.6,91.0,26.50149981583947,37.51199999999996
Q1327,2025-06-03 17:00:00,法泗花莲湖,武汉市,江夏区,30.2031,114.1856,23.0,1005.5,23.2,92.0,26.15316735379681,41.36099999999995
Q1328,2025-06-03 17:00:00,东湖路学校,武汉市,江夏区,30.3664,114.3228,23.0,1005.5,24.0,77.0,22.971058147099725,42.95900000000003
Q1329,2025-06-03 17:00:00,金口长江,武汉市,江夏区,30.2903,114.0978,21.1,1005.4,21.7,96.0,24.910277607541225,48.11800000000004
Q1330,2025-06-03 17:00:00,马蹄口,武汉市,江夏区,30.2444,114.1503,23.7,1005.4,22.8,90.0,24.97208811741959,39.99899999999998
Q1331,2025-06-03 17:00:00,三门口,武汉市,江夏区,30.2861,114.1775,43.3,1003.0,22.1,94.0,24.994630646581783,48.77649999999998
Q1332,2025-06-03 17:00:00,塘口,武汉市,江夏区,30.1914,114.4686,20.9,1005.6,21.9,92.0,24.166008716455764,47.45049999999999
Q1333,2025-06-03 17:00:00,三合,武汉市,江夏区,30.1481,114.36,34.1,1004.1,21.6,93.0,23.984595339312413,50.153999999999975
Q1334,2025-06-03 17:00:00,乌龙泉五星,武汉市,江夏区,30.1872,114.3167,41.0,1003.3,21.0,94.0,23.366182885703,54.771000000000015
Q1335,2025-06-03 17:00:00,邓家洲,武汉市,江夏区,30.0183,114.25,21.7,1005.6,22.9,83.0,23.16991462817504,38.1225
Q1336,2025-06-03 17:00:00,前途,武汉市,江夏区,30.0481,114.3033,35.5,1004.0,20.7,96.0,23.426594067835097,53.61574999999996
Q1337,2025-06-03 17:00:00,涂洲,武汉市,江夏区,30.2183,114.2303,28.3,1004.7,21.5,95.0,24.35079580833201,53.61199999999994
Q1338,2025-06-03 17:00:00,合心,武汉市,江夏区,30.1039,114.2444,31.2,1004.4,20.6,96.0,23.28257993420416,55.057500000000026
Q1339,2025-06-03 17:00:00,沿湖,武汉市,江夏区,30.1778,114.3586,32.5,1004.3,20.8,96.0,23.571389009222937,54.10499999999995
Q1340,2025-06-03 17:00:00,长岭,武汉市,江夏区,30.2194,114.3758,21.5,1005.5,20.8,97.0,23.816924311402342,55.02399999999998
Q1341,2025-06-03 17:00:00,祝庙,武汉市,江夏区,30.1742,114.5003,39.8,1003.4,21.3,94.0,23.80080211896941,55.79399999999999
Q1342,2025-06-03 17:00:00,陈六,武汉市,江夏区,30.0381,114.4119,39.1,1003.8,20.6,96.0,23.28257993420416,53.51299999999992
Q1343,2025-06-03 17:00:00,金口花园,武汉市,江夏区,30.3275,114.1272,27.9,1004.8,22.4,95.0,25.726468544075324,45.54349999999992
Q1344,2025-06-03 17:00:00,安山青春,武汉市,江夏区,30.1744,114.2619,26.9,1004.8,20.7,95.0,23.182567046295148,54.2130000000001
Q1345,2025-06-03 17:00:00,安山英雄,武汉市,江夏区,30.1472,114.3175,41.3,1003.2,20.7,94.0,22.9385400247552,50.094500000000025
Q1346,2025-06-03 17:00:00,周李家,武汉市,江夏区,30.0914,114.3069,40.7,1003.4,21.8,87.0,22.71341681669702,50.28783333333342
Q1347,2025-06-03 17:00:00,狮子山,武汉市,江夏区,30.2844,114.3825,35.2,1003.8,21.5,93.0,23.83814747552502,56.62499999999997
Q1348,2025-06-03 17:00:00,凉亭,武汉市,江夏区,30.3039,114.1303,26.0,1005.4,23.3,88.0,25.167798951258103,35.22849999999998
Q1349,2025-06-03 17:00:00,金港,武汉市,江夏区,30.3728,114.1886,24.9,1005.3,21.9,88.0,23.115312685305515,50.53900000000003
Q1350,2025-06-03 17:00:00,山坡东方红,武汉市,江夏区,30.0536,114.2386,22.2,1005.5,22.3,93.0,25.03200340331376,46.36599999999995
Q1351,2025-06-03 17:00:00,新生,武汉市,江夏区,30.1067,114.4064,42.6,1003.3,21.8,86.0,22.452343060183257,39.6625
Q1352,2025-06-03 17:00:00,官堤,武汉市,江夏区,30.0669,114.4333,38.5,1003.8,20.8,95.0,23.32585370704353,54.18049999999994
Q1353,2025-06-03 17:00:00,八分山,武汉市,江夏区,30.3608,114.2928,262.0,978.2,23.8,63.0,18.56966766584655,35.76549999999997
Q1354,2025-06-03 17:00:00,普生园,武汉市,江夏区,30.4092,114.3656,20.7,1004.4,23.8,78.0,22.99101711009572,45.105
Q1401,2025-06-03 17:00:00,东山,武汉市,东西湖区,30.7736,114.0089,20.9,1005.5,22.3,86.0,23.147874114892293,45.86299999999996
Q1402,2025-06-03 17:00:00,柏泉,武汉市,东西湖区,30.7692,114.1272,33.6,1004.6,22.2,87.0,23.274803015263952,39.7325
Q1403,2025-06-03 17:00:00,郁金香公园,武汉市,东西湖区,30.7053,114.0806,21.0,1005.8,21.7,96.0,24.910277607541225,44.04649999999998
Q1404,2025-06-03 17:00:00,走马岭,武汉市,东西湖区,30.6506,114.0136,13.0,1005.2,22.8,86.0,23.862217534423163,41.83000000000001
Q1405,2025-06-03 17:00:00,辛安渡,武汉市,东西湖区,30.7461,113.9286,31.3,1005.3,21.8,96.0,25.063080625320847,52.59420833333337
Q1406,2025-06-03 17:00:00,径河,武汉市,东西湖区,30.6808,114.1228,23.0,1005.1,23.1,90.0,25.43026621281232,49.26399999999999
Q1407,2025-06-03 17:00:00,将军路,武汉市,东西湖区,30.6642,114.2636,16.0,1005.2,22.5,95.0,25.883446021664227,53.2540000000001
Q1408,2025-06-03 17:00:00,杜公湖,武汉市,东西湖区,30.7228,114.145,25.0,1005.5,23.5,91.0,26.34209135203453,44.71849999999999
Q1410,2025-06-03 17:00:00,新沟,武汉市,东西湖区,30.6897,113.9931,22.0,1005.5,21.5,95.0,24.35079580833201,42.33699999999989
Q1411,2025-06-03 17:00:00,塔尔头,武汉市,东西湖区,30.6919,114.1892,32.0,1005.5,22.3,96.0,25.839487384065816,45.654
Q1412,2025-06-03 17:00:00,金银湖,武汉市,东西湖区,30.6422,114.1814,23.0,1005.5,23.0,87.0,24.434171006487357,41.11600000000001
Q1413,2025-06-03 17:00:00,红星合作社,武汉市,东西湖区,30.7642,113.9464,32.0,1005.5,21.5,97.0,24.863444141139,48.198999999999984
Q1501,2025-06-03 17:00:00,成功闸,武汉市,蔡甸区,30.3908,113.7656,21.0,1005.1,23.9,88.0,26.095196917111057,52.4455
Q1502,2025-06-03 17:00:00,大集,武汉市,蔡甸区,30.5081,114.0531,30.0,1004.6,23.0,85.0,23.872465925878448,44.52450000000005
Q1503,2025-06-03 17:00:00,索河,武汉市,蔡甸区,30.5236,113.8964,41.3,1003.6,22.0,93.0,24.57830516547447,47.14099999999999
Q1504,2025-06-03 17:00:00,桐湖农场,武汉市,蔡甸区,30.3917,113.9786,35.0,1005.3,22.9,85.0,23.72822582403468,38.33100000000004
Q1506,2025-06-03 17:00:00,消泗,武汉市,蔡甸区,30.3169,113.7728,27.0,1005.5,23.0,86.0,24.1533184661829,44.44799999999999
Q1507,2025-06-03 17:00:00,永安,武汉市,蔡甸区,30.4617,113.9281,48.6,1002.8,22.7,83.0,22.89045739443609,41.68100000000003
Q1509,2025-06-03 17:00:00,奓山,武汉市,蔡甸区,30.4297,114.0436,31.3,1004.3,23.0,86.0,24.1533184661829,42.98799999999999
Q1510,2025-06-03 17:00:00,侏儒,武汉市,蔡甸区,30.4525,113.8792,26.5,1005.2,22.3,96.0,25.839487384065816,46.22750000000002
Q1512,2025-06-03 17:00:00,沉湖湿地,武汉市,蔡甸区,30.3242,113.8619,25.0,1004.9,22.6,90.0,24.670669526322914,35.396500000000024
Q1513,2025-06-03 17:00:00,千子山,武汉市,蔡甸区,30.4078,114.0333,37.2,1003.7,23.2,83.0,23.594705330055817,49.54050000000001
Q1514,2025-06-03 17:00:00,九真山,武汉市,蔡甸区,30.4839,113.9544,122.0,994.3,20.8,98.0,24.06245961358175,52.83449999999998
Q1515,2025-06-03 17:00:00,绿茵园,武汉市,蔡甸区,30.4467,114.0142,27.3,1004.9,22.7,86.0,23.71782332435547,38.441500000000055
Q1516,2025-06-03 17:00:00,时光农场,武汉市,蔡甸区,30.4086,113.8017,21.5,1005.5,22.6,93.0,25.493025177200348,48.4955
Q1517,2025-06-03 17:00:00,农耕园,武汉市,蔡甸区,30.4275,113.9525,22.7,1005.5,21.7,98.0,25.429241724365003,42.596000000000025
Q1518,2025-06-03 17:00:00,花博汇,武汉市,蔡甸区,30.4956,114.0656,32.4,1005.7,21.4,94.0,23.947242148059395,38.37500000000004
Q1519,2025-06-03 17:00:00,鸽翅岭,武汉市,蔡甸区,30.5394,113.9619,32.0,1004.4,21.4,94.0,23.947242148059395,33.03850000000001
Q1520,2025-06-03 17:00:00,景秀大地,武汉市,蔡甸区,30.4989,113.9781,22.3,1005.6,21.4,94.0,23.947242148059395,37.91900000000003
Q1521,2025-06-03 17:00:00,七沟,武汉市,蔡甸区,30.4289,113.7733,23.2,1005.4,23.1,94.0,26.56050026671509,46.9805
Q1522,2025-06-03 17:00:00,香草花田,武汉市,蔡甸区,30.5133,113.8858,27.1,1004.9,21.1,96.0,24.01049470778239,34.99750000000003
Q1523,2025-06-03 17:00:00,金龙水寨,武汉市,蔡甸区,30.54,113.9247,22.2,1005.5,22.2,88.0,23.542329486703768,46.32950000000002
Q1524,2025-06-03 17:00:00,谢八家,武汉市,蔡甸区,30.6244,113.9264,24.8,1005.1,22.7,93.0,25.648343827500685,56.33899999999998
Q1525,2025-06-03 17:00:00,蔡甸野生动物王国,武汉市,蔡甸区,30.5567,113.9353,23.3,1005.3,22.1,94.0,24.994630646581783,43.32849999999996
Q1526,2025-06-03 17:00:00,长江大学,武汉市,蔡甸区,30.5292,114.0256,21.5,1005.6,23.0,92.0,25.838433708009617,51.54149999999997
Q1527,2025-06-03 17:00:00,蔡甸汉江堤防,武汉市,蔡甸区,30.6311,113.9797,26.1,1005.0,22.9,88.0,24.56569261782414,43.39899999999998
Q1528,2025-06-03 17:00:00,后官湖湿地公园,武汉市,蔡甸区,30.5306,114.0786,24.3,1005.2,22.5,92.0,25.066074042032728,40.878000000000014
Q1529,2025-06-03 17:00:00,张家大湖,武汉市,蔡甸区,30.3156,113.8164,23.3,1005.4,22.6,92.0,25.21890662690787,43.66850000000003
Q1599,2025-06-03 17:00:00,孙家畈,武汉市,蔡甸区,30.5664,114.0289,17.8,1005.1,22.5,90.0,24.52115938894506,39.71149999999998
Q1701,2025-06-03 17:00:00,藏龙岛,武汉市,江夏区,30.4017,114.4189,30.0,1005.0,21.5,95.0,24.35079580833201,52.65599999999996
Q1702,2025-06-03 17:00:00,东湖高新射击场,武汉市,洪山区,30.5039,114.4608,40.0,1004.0,21.0,84.0,20.88041874892609,33.89900000000001
Q1703,2025-06-03 17:00:00,武汉欢乐谷,武汉市,洪山区,30.5972,114.3886,30.0,1005.5,23.4,85.0,24.45713721054889,41.01149999999996
Q1704,2025-06-03 17:00:00,东湖湖心亭,武汉市,武昌区,30.57,114.39,30.0,1005.4,23.3,95.0,27.16978295874454,41.842000000000006
Q1706,2025-06-03 17:00:00,青山沙排中心,武汉市,青山区,30.6508,114.3919,30.0,1005.1,22.9,100.0,27.915559792981977,46.841999999999935
Q1707,2025-06-03 17:00:00,驿山高尔夫,武汉市,洪山区,30.5,114.5006,50.0,1001.3,21.7,65.0,16.866333796772707,26.48700000000001
Q1708,2025-06-03 17:00:00,华科,武汉市,武昌区,30.5094,114.4117,40.0,1004.0,22.8,75.0,20.810073431182992,47.05116666666669
Q1709,2025-06-03 17:00:00,省奥体中心,武汉市,市辖区,30.4739,114.4547,40.0,1002.8,23.6,78.0,22.715571270719543,45.910000000000025
Q1710,2025-06-03 17:00:00,洪山体育馆,武汉市,武昌区,30.5489,114.3281,30.0,1003.9,23.9,77.0,22.83329730247217,39.92899999999998
Q1711,2025-06-03 17:00:00,武汉体育学院,武汉市,洪山区,30.5219,114.3725,30.0,1005.0,23.6,73.0,21.25944490721188,46.182000000000016
Q1712,2025-06-03 17:00:00,武大,武汉市,武昌区,30.5383,114.3511,30.0,1005.2,23.0,79.0,22.187350684051733,39.973999999999926
Q1713,2025-06-03 17:00:00,武汉软件职院,武汉市,市辖区,30.4508,114.4231,30.0,1004.2,23.5,96.0,27.78945900873972,45.35449999999994
Q1714,2025-06-03 17:00:00,武汉理工大学,武汉市,洪山区,30.5058,114.325,30.0,1005.5,24.2,76.0,22.94683286881217,41.02150000000006
Q1715,2025-06-03 17:00:00,武汉城市职院,武汉市,洪山区,30.4414,114.3086,20.0,1005.6,23.4,97.0,27.90990952262638,43.13199999999994
Q1716,2025-06-03 17:00:00,武汉体育中心,武汉市,汉南区,30.5061,114.1683,30.0,1005.5,23.6,84.0,24.46292290692874,44.113000000000014
Q1717,2025-06-03 17:00:00,武汉商学院,武汉市,汉南区,30.4664,114.08,30.0,1005.5,22.5,100.0,27.2457326543834,53.912
Q1718,2025-06-03 17:00:00,江汉大学,武汉市,汉南区,30.5208,114.1497,30.0,1005.5,23.2,100.0,28.42735581934436,41.0360000000001
Q1720,2025-06-03 17:00:00,全民健身中心,武汉市,江岸区,30.6472,114.2831,30.0,1005.8,23.5,82.0,23.736829569965177,46.70949999999993
Q1721,2025-06-03 17:00:00,汉口文体中心,武汉市,江汉区,30.6028,114.2636,30.0,1005.6,23.9,93.0,27.57787856012873,46.653
Q1722,2025-06-03 17:00:00,汉阳沙排中心,武汉市,汉阳区,30.5017,114.2308,30.0,1004.9,23.1,97.0,27.408175807142168,47.453500000000005
Q1723,2025-06-03 17:00:00,军山,武汉市,汉南区,30.3978,114.1156,40.0,1003.4,22.6,100.0,27.41185502924769,56.95100000000003
Q1724,2025-06-03 17:00:00,蔡甸国防园,武汉市,蔡甸区,30.4764,113.9647,60.0,1002.3,21.0,93.0,23.11760647202531,45.551
Q1725,2025-06-03 17:00:00,海工大木兰校区,武汉市,黄陂区,31.1183,114.4642,50.0,1002.2,22.2,100.0,26.75264714398155,60.04449999999994
Q1726,2025-06-03 17:00:00,体育中心,武汉市,东西湖区,30.6378,114.1269,20.0,1004.7,23.2,80.0,22.741884655475488,41.52000000000002
Q1727,2025-06-03 17:00:00,东湖帆船基地,武汉市,武昌区,30.5425,114.3689,30.0,1005.7,22.3,91.0,24.493680749479054,46.82050000000002
Q1728,2025-06-03 17:00:00,雷神山,武汉市,江夏区,30.4408,114.2756,20.0,1005.5,23.4,96.0,27.62217849661992,41.11599999999999
Q1729,2025-06-03 17:00:00,桂子米业,武汉市,江夏区,30.1603,114.1839,47.0,1003.0,22.7,100.0,27.578864330645896,50.21449999999994
Q1730,2025-06-03 17:00:00,天子山教育基地,武汉市,江夏区,30.1494,114.4292,40.0,1004.0,21.1,98.0,24.510713347527854,53.79849999999992
Q1745,2025-06-03 17:00:00,中法生态城,武汉市,蔡甸区,30.5631,114.07,22.1,1005.1,23.1,89.0,25.147707699336628,48.08100000000001
Q1753,2025-06-03 17:00:00,高新大道,武汉市,市辖区,30.4872,114.4561,50.0,1002.1,21.6,81.0,20.889808843917265,34.74400000000003
Q1754,2025-06-03 17:00:00,天兴洲大桥,武汉市,洪山区,30.6575,114.4003,60.0,1000.2,25.3,63.0,20.31490296649268,39.22750000000003
Q1755,2025-06-03 17:00:00,知音桥,武汉市,硚口区,30.5811,114.2161,35.0,1004.2,24.2,77.0,23.248764880243908,32.26716666666663
Q1756,2025-06-03 17:00:00,晴川桥,武汉市,硚口区,30.5656,114.2783,15.0,1003.5,24.6,76.0,23.503750136762186,41.19649999999999
Q1759,2025-06-03 17:00:00,长江二桥,武汉市,江岸区,30.6036,114.3217,20.0,1001.8,24.6,68.0,21.02967117499775,33.19374999999999
Q1760,2025-06-03 17:00:00,二七长江大桥,武汉市,江岸区,30.6294,114.3394,25.0,1001.2,25.1,65.0,20.71148877203117,37.4115
Q1761,2025-06-03 17:00:00,杨泗港长江大桥,武汉市,汉阳区,30.5069,114.2625,30.0,1000.6,24.6,69.0,21.338931045218292,34.121499999999976
Q1762,2025-06-03 17:00:00,鹦鹉洲大桥,武汉市,汉阳区,30.5339,114.2764,40.0,1001.6,24.3,75.0,22.781218135578182,39.049500000000016
Q1763,2025-06-03 17:00:00,古田桥,武汉市,硚口区,30.5872,114.1797,25.0,1003.4,24.1,76.0,22.80942227810694,32.08450000000002
Q1764,2025-06-03 17:00:00,月湖桥,武汉市,硚口区,30.5644,114.2483,35.0,1003.9,24.4,77.0,23.52940674837009,41.19400000000002
Q1765,2025-06-03 17:00:00,八一路延长线,武汉市,市辖区,30.5286,114.3831,11.0,1004.4,23.5,85.0,24.60525016398829,46.049500000000016
Q1766,2025-06-03 17:00:00,青化立交,武汉市,洪山区,30.6058,114.43,20.0,1004.0,23.6,71.0,20.676994361808816,33.429500000000004
Q1767,2025-06-03 17:00:00,欢乐大道,武汉市,市辖区,30.6017,114.41,22.0,1004.2,24.3,69.0,20.95872068473193,37.255499999999934
Q1768,2025-06-03 17:00:00,姑嫂树立交,武汉市,东西湖区,30.6386,114.2514,26.0,1003.7,25.1,68.0,21.667403638432614,36.55399999999999
Q1769,2025-06-03 17:00:00,楚康路出口,武汉市,洪山区,30.5097,114.3594,18.0,1003.9,24.8,71.0,22.22171010481349,37.14999999999996
Q1770,2025-06-03 17:00:00,长丰大道,武汉市,硚口区,30.6083,114.2083,22.0,1004.1,24.2,73.0,22.04103683451695,39.07349999999999
Q1772,2025-06-03 17:00:00,白沙洲大道高架,武汉市,洪山区,30.505,114.2844,22.0,1004.4,24.8,74.0,23.160655602199974,37.77949999999994
Q1775,2025-06-03 17:00:00,汪家咀立交,武汉市,汉阳区,30.5186,114.1814,17.0,1003.8,24.9,78.0,24.55888287158431,46.41549999999997
Q1776,2025-06-03 17:00:00,四新北路,武汉市,汉阳区,30.5147,114.2403,21.0,1004.3,24.1,81.0,24.3100421648245,49.52800000000006
Q1778,2025-06-03 17:00:00,老武黄立交,武汉市,市辖区,30.5103,114.4556,8.0,1003.1,21.6,85.0,21.92140434238231,40.33175000000005
Q1779,2025-06-03 17:00:00,青菱立交,武汉市,洪山区,30.4628,114.2886,13.0,1004.6,24.1,90.0,27.011157960916112,47.24750000000002
Q1780,2025-06-03 17:00:00,汤逊湖大桥,武汉市,江夏区,30.4244,114.3781,25.0,1005.7,24.2,76.0,22.94683286881217,39.62400000000002
Q2004,2025-06-03 17:00:00,红卫,十堰市,张湾区,32.6525,110.7253,336.4,969.5,20.5,88.0,21.21106444006037,28.18500000000003
Q2022,2025-06-03 17:00:00,小川,十堰市,茅箭区,32.4628,110.7172,643.8,937.2,15.7,95.0,16.932758344875538,31.11370000000001
Q2023,2025-06-03 17:00:00,黄龙,十堰市,张湾区,32.6861,110.5586,186.4,986.0,21.1,91.0,22.75994810841873,45.04550000000001
Q2031,2025-06-03 17:00:00,紫霄宫,十堰市,丹江口市,32.4253,111.0228,851.0,914.5,19.0,62.0,13.615238991188232,22.76150000000002
Q2032,2025-06-03 17:00:00,八仙观,十堰市,丹江口市,32.4308,111.0567,588.0,944.7,21.9,54.0,14.184396420528383,25.138
Q2033,2025-06-03 17:00:00,太子坡,十堰市,丹江口市,32.4489,111.0708,558.0,946.2,21.4,56.0,14.26644213075879,24.293000000000006
Q2034,2025-06-03 17:00:00,元和观,十堰市,丹江口市,32.4978,111.0942,396.0,962.5,22.7,60.0,16.547318598387537,27.956500000000027
Q2050,2025-06-03 17:00:00,火车站小学,十堰市,茅箭区,32.6017,110.7742,310.0,973.4,21.9,67.0,17.599158521766697,26.657499999999978
Q2204,2025-06-03 17:00:00,习家店,十堰市,丹江口市,32.7708,111.1592,253.1,978.8,19.3,93.0,20.808592605397823,37.36850000000005
Q2205,2025-06-03 17:00:00,石鼓,十堰市,丹江口市,32.7553,111.3811,297.0,973.8,24.2,63.0,19.02171672019956,30.789000000000048
Q2206,2025-06-03 17:00:00,丁家营,十堰市,丹江口市,32.4447,111.2453,186.0,986.9,19.2,97.0,21.568742668315814,41.76250000000008
Q2236,2025-06-03 17:00:00,蒿口新村,十堰市,丹江口市,32.5219,111.0364,179.1,987.4,20.5,87.0,20.970029616877863,32.88650000000001
Q2261,2025-06-03 17:00:00,马鞍山,十堰市,丹江口市,32.3306,111.1797,503.1,952.0,17.5,85.0,16.987966446319966,31.418000000000003
Q2266,2025-06-03 17:00:00,大坝街道,十堰市,丹江口市,32.5486,111.5125,133.4,992.1,22.3,97.0,26.108648710983168,58.92200000000003
Q2309,2025-06-03 17:00:00,茶店,十堰市,郧阳区,32.7992,110.8847,212.2,983.7,20.7,91.0,22.20645896013536,44.28650000000014
Q2324,2025-06-03 17:00:00,安阳,十堰市,郧阳区,32.8525,111.0044,221.0,981.6,20.2,89.0,21.058011893405624,44.55349999999996
Q2326,2025-06-03 17:00:00,五峰,十堰市,郧阳区,32.8278,110.3708,193.5,986.5,20.3,89.0,21.188662593823768,33.84200000000001
Q2334,2025-06-03 17:00:00,塘上,十堰市,郧阳区,33.0756,110.735,834.7,915.9,13.4,91.0,13.97985235273642,26.2115
Q2350,2025-06-03 17:00:00,韩家沟,十堰市,郧阳区,32.8653,110.6186,244.8,981.0,18.9,87.0,18.98628415860313,31.12800000000003
Q2353,2025-06-03 17:00:00,毛河,十堰市,郧阳区,32.5125,110.4669,537.4,948.5,18.6,94.0,20.132494536226968,36.972499999999954
Q2401,2025-06-03 17:00:00,上津,十堰市,郧西县,33.0742,110.0211,273.4,978.0,18.9,86.0,18.768051007354817,38.57699999999996
Q2402,2025-06-03 17:00:00,马安,十堰市,郧西县,33.0053,110.2311,374.2,966.6,17.3,95.0,18.748032713430085,41.13399999999993
Q2403,2025-06-03 17:00:00,土门,十堰市,郧西县,33.0589,110.3233,364.3,967.2,18.8,88.0,19.08483773580104,33.071000000000005
Q2405,2025-06-03 17:00:00,六郎,十堰市,郧西县,32.9978,110.0711,264.9,975.7,19.2,83.0,18.455728262579512,30.98399999999994
Q2409,2025-06-03 17:00:00,三官,十堰市,郧西县,33.1683,110.5619,838.1,915.8,12.5,95.0,13.759833418615786,25.855500000000006
Q2411,2025-06-03 17:00:00,槐树,十堰市,郧西县,33.2025,109.9003,794.0,921.0,17.9,66.0,13.52763705879597,23.348000000000017
Q2423,2025-06-03 17:00:00,河夹,十堰市,郧西县,32.9303,110.5283,273.0,974.7,18.6,87.0,18.63326621969943,29.113500000000013
Q2424,2025-06-03 17:00:00,湖北口,十堰市,郧西县,33.1942,109.575,890.6,911.0,13.8,89.0,14.03327196516107,25.79199999999998
Q2433,2025-06-03 17:00:00,包耳场,十堰市,郧西县,33.1864,109.75,640.0,937.8,15.4,96.0,16.78501490666256,32.35799999999998
Q2502,2025-06-03 17:00:00,土城,十堰市,房县,32.2775,110.6972,669.3,934.6,16.4,96.0,17.89336785912223,38.78400000000009
Q2503,2025-06-03 17:00:00,沙河,十堰市,房县,32.1378,111.0931,843.6,915.6,18.8,77.0,16.699233018825907,22.01650000000002
Q2504,2025-06-03 17:00:00,卧牛观,十堰市,房县,32.2108,110.9142,711.4,930.0,16.1,93.0,17.005725424931015,31.479
Q2505,2025-06-03 17:00:00,门古寺,十堰市,房县,32.0058,110.4417,624.2,939.8,18.2,94.0,19.633627028230787,39.33899999999996
Q2507,2025-06-03 17:00:00,军店,十堰市,房县,32.0336,110.6253,495.7,953.3,18.6,87.0,18.63326621969943,34.31049999999996
Q2509,2025-06-03 17:00:00,中坝,十堰市,房县,32.0064,110.28,795.4,920.7,18.0,87.0,17.944481233811846,52.31216666666669
Q2524,2025-06-03 17:00:00,三里坪,十堰市,房县,31.9419,110.9697,415.0,962.2,19.0,96.0,21.081660373452745,39.79499999999998
Q2528,2025-06-03 17:00:00,白鹤,十堰市,房县,32.0997,110.7728,464.5,956.8,18.1,94.0,19.510619817971936,37.08099999999999
Q2530,2025-06-03 17:00:00,汪家河,十堰市,房县,32.1044,110.5331,563.7,946.1,18.0,90.0,18.56325644877088,32.540000000000006
Q2532,2025-06-03 17:00:00,对寺河,十堰市,房县,32.3347,110.3903,265.0,980.3,19.5,91.0,20.61618510964425,45.52249999999993
Q2546,2025-06-03 17:00:00,南潭,十堰市,房县,31.9833,110.7353,737.0,927.3,16.3,96.0,17.77971006939818,36.48300000000005
Q2548,2025-06-03 17:00:00,白鸡,十堰市,房县,32.2303,110.7133,592.3,942.9,16.6,94.0,17.745047184884143,32.25930000000004
Q2559,2025-06-03 17:00:00,东蒿,十堰市,房县,31.8842,110.7753,1359.0,863.0,12.9,96.0,14.274080181929532,26.685499999999983
Q2605,2025-06-03 17:00:00,柳林,十堰市,竹山县,31.7169,110.0508,523.7,952.0,18.5,92.0,19.58106998846665,38.39549999999995
Q2623,2025-06-03 17:00:00,秦古,十堰市,竹山县,32.4331,109.82,580.3,944.1,19.6,87.0,19.8329199695353,44.09649999999992
Q2624,2025-06-03 17:00:00,擂鼓,十堰市,竹山县,32.3533,109.9286,513.9,951.4,19.1,100.0,22.097562403553933,40.88400000000007
Q2626,2025-06-03 17:00:00,溢水,十堰市,竹山县,32.2786,110.0842,508.8,951.9,19.6,92.0,20.972742956290205,46.66800000000008
Q2628,2025-06-03 17:00:00,深河,十堰市,竹山县,32.1117,110.2306,361.0,969.0,18.8,95.0,20.602949828421576,41.868
Q2655,2025-06-03 17:00:00,潘口,十堰市,竹山县,32.23,110.1844,273.8,978.1,19.6,95.0,21.656636748343143,39.61300000000006
Q2676,2025-06-03 17:00:00,北大街,十堰市,竹山县,32.2256,110.2261,307.0,974.6,20.3,94.0,22.379036896847573,45.98600000000004
Q2701,2025-06-03 17:00:00,龙坝,十堰市,竹溪县,32.3569,109.6453,563.6,945.8,18.7,87.0,18.750292941387865,39.52099999999995
Q2721,2025-06-03 17:00:00,泉溪,十堰市,竹溪县,32.0428,109.6986,849.5,915.9,16.3,100.0,18.52053132228977,53.5115
Q2745,2025-06-03 17:00:00,界牌沟,十堰市,竹溪县,32.1683,109.5989,655.4,937.6,18.3,87.0,18.286025486261103,50.15649999999994
Q2748,2025-06-03 17:00:00,天宝,十堰市,竹溪县,31.9983,109.7814,498.9,952.3,18.0,97.0,20.007065283675274,39.27074999999996
Q2757,2025-06-03 17:00:00,高子河,十堰市,竹溪县,31.8119,109.7686,1063.6,894.4,14.5,100.0,16.499588599186502,54.31083333333335
Q2903,2025-06-03 17:00:00,新华,省直辖县级行政区划,神农架林区,31.5953,110.8861,716.7,930.1,17.2,89.0,17.453147510167508,34.75749999999998
Q2906,2025-06-03 17:00:00,徐家庄,省直辖县级行政区划,神农架林区,31.5622,110.5533,1398.1,859.7,11.9,94.0,13.087887494937789,24.6695
Q2910,2025-06-03 17:00:00,木鱼,省直辖县级行政区划,神农架林区,31.4828,110.3786,1245.0,873.4,14.3,80.0,13.029995198751031,22.418
Q2912,2025-06-03 17:00:00,神农架机场,省直辖县级行政区划,神农架林区,31.6119,110.3383,2597.4,745.9,10.3,32.0,4.006523018820499,7.737499999999995
Q2916,2025-06-03 17:00:00,板桥,省直辖县级行政区划,神农架林区,31.4089,110.1781,1026.6,897.6,14.8,95.0,15.981173868884955,30.116999999999997
Q2923,2025-06-03 17:00:00,牛场坪,省直辖县级行政区划,神农架林区,31.5508,110.3911,2285.0,773.9,9.2,57.0,6.628930005607808,10.673000000000016
Q2925,2025-06-03 17:00:00,九冲,省直辖县级行政区划,神农架林区,31.4083,110.5553,699.8,932.0,16.6,83.0,15.668499110057276,29.82349999999996
Q2933,2025-06-03 17:00:00,大九湖,省直辖县级行政区划,神农架林区,31.4958,109.9953,1752.0,825.3,10.4,97.0,12.226134840332534,22.40366666666666
Q2940,2025-06-03 17:00:00,红花,省直辖县级行政区划,神农架林区,31.3992,110.475,819.5,919.3,15.9,90.0,16.248188592783244,28.93349999999993
Q2950,2025-06-03 17:00:00,阳日,省直辖县级行政区划,神农架林区,31.7328,110.8061,498.0,953.7,18.0,85.0,17.53196442383916,35.094500000000004
Q2957,2025-06-03 17:00:00,青天袍,省直辖县级行政区划,神农架林区,31.5144,110.3881,1569.0,844.6,14.4,58.0,9.5080788593566,16.21049999999998
Q3005,2025-06-03 17:00:00,隆中,襄阳市,襄城区,31.9889,112.0322,107.3,995.1,20.4,95.0,22.75732894128067,40.63050000000008
Q3008,2025-06-03 17:00:00,襄阳老站,襄阳市,襄城区,32.0283,112.1664,68.6,999.7,22.8,81.0,22.47487930567764,38.62350000000002
Q3012,2025-06-03 17:00:00,刘集小学,襄阳市,襄州区,32.1517,112.2992,70.1,999.2,21.1,87.0,21.759510828927795,38.93199999999998
Q3100,2025-06-03 17:00:00,东津,襄阳市,襄州区,32.0631,112.2203,69.7,999.3,21.4,89.0,22.67345267209879,33.26550000000002
Q3101,2025-06-03 17:00:00,朱集,襄阳市,襄州区,32.2967,112.3483,79.0,998.7,20.5,90.0,21.69313408642537,43.20399999999996
Q3103,2025-06-03 17:00:00,峪山,襄阳市,襄州区,31.9919,112.3706,93.0,997.6,21.1,83.0,20.75907354943686,42.22900000000001
Q3104,2025-06-03 17:00:00,龙王,襄阳市,襄州区,32.2089,111.9589,86.0,996.1,21.9,100.0,26.267400778756265,55.94950000000003
Q3106,2025-06-03 17:00:00,黄龙,襄阳市,襄州区,31.9858,112.4556,84.6,995.1,21.5,83.0,21.274905811490072,40.4365
Q3107,2025-06-03 17:00:00,石桥,襄阳市,襄州区,32.3633,111.9611,110.7,994.7,22.1,82.0,21.803826734252198,35.730499999999964
Q3108,2025-06-03 17:00:00,程河,襄阳市,襄州区,32.2664,112.4508,114.6,995.2,22.9,71.0,19.820047453017203,32.227500000000035
Q3109,2025-06-03 17:00:00,伙牌,襄阳市,襄州区,32.1878,112.1847,108.3,994.8,21.9,76.0,19.96322459185476,38.28219999999997
Q3112,2025-06-03 17:00:00,张湾,襄阳市,襄州区,32.0886,112.1903,65.4,999.7,23.5,72.0,20.84209425655479,36.89500000000002
Q3113,2025-06-03 17:00:00,黄集,襄阳市,襄州区,32.3253,112.1328,142.2,991.2,23.7,69.0,20.21605411899585,35.883499999999984
Q3202,2025-06-03 17:00:00,枣阳吴店,襄阳市,枣阳市,31.9703,112.75,167.5,988.4,23.0,69.0,19.37882528100721,32.80150000000005
Q3203,2025-06-03 17:00:00,七方,襄阳市,枣阳市,32.2017,112.5589,131.0,992.2,23.1,70.0,19.77909594329847,33.622
Q3206,2025-06-03 17:00:00,枣阳新市,襄阳市,枣阳市,32.3414,112.9942,241.1,980.2,21.4,72.0,18.34256845383273,30.285500000000024
Q3207,2025-06-03 17:00:00,刘升榆树,襄阳市,枣阳市,32.12,112.8781,156.0,989.2,21.7,93.0,24.131831432305564,60.06899999999997
Q3212,2025-06-03 17:00:00,琚湾,襄阳市,枣阳市,32.0417,112.5906,72.0,997.3,21.2,91.0,22.900196424112,53.67599999999995
Q3217,2025-06-03 17:00:00,姚棚水库,襄阳市,枣阳市,32.3253,112.8719,177.3,987.3,21.1,77.0,19.25841763020046,36.824500000000015
Q3218,2025-06-03 17:00:00,唐店,襄阳市,枣阳市,31.8503,112.8028,140.0,991.2,21.3,100.0,25.320002254222786,55.27750000000002
Q3237,2025-06-03 17:00:00,王城,襄阳市,枣阳市,31.9519,112.9217,115.0,994.3,20.7,93.0,22.694513003215253,48.77650000000003
Q3240,2025-06-03 17:00:00,北城,襄阳市,枣阳市,32.1411,112.7553,125.5,993.2,23.0,80.0,22.46820322435619,43.31599999999996
Q3305,2025-06-03 17:00:00,老河口半店,襄阳市,老河口市,32.4536,111.7536,153.1,989.3,21.5,90.0,23.06917497631453,36.52749999999996
Q3309,2025-06-03 17:00:00,方营,襄阳市,老河口市,32.3367,111.7022,90.0,997.4,20.6,100.0,24.252687431462665,42.01141666666659
Q3311,2025-06-03 17:00:00,老河口黄营,襄阳市,老河口市,32.3472,111.6742,80.3,997.8,20.8,100.0,24.55353021794056,43.637999999999984
Q3314,2025-06-03 17:00:00,农垦示范园,襄阳市,老河口市,32.4319,111.8458,148.3,990.4,22.6,84.0,23.02595822456805,39.4935
Q3315,2025-06-03 17:00:00,老河口黑虎山水库,襄阳市,老河口市,32.5408,111.6622,163.3,988.5,21.5,86.0,22.043878310700556,31.7205
Q3317,2025-06-03 17:00:00,古城水库,襄阳市,老河口市,32.5203,111.7786,145.2,990.6,22.5,86.0,23.431330082769723,40.38450000000002
Q3318,2025-06-03 17:00:00,老河口西关,襄阳市,老河口市,32.4217,111.6878,84.4,996.6,21.0,93.0,23.11760647202531,43.58
Q3321,2025-06-03 17:00:00,老河口老站,襄阳市,老河口市,32.38,111.67,90.0,997.2,22.1,95.0,25.26053097260925,40.74699999999994
Q3326,2025-06-03 17:00:00,白鹤岗,襄阳市,老河口市,32.2931,111.7247,89.0,997.3,22.2,99.0,26.485120672541736,54.40700000000001
Q3401,2025-06-03 17:00:00,五山,襄阳市,谷城县,32.2931,111.3314,180.0,987.9,18.6,92.0,19.70414358864767,35.04399999999999
Q3404,2025-06-03 17:00:00,谷城南河,襄阳市,谷城县,32.1678,111.4981,146.4,990.7,21.3,80.0,20.256001803378226,29.148500000000013
Q3405,2025-06-03 17:00:00,赵湾,襄阳市,谷城县,31.9917,111.4303,518.0,950.9,18.0,82.0,16.913189208880127,24.605000000000015
Q3409,2025-06-03 17:00:00,薤山,襄阳市,谷城县,32.1725,111.4061,701.7,930.0,22.4,42.0,11.373807145801722,18.828000000000028
Q3413,2025-06-03 17:00:00,茨河,襄阳市,谷城县,32.0483,111.8314,158.0,989.0,21.6,74.0,19.08451672160342,41.21900000000008
Q3414,2025-06-03 17:00:00,谷城城关,襄阳市,谷城县,32.2692,111.6333,86.6,997.9,23.4,0.0,0.0,6.176500000000001
Q3420,2025-06-03 17:00:00,紫金,襄阳市,谷城县,32.1342,111.3078,247.7,977.4,20.4,86.0,20.601371462633026,34.40199999999997
Q3501,2025-06-03 17:00:00,寺坪,襄阳市,保康县,31.9906,111.1233,275.0,978.0,19.9,100.0,23.225046174156983,43.661999999999935
Q3516,2025-06-03 17:00:00,两峪,襄阳市,保康县,31.5581,111.3953,660.0,934.7,17.4,88.0,17.47676342524185,32.03300000000002
Q3517,2025-06-03 17:00:00,歇马毛家岭,襄阳市,保康县,31.6419,111.1967,796.0,919.6,19.2,66.0,14.675639341328289,30.179500000000008
Q3520,2025-06-03 17:00:00,保康天宝寨,襄阳市,保康县,31.4017,111.2936,997.0,899.7,17.6,75.0,15.08432092948092,33.40249999999999
Q3525,2025-06-03 17:00:00,马良产业园,襄阳市,保康县,31.4942,111.3539,292.0,976.3,19.2,100.0,22.235817183830736,44.39199999999997
Q3545,2025-06-03 17:00:00,尧治河,襄阳市,保康县,31.8447,110.8022,1576.0,841.6,16.0,57.0,10.356505805683245,19.680500000000016
Q3555,2025-06-03 17:00:00,团结,襄阳市,保康县,31.68,111.0128,1064.0,890.2,18.7,52.0,11.20707164312838,21.544
Q3606,2025-06-03 17:00:00,武镇,襄阳市,南漳县,31.6647,111.9922,120.0,993.9,21.0,100.0,24.85764136776915,44.569500000000005
Q3608,2025-06-03 17:00:00,东巩,襄阳市,南漳县,31.3292,111.8253,183.0,983.3,19.6,100.0,22.796459735098047,43.35549999999999
Q3617,2025-06-03 17:00:00,薛坪,襄阳市,南漳县,31.6231,111.6778,820.0,918.2,15.8,90.0,16.14458384209326,25.84349999999998
Q3618,2025-06-03 17:00:00,长坪,襄阳市,南漳县,31.7775,111.5617,254.0,981.6,18.8,95.0,20.602949828421576,33.37899999999996
Q3623,2025-06-03 17:00:00,南漳大坪,襄阳市,南漳县,31.5489,111.8342,343.2,969.0,19.3,100.0,22.37483075849228,34.41399999999997
Q3632,2025-06-03 17:00:00,赵店,襄阳市,南漳县,31.9058,111.6194,271.6,977.0,17.8,89.0,18.1272645880151,29.086100000000005
Q3641,2025-06-03 17:00:00,漫云,襄阳市,南漳县,31.4556,111.6847,342.0,969.0,19.1,94.0,20.771708659340696,36.298499999999954
Q3748,2025-06-03 17:00:00,高楼,襄阳市,宜城市,31.6356,112.5942,141.0,991.8,21.7,87.0,22.57493908183424,43.01500000000001
Q3750,2025-06-03 17:00:00,孔湾,襄阳市,宜城市,31.5681,112.2661,55.0,1001.3,22.6,87.0,23.848313875445488,48.119
Q3751,2025-06-03 17:00:00,二库,襄阳市,宜城市,31.7467,112.4303,89.0,997.0,21.5,98.0,25.119768307542493,58.122500000000045
Q3752,2025-06-03 17:00:00,小南河,襄阳市,宜城市,31.4622,111.9878,177.5,987.2,21.2,80.0,20.132040812406157,42.33300000000006
Q3760,2025-06-03 17:00:00,刘猴,襄阳市,宜城市,31.4853,112.0169,159.0,989.9,21.1,89.0,22.259729468673257,28.302000000000007
Q3770,2025-06-03 17:00:00,谭湾,襄阳市,宜城市,31.7736,112.0389,94.0,996.2,22.4,90.0,24.372443883860832,53.37500000000002
Q3782,2025-06-03 17:00:00,联合,襄阳市,宜城市,31.8692,112.2653,86.0,997.4,19.3,94.0,21.032340912982743,32.60499999999996
Q3792,2025-06-03 17:00:00,流水,襄阳市,宜城市,31.5683,112.455,62.0,1001.1,21.2,95.0,23.906798464732304,52.534
Q3802,2025-06-03 17:00:00,殷店,随州市,随县,32.0808,113.5014,145.6,991.2,19.1,94.0,20.771708659340696,43.96450000000005
Q3803,2025-06-03 17:00:00,洪山,随州市,随县,31.6611,112.9072,154.4,990.2,20.7,92.0,22.450485981675303,46.35349999999998
Q3804,2025-06-03 17:00:00,柳林,随州市,随县,31.5336,113.2278,120.0,993.9,20.7,95.0,23.182567046295148,34.67450000000002
Q3805,2025-06-03 17:00:00,唐镇,随州市,随县,32.0003,113.105,127.7,993.6,20.5,97.0,23.380377848702903,50.792500000000025
Q3807,2025-06-03 17:00:00,厉山,随州市,随县,31.8839,113.3125,92.0,997.9,22.4,91.0,24.643248815903736,47.931
Q3809,2025-06-03 17:00:00,淮河,随州市,随县,32.3436,113.6333,153.8,989.6,17.8,94.0,19.145650239027187,42.45599999999997
Q3812,2025-06-03 17:00:00,万店,随州市,曾都区,31.8386,113.5169,115.0,994.4,22.6,88.0,24.12243242573796,46.06049999999995
Q3815,2025-06-03 17:00:00,澴潭,随州市,随县,31.8106,113.0514,115.3,994.6,21.5,91.0,23.325499142718037,33.88899999999999
Q3820,2025-06-03 17:00:00,吴山,随州市,随县,32.1531,113.0822,215.4,983.4,21.3,78.0,19.749601758293768,39.83750000000001
Q3823,2025-06-03 17:00:00,南郊,随州市,曾都区,31.7278,113.2831,64.1,1000.4,20.7,96.0,23.426594067835097,40.53399999999997
Q3829,2025-06-03 17:00:00,大堰坡,随州市,曾都区,31.61,113.4317,85.0,998.7,21.2,97.0,24.41009948504245,42.14849999999996
Q3830,2025-06-03 17:00:00,长岗,随州市,随县,31.53,112.9711,228.2,981.8,18.7,84.0,18.103731115822765,32.38399999999999
Q3831,2025-06-03 17:00:00,雷达站,随州市,曾都区,31.7164,113.3869,96.2,996.9,23.0,93.0,26.11928624831407,50.12550000000001
Q3832,2025-06-03 17:00:00,府河,随州市,曾都区,31.4911,113.5678,65.8,1000.2,21.8,96.0,25.063080625320847,49.1993333333333
Q3836,2025-06-03 17:00:00,新城,随州市,随县,32.3561,113.1931,215.4,983.3,17.5,97.0,19.386267591682785,42.05899999999988
Q3844,2025-06-03 17:00:00,东庄畈,随州市,随县,31.5131,113.0106,274.3,976.7,18.9,74.0,16.149253192375074,31.816499999999976
Q3845,2025-06-03 17:00:00,城南新区,随州市,曾都区,31.6922,113.3744,78.4,998.8,21.7,91.0,23.61286731548179,44.31300000000002
Q3847,2025-06-03 17:00:00,金顶,随州市,随县,31.4867,112.9781,1042.0,894.1,21.8,21.0,5.482548886788935,13.226000000000012
Q3852,2025-06-03 17:00:00,王家河,随州市,随县,31.9353,113.3081,122.2,994.0,21.2,100.0,25.16505101550769,43.09762500000002
Q3853,2025-06-03 17:00:00,银杏谷,随州市,曾都区,31.4347,113.2972,175.7,987.6,19.6,96.0,21.88460134569413,38.11900000000003
Q3854,2025-06-03 17:00:00,自在谷,随州市,随县,31.4703,112.9844,467.3,955.7,17.1,79.0,15.394315745472808,31.543999999999983
Q3856,2025-06-03 17:00:00,北郊,随州市,曾都区,31.7839,113.3958,105.4,995.9,21.8,95.0,24.802006868807087,47.20433333333337
Q3857,2025-06-03 17:00:00,西城,随州市,曾都区,31.7206,113.3617,64.5,1000.4,22.6,87.0,23.848313875445488,44.23550000000006
Q3901,2025-06-03 17:00:00,余店,随州市,广水市,31.7872,113.6322,109.6,995.3,20.9,97.0,23.964020108172814,41.504250000000056
Q3902,2025-06-03 17:00:00,长岭,随州市,广水市,31.4711,113.5781,47.3,1002.1,22.0,96.0,25.37115371919945,57.0866750000001
Q3909,2025-06-03 17:00:00,蔡河,随州市,广水市,31.7264,113.8322,120.0,994.5,22.3,94.0,25.30116473023111,54.83899999999992
Q3911,2025-06-03 17:00:00,太平,随州市,广水市,31.4608,113.9217,46.4,1000.7,22.4,93.0,25.184858679989528,52.48099999999996
Q3913,2025-06-03 17:00:00,武胜关,随州市,广水市,31.7358,114.0353,100.0,995.8,20.2,95.0,22.477653144646453,39.58500000000003
Q3918,2025-06-03 17:00:00,应山,随州市,广水市,31.62,113.82,93.3,997.1,22.8,98.0,27.19182928341245,50.411
Q3924,2025-06-03 17:00:00,尹家湾,随州市,广水市,32.0019,113.7164,203.6,985.0,18.0,96.0,19.80080687868893,48.90599999999999
Q4000,2025-06-03 17:00:00,葛洲坝,宜昌市,西陵区,30.7433,111.2694,67.8,1000.1,21.9,86.0,22.589964669730385,43.162999999999975
Q4001,2025-06-03 17:00:00,王家河公园,宜昌市,伍家岗区,30.6589,111.3303,56.3,1001.8,23.3,83.0,23.737810374482077,44.023
Q4002,2025-06-03 17:00:00,窑湾,宜昌市,西陵区,30.7186,111.3436,160.0,988.3,22.7,81.0,22.33888010782318,48.21049999999994
Q4003,2025-06-03 17:00:00,猇亭,宜昌市,猇亭区,30.5061,111.4444,42.6,1002.4,22.0,89.0,23.52117376050783,43.90849999999995
Q4005,2025-06-03 17:00:00,土城,宜昌市,点军区,30.6931,111.0022,615.0,939.3,17.8,79.0,16.090493285990934,31.59050000000001
Q4015,2025-06-03 17:00:00,白龙岗公园,宜昌市,西陵区,30.7067,111.2972,116.6,993.1,22.9,80.0,22.332447834385583,45.69799999999995
Q4019,2025-06-03 17:00:00,艾家小学,宜昌市,点军区,30.6183,111.3422,87.0,997.8,22.2,82.0,21.93717065806487,43.18949999999993
Q4022,2025-06-03 17:00:00,猇亭古战场,宜昌市,猇亭区,30.5697,111.3964,78.5,998.9,21.7,90.0,23.3533852570699,46.13349999999994
Q4023,2025-06-03 17:00:00,长岭,宜昌市,点军区,30.6519,111.205,100.0,996.5,21.5,91.0,23.325499142718037,46.70149999999995
Q4025,2025-06-03 17:00:00,鸣翠谷,宜昌市,点军区,30.7389,111.2333,98.8,996.6,21.6,86.0,22.179303216998573,39.75549999999997
Q4026,2025-06-03 17:00:00,沙河公园,宜昌市,西陵区,30.7417,111.3144,86.3,998.1,22.7,85.0,23.44203468104901,48.47199999999999
Q4032,2025-06-03 17:00:00,宜昌一中,宜昌市,点军区,30.7086,111.2361,78.9,998.9,22.1,88.0,23.39922869041699,45.85949999999996
Q4033,2025-06-03 17:00:00,水井湾,宜昌市,伍家岗区,30.6853,111.3367,84.3,998.3,21.1,92.0,23.01005742829146,42.74399999999996
Q4034,2025-06-03 17:00:00,龙盘湖,宜昌市,伍家岗区,30.6161,111.4,62.5,1000.7,20.6,97.0,23.525106808518785,48.46649999999997
Q4035,2025-06-03 17:00:00,碧桂园公园,宜昌市,伍家岗区,30.6478,111.3658,88.6,997.7,22.5,87.0,23.70378740931356,45.14249999999996
Q4036,2025-06-03 17:00:00,夷陵中学,宜昌市,夷陵区,30.6967,111.3817,113.0,995.0,21.5,93.0,23.83814747552502,33.44950000000005
Q4037,2025-06-03 17:00:00,李家咀,宜昌市,点军区,30.7214,111.1625,389.1,964.2,20.5,85.0,20.48795997051285,37.96450000000002
Q4105,2025-06-03 17:00:00,太平溪,宜昌市,夷陵区,30.8789,110.9697,215.0,984.2,21.6,80.0,20.631909969301,41.549999999999976
Q4109,2025-06-03 17:00:00,樟村坪林场,宜昌市,夷陵区,31.2667,111.15,1162.0,884.1,14.4,81.0,13.278523924273877,24.780000000000005
Q4111,2025-06-03 17:00:00,鸦鹊岭,宜昌市,夷陵区,30.6117,111.5211,109.2,995.3,22.9,83.0,23.16991462817504,34.53700000000003
Q4112,2025-06-03 17:00:00,王家垭,宜昌市,夷陵区,30.9667,110.9878,990.0,900.8,19.9,54.0,12.541524934044771,21.24050000000002
Q4113,2025-06-03 17:00:00,古村坪,宜昌市,夷陵区,30.9228,110.9672,855.0,914.2,20.2,67.0,15.85266063885592,29.9795
Q4115,2025-06-03 17:00:00,百里荒,宜昌市,夷陵区,30.96,111.5114,1251.8,872.9,19.5,42.0,9.515162358297344,16.574500000000015
Q4120,2025-06-03 17:00:00,秀水,宜昌市,夷陵区,31.1456,111.0747,1068.2,892.1,17.0,81.0,15.684322073726957,29.649
Q4127,2025-06-03 17:00:00,十字沟,宜昌市,夷陵区,31.0511,111.4406,402.0,963.4,19.8,82.0,18.92675208672832,27.98600000000002
Q4131,2025-06-03 17:00:00,二户坪,宜昌市,夷陵区,31.0117,111.3114,945.0,906.2,18.9,61.0,13.312222226147025,23.44400000000002
Q4140,2025-06-03 17:00:00,三峡大瀑布,宜昌市,夷陵区,30.9325,111.3158,169.1,987.1,19.5,99.0,22.42859698741517,42.74949999999998
Q4146,2025-06-03 17:00:00,沙坪,宜昌市,夷陵区,30.9192,111.0428,403.0,963.4,20.5,79.0,19.041751031417828,28.152999999999967
Q4148,2025-06-03 17:00:00,黄金河,宜昌市,夷陵区,31.0078,110.9369,705.9,930.4,19.1,59.0,13.03756181809682,23.95200000000001
Q4150,2025-06-03 17:00:00,古村,宜昌市,夷陵区,31.4353,111.2158,1098.9,889.1,14.5,83.0,13.694658537324797,25.32750000000001
Q4153,2025-06-03 17:00:00,马卧泥,宜昌市,夷陵区,31.2117,111.2406,1073.1,891.6,19.0,54.0,11.85843396006717,25.439999999999987
Q4154,2025-06-03 17:00:00,青龙,宜昌市,夷陵区,30.7428,111.5075,108.8,995.5,21.0,87.0,21.62614798995916,33.801999999999985
Q4201,2025-06-03 17:00:00,傅家堰,宜昌市,五峰土家族自治县,30.3053,110.4817,705.3,929.9,18.7,67.0,14.439880770953872,23.92700000000002
Q4202,2025-06-03 17:00:00,长乐坪,宜昌市,五峰土家族自治县,30.1778,110.8722,1004.1,899.3,15.1,76.0,13.034401717298092,26.66675000000001
Q4203,2025-06-03 17:00:00,湾潭,宜昌市,五峰土家族自治县,30.0528,110.4344,1139.2,883.9,14.1,75.0,12.058352078861647,24.167999999999957
Q4204,2025-06-03 17:00:00,仁和坪,宜昌市,五峰土家族自治县,30.1022,111.2453,591.9,942.3,17.2,79.0,15.492119700036328,23.40950000000001
Q4205,2025-06-03 17:00:00,牛庄,宜昌市,五峰土家族自治县,30.2381,110.3611,1830.5,817.0,12.4,57.0,8.20185396194887,15.74449999999998
Q4206,2025-06-03 17:00:00,采花,宜昌市,五峰土家族自治县,30.2056,110.445,506.8,953.2,18.2,83.0,17.3360749291825,29.985999999999937
Q4207,2025-06-03 17:00:00,渔关,宜昌市,五峰土家族自治县,30.1831,111.075,255.1,979.2,20.5,75.0,18.07761173868781,25.9395
Q4208,2025-06-03 17:00:00,清水湾,宜昌市,五峰土家族自治县,30.0797,110.9669,853.1,913.8,16.0,70.0,12.718515901716264,26.384750000000004
Q4209,2025-06-03 17:00:00,后河,宜昌市,五峰土家族自治县,30.0789,110.6214,952.7,905.3,13.9,87.0,13.807327696522709,29.171999999999965
Q4210,2025-06-03 17:00:00,水浕司,宜昌市,五峰土家族自治县,30.2494,110.6283,564.8,946.5,18.3,81.0,17.024920280312063,33.39299999999997
Q4213,2025-06-03 17:00:00,北风垭,宜昌市,五峰土家族自治县,30.14,110.5681,2213.7,780.5,12.1,23.0,3.2448485982502464,8.555499999999993
Q4214,2025-06-03 17:00:00,涨水坪,宜昌市,五峰土家族自治县,30.2553,111.02,737.6,927.0,16.0,85.0,15.443912166369753,22.02150000000001
Q4215,2025-06-03 17:00:00,三教庙,宜昌市,五峰土家族自治县,30.2011,110.9022,1031.0,895.3,13.9,87.0,13.807327696522709,27.009500000000003
Q4218,2025-06-03 17:00:00,大龙坪,宜昌市,五峰土家族自治县,30.3589,110.4706,1157.3,884.2,14.0,79.0,12.619342393430426,23.8405
Q4238,2025-06-03 17:00:00,万里,宜昌市,五峰土家族自治县,30.1997,110.4069,1174.1,881.8,16.6,53.0,10.005186178711272,17.10600000000002
Q4249,2025-06-03 17:00:00,柴埠溪,宜昌市,五峰土家族自治县,30.2219,110.8947,1259.0,873.3,15.5,54.0,9.502348275080568,17.649499999999993
Q4252,2025-06-03 17:00:00,万马池,宜昌市,五峰土家族自治县,30.2056,110.665,619.4,940.7,17.7,80.0,16.191773473807395,31.506000000000004
Q4309,2025-06-03 17:00:00,胡家畈,宜昌市,枝江市,30.5808,111.6733,125.7,992.8,22.6,86.0,23.574195325153006,58.88750000000002
Q4321,2025-06-03 17:00:00,雅畈,宜昌市,枝江市,30.3967,111.5886,68.0,1000.0,22.5,84.0,22.886415429682053,37.844500000000096
Q4323,2025-06-03 17:00:00,马家店,宜昌市,枝江市,30.43,111.7592,44.5,1002.7,23.5,80.0,23.157882507283105,34.03579166666664
Q4325,2025-06-03 17:00:00,万福垴,宜昌市,枝江市,30.4386,111.4522,55.9,1001.5,21.6,90.0,23.210898715463625,44.47400000000006
Q4326,2025-06-03 17:00:00,田家河,宜昌市,枝江市,30.3369,111.5311,57.0,1001.5,22.0,95.0,25.106870867957795,58.89900000000003
Q4327,2025-06-03 17:00:00,姚家港工业园,宜昌市,枝江市,30.4011,111.6131,87.7,997.8,23.8,73.0,21.517233962012664,39.29950000000006
Q4401,2025-06-03 17:00:00,社坪,宜昌市,长阳土家族自治县,30.63,110.5428,506.0,952.9,16.7,93.0,17.66824000869804,30.10450000000001
Q4403,2025-06-03 17:00:00,渔峡口,宜昌市,长阳土家族自治县,30.4286,110.4992,380.0,967.9,19.7,86.0,19.727147874808228,31.031500000000023
Q4404,2025-06-03 17:00:00,高家堰,宜昌市,长阳土家族自治县,30.6069,111.0583,167.0,989.3,20.0,87.0,20.33143997363605,37.24049999999998
Q4406,2025-06-03 17:00:00,大堰,宜昌市,长阳土家族自治县,30.3353,111.0731,631.0,938.1,17.5,90.0,17.987258590221142,27.883500000000005
Q4415,2025-06-03 17:00:00,火烧坪,宜昌市,长阳土家族自治县,30.4944,110.7997,1546.9,844.3,14.3,43.0,7.003622419328679,14.69900000000001
Q4425,2025-06-03 17:00:00,榔坪,宜昌市,长阳土家族自治县,30.6219,110.4972,490.0,956.9,17.0,89.0,17.2333909205148,31.68649999999997
Q4437,2025-06-03 17:00:00,中岭,宜昌市,长阳土家族自治县,30.6211,110.8139,1055.0,893.8,16.2,76.0,13.986127628941563,27.112499999999976
Q4441,2025-06-03 17:00:00,龙池山,宜昌市,长阳土家族自治县,30.5814,111.0614,680.0,932.2,20.9,59.0,14.576053467857694,24.49350000000004
Q4443,2025-06-03 17:00:00,清江画廊,宜昌市,长阳土家族自治县,30.4703,111.1336,190.3,986.8,21.1,75.0,18.758198990454996,30.20300000000001
Q4446,2025-06-03 17:00:00,三洞水,宜昌市,长阳土家族自治县,30.3936,111.1128,220.0,985.1,20.5,88.0,21.21106444006037,30.27650000000004
Q4447,2025-06-03 17:00:00,都镇湾,宜昌市,长阳土家族自治县,30.4117,110.97,290.0,977.2,20.3,90.0,21.42673745442853,39.40000000000003
Q4453,2025-06-03 17:00:00,崩尖子,宜昌市,长阳土家族自治县,30.3731,110.7244,283.3,977.3,18.0,89.0,18.35699804378453,26.01750000000002
Q4510,2025-06-03 17:00:00,九道河,宜昌市,宜都市,30.1967,111.4717,199.8,985.4,22.4,66.0,17.87312551483128,28.0015
Q4519,2025-06-03 17:00:00,陆城,宜昌市,宜都市,30.3839,111.4547,74.1,999.6,24.2,63.0,19.02171672019956,31.328999999999933
Q4604,2025-06-03 17:00:00,草埠湖,宜昌市,当阳市,30.5725,111.9686,74.0,1001.4,22.7,86.0,23.71782332435547,36.98299999999999
Q4606,2025-06-03 17:00:00,王店,宜昌市,当阳市,30.7075,111.675,158.6,989.2,21.4,94.0,23.947242148059395,52.18199999999995
Q4610,2025-06-03 17:00:00,红旗岗,宜昌市,当阳市,31.0844,111.9219,102.3,993.9,21.3,88.0,22.281601983716047,47.919999999999945
Q4611,2025-06-03 17:00:00,淯溪光明,宜昌市,当阳市,30.9275,111.9269,58.0,1001.5,21.2,96.0,24.15844897488738,53.38300000000001
Q4612,2025-06-03 17:00:00,向家草坝,宜昌市,当阳市,30.9167,111.685,96.0,997.0,20.5,94.0,22.65727337915539,51.728499999999976
Q4614,2025-06-03 17:00:00,长坂雄风,宜昌市,当阳市,30.8369,111.7611,70.0,999.9,22.6,76.0,20.83300982222824,42.14850000000005
Q4701,2025-06-03 17:00:00,嫘祖,宜昌市,远安县,31.1906,111.4081,553.8,946.6,18.0,94.0,19.38829006871625,36.91550000000002
Q4708,2025-06-03 17:00:00,茅坪场,宜昌市,远安县,31.1481,111.6794,179.8,987.0,19.7,90.0,20.644689636427216,32.9475
Q4709,2025-06-03 17:00:00,洋坪,宜昌市,远安县,31.2208,111.5594,152.4,991.2,20.7,94.0,22.9385400247552,45.17800000000008
Q4710,2025-06-03 17:00:00,晓坪水库,宜昌市,远安县,31.1881,111.7553,391.9,963.7,18.2,93.0,19.424758655590036,36.908500000000025
Q4718,2025-06-03 17:00:00,芭芒店,宜昌市,远安县,31.2361,111.5361,186.0,985.0,20.8,86.0,21.11603598742888,36.30750000000005
Q4729,2025-06-03 17:00:00,龙凤,宜昌市,远安县,30.9167,111.5608,723.5,925.1,19.6,35.0,7.9787609072843155,10.92599999999998
Q4801,2025-06-03 17:00:00,高桥,宜昌市,兴山县,31.2092,110.53,992.5,900.2,17.6,60.0,12.067456743584737,18.162499999999987
Q4802,2025-06-03 17:00:00,昭君,宜昌市,兴山县,31.2261,110.7697,286.0,977.4,20.1,89.0,20.928068581700725,31.974500000000056
Q4804,2025-06-03 17:00:00,峡口,宜昌市,兴山县,31.1192,110.7786,266.0,980.8,21.1,93.0,23.260166748164192,44.65750000000006
Q4806,2025-06-03 17:00:00,榛子,宜昌市,兴山县,31.5008,111.0083,1281.0,870.5,14.4,82.0,13.442456318400712,26.068499999999982
Q4808,2025-06-03 17:00:00,南对河,宜昌市,兴山县,31.1778,111.0017,644.1,938.2,17.4,95.0,18.86696051588609,40.97949999999996
Q4818,2025-06-03 17:00:00,观音河,宜昌市,兴山县,31.5183,110.8078,498.7,956.8,18.4,92.0,19.458672009853537,39.32449999999994
Q4837,2025-06-03 17:00:00,和平,宜昌市,兴山县,31.4728,110.9975,1301.6,869.4,14.1,92.0,14.791578550070293,29.499000000000027
Q4901,2025-06-03 17:00:00,彭家坡,宜昌市,秭归县,31.0306,110.6972,190.3,987.1,21.3,93.0,23.547602096427187,48.37249999999992
Q4902,2025-06-03 17:00:00,郭家坝,宜昌市,秭归县,30.9564,110.7569,351.0,970.7,20.6,91.0,22.069945562631027,46.17650000000004
Q4903,2025-06-03 17:00:00,两河口,宜昌市,秭归县,30.8722,110.5756,620.5,940.1,19.0,89.0,19.54445597122182,28.106500000000032
Q4905,2025-06-03 17:00:00,杨林桥,宜昌市,秭归县,30.7458,110.7553,421.8,962.8,18.2,87.0,18.17154841974552,24.40400000000001
Q4909,2025-06-03 17:00:00,沙镇溪,宜昌市,秭归县,30.9614,110.6022,420.0,962.6,20.1,91.0,21.398362257694004,37.50749999999999
Q4911,2025-06-03 17:00:00,九畹溪,宜昌市,秭归县,30.8442,110.7836,499.0,954.1,17.6,94.0,18.905682231616087,40.25949999999997
Q4918,2025-06-03 17:00:00,金缸城,宜昌市,秭归县,30.8361,110.9464,547.7,947.0,19.8,88.0,20.31163638575722,38.96950000000001
Q4920,2025-06-03 17:00:00,烟墩堡,宜昌市,秭归县,30.9039,110.7792,918.0,908.2,17.5,100.0,19.98584287802349,39.92749999999995
Q4921,2025-06-03 17:00:00,芝兰,宜昌市,秭归县,30.7814,110.7939,271.1,979.1,19.2,88.0,19.56751912177105,29.98200000000002
Q4932,2025-06-03 17:00:00,九岭头,宜昌市,秭归县,30.9803,110.8039,1385.0,860.7,15.4,100.0,17.484390527773503,40.853
Q4941,2025-06-03 17:00:00,高潮,宜昌市,秭归县,30.9881,110.4783,753.0,927.5,18.5,92.0,19.58106998846665,40.31149999999993
Q4945,2025-06-03 17:00:00,七甲,宜昌市,秭归县,30.7944,110.4961,1330.0,866.4,16.6,60.0,11.326625862692005,18.790499999999977
Q4950,2025-06-03 17:00:00,雁落坪,宜昌市,秭归县,30.8117,110.3497,985.0,901.1,16.2,88.0,16.194463570353392,25.33399999999998
Q4957,2025-06-03 17:00:00,三台寺,宜昌市,秭归县,30.6814,110.7139,1085.0,891.9,16.4,56.0,10.4377979178213,17.16050000000001
Q4962,2025-06-03 17:00:00,吴家沟,宜昌市,秭归县,30.9811,110.7606,209.2,983.8,21.6,82.0,21.14770771853352,47.13649999999997
Q5102,2025-06-03 17:00:00,白杨坪,恩施土家族苗族自治州,恩施市,30.4808,109.5828,638.9,938.5,17.5,96.0,19.186409162902557,34.96375000000001
Q5106,2025-06-03 17:00:00,三岔,恩施土家族苗族自治州,恩施市,30.2978,109.6278,1054.7,894.5,17.4,96.0,19.065560100263838,43.05038333333329
Q5109,2025-06-03 17:00:00,芭蕉,恩施土家族苗族自治州,恩施市,30.1222,109.3956,599.8,942.7,19.1,92.0,20.329757411269615,43.169000000000025
Q5116,2025-06-03 17:00:00,金龙坝,恩施土家族苗族自治州,恩施市,30.0906,109.1692,881.0,913.8,17.0,94.0,18.201558949757207,35.53099999999997
Q5122,2025-06-03 17:00:00,望城坡,恩施土家族苗族自治州,恩施市,30.3303,109.4231,1113.0,888.5,15.7,82.0,14.615644045050464,26.72550000000001
Q5133,2025-06-03 17:00:00,小卫家山,恩施土家族苗族自治州,恩施市,30.3539,109.6558,1312.4,868.8,17.4,77.0,15.29216799708662,36.980000000000025
Q5135,2025-06-03 17:00:00,神堂,恩施土家族苗族自治州,恩施市,30.3583,109.8217,1567.0,843.2,15.8,44.0,7.892907656134485,17.388000000000005
Q5150,2025-06-03 17:00:00,大峡谷顶,恩施土家族苗族自治州,恩施市,30.4167,109.1628,1615.0,836.4,13.4,62.0,9.52473456999624,11.25149999999999
Q5153,2025-06-03 17:00:00,马者滑坡点,恩施土家族苗族自治州,恩施市,30.3733,109.3019,946.0,907.0,18.3,64.0,13.451788863456445,30.09799999999999
Q5206,2025-06-03 17:00:00,宜影古镇,恩施土家族苗族自治州,利川市,30.3353,109.1053,1025.3,899.1,15.5,87.0,15.309338887629805,31.59050000000003
Q5207,2025-06-03 17:00:00,元堡,恩施土家族苗族自治州,利川市,30.2233,109.0339,1088.3,889.7,15.0,95.0,16.188469811051835,33.640500000000024
Q5208,2025-06-03 17:00:00,黄泥塘,恩施土家族苗族自治州,利川市,30.0775,108.8592,1469.7,857.5,13.5,83.0,12.834221206458734,19.964999999999986
Q5210,2025-06-03 17:00:00,福宝山,恩施土家族苗族自治州,利川市,30.2089,108.7014,1479.9,850.7,12.8,91.0,13.442337387211886,18.568499999999982
Q5211,2025-06-03 17:00:00,建南,恩施土家族苗族自治州,利川市,30.4353,108.5392,676.0,934.8,18.3,90.0,18.916578089235625,34.6245
Q5214,2025-06-03 17:00:00,南坪,恩施土家族苗族自治州,利川市,30.43,108.7925,1129.0,887.0,15.5,90.0,15.837247125134278,28.532499999999995
Q5222,2025-06-03 17:00:00,凉雾,恩施土家族苗族自治州,利川市,30.2664,108.805,1092.5,889.4,15.7,86.0,15.328602291150483,34.12900000000008
Q5226,2025-06-03 17:00:00,利川团堡,恩施土家族苗族自治州,利川市,30.3353,109.1494,986.8,901.5,15.9,88.0,15.887117735165836,29.78749999999991
Q5241,2025-06-03 17:00:00,小河,恩施土家族苗族自治州,利川市,30.0786,108.6025,1074.0,893.6,15.9,95.0,17.150865736826756,34.57433333333335
Q5249,2025-06-03 17:00:00,铁峰,恩施土家族苗族自治州,利川市,30.4533,108.6578,1558.5,843.1,14.9,52.0,8.804162696050197,12.869000000000002
Q5301,2025-06-03 17:00:00,黄金洞,恩施土家族苗族自治州,咸丰县,29.9539,109.0781,788.1,921.4,17.4,98.0,19.462759269019333,41.691999999999965
Q5307,2025-06-03 17:00:00,朝阳寺,恩施土家族苗族自治州,咸丰县,29.6125,108.9175,468.0,957.2,19.9,95.0,22.06379386544913,44.69900000000004
Q5309,2025-06-03 17:00:00,坪坝营,恩施土家族苗族自治州,咸丰县,29.3997,108.9803,1268.8,872.4,14.9,96.0,16.253838823477285,32.58030000000002
Q5310,2025-06-03 17:00:00,茅坝,恩施土家族苗族自治州,咸丰县,29.7658,108.8233,723.6,929.5,17.2,96.0,18.82586697725933,40.5745
Q5326,2025-06-03 17:00:00,李子溪,恩施土家族苗族自治州,咸丰县,29.8839,108.9089,832.0,918.3,17.5,97.0,19.386267591682785,41.06475000000007
Q5327,2025-06-03 17:00:00,中心场,恩施土家族苗族自治州,咸丰县,29.9194,108.9083,847.0,916.5,17.1,97.0,18.901881358365344,35.63600000000005
Q5330,2025-06-03 17:00:00,八家台,恩施土家族苗族自治州,咸丰县,29.8736,108.8114,869.0,911.8,17.4,96.0,19.065560100263838,38.03000000000005
Q5338,2025-06-03 17:00:00,柏杨坪,恩施土家族苗族自治州,咸丰县,29.8175,109.0397,872.4,910.8,17.2,96.0,18.82586697725933,34.42225000000005
Q5409,2025-06-03 17:00:00,翔凤,恩施土家族苗族自治州,来凤县,29.4669,109.4019,458.0,957.9,21.0,94.0,23.366182885703,44.78499999999994
Q5421,2025-06-03 17:00:00,兴隆坳,恩施土家族苗族自治州,来凤县,29.3261,109.2883,602.0,940.0,19.4,95.0,21.38887633601968,42.90750000000002
Q5422,2025-06-03 17:00:00,沙坝水库,恩施土家族苗族自治州,来凤县,29.4094,109.3228,512.0,951.5,20.1,93.0,21.868655933687275,42.92649999999991
Q5508,2025-06-03 17:00:00,沙道,恩施土家族苗族自治州,宣恩县,29.6986,109.5653,589.0,943.4,19.8,92.0,21.234892585109822,35.94800000000004
Q5509,2025-06-03 17:00:00,椿木营,恩施土家族苗族自治州,宣恩县,30.0575,109.8269,1681.0,831.6,11.0,88.0,11.543857643883252,21.53550000000001
Q5515,2025-06-03 17:00:00,中间河,恩施土家族苗族自治州,宣恩县,30.1294,109.6347,664.8,935.5,19.2,96.0,21.34638449647751,50.274625000000015
Q5516,2025-06-03 17:00:00,长潭北,恩施土家族苗族自治州,宣恩县,30.0081,109.5883,490.9,954.5,19.0,96.0,21.081660373452745,40.71949999999997
Q5517,2025-06-03 17:00:00,荆竹坪,恩施土家族苗族自治州,宣恩县,29.96,109.3461,1134.7,885.9,16.6,94.0,17.745047184884143,32.31050000000002
Q5530,2025-06-03 17:00:00,洗草坝,恩施土家族苗族自治州,宣恩县,29.9867,109.3608,743.4,927.3,17.2,98.0,19.21807253928557,34.49199999999999
Q5532,2025-06-03 17:00:00,金盆村,恩施土家族苗族自治州,宣恩县,29.8356,109.6717,655.8,936.9,18.6,94.0,20.132494536226968,43.492999999999945
Q5539,2025-06-03 17:00:00,竹园,恩施土家族苗族自治州,宣恩县,29.9019,109.26,1180.2,881.8,15.6,79.0,13.991001726146475,26.578000000000028
Q5543,2025-06-03 17:00:00,彭家寨,恩施土家族苗族自治州,宣恩县,29.6717,109.6153,582.9,943.6,18.9,95.0,20.732149368589624,39.94999999999997
Q5601,2025-06-03 17:00:00,江坪河,恩施土家族苗族自治州,鹤峰县,29.7383,110.3472,467.0,956.1,20.2,84.0,19.8749775173716,38.69949999999997
Q5603,2025-06-03 17:00:00,蛤蟆颈,恩施土家族苗族自治州,鹤峰县,30.0658,110.2706,1382.0,859.5,12.5,83.0,12.02174919731695,26.714999999999968
Q5605,2025-06-03 17:00:00,清湖,恩施土家族苗族自治州,鹤峰县,30.0139,110.2697,1300.0,867.3,14.1,76.0,12.219130106579804,24.340499999999967
Q5610,2025-06-03 17:00:00,五里,恩施土家族苗族自治州,鹤峰县,29.8969,110.3406,1142.0,885.9,14.8,91.0,15.308282337563485,24.525
Q5620,2025-06-03 17:00:00,堰塘,恩施土家族苗族自治州,鹤峰县,29.8628,109.8564,1175.0,881.8,15.8,94.0,16.862120901741854,31.639000000000006
Q5621,2025-06-03 17:00:00,云蒙,恩施土家族苗族自治州,鹤峰县,30.0564,110.0675,1011.3,898.6,14.6,91.0,15.111955496086932,25.557000000000016
Q5626,2025-06-03 17:00:00,龚家垭,恩施土家族苗族自治州,鹤峰县,30.1083,110.1294,1215.7,877.8,16.6,75.0,14.158282328365006,24.808500000000024
Q5628,2025-06-03 17:00:00,马家,恩施土家族苗族自治州,鹤峰县,29.7681,110.5636,509.0,950.1,17.6,91.0,18.30230939443685,36.95800000000001
Q5629,2025-06-03 17:00:00,细杉,恩施土家族苗族自治州,鹤峰县,29.8014,110.6133,673.7,933.5,16.3,87.0,16.1128622503921,26.078000000000017
Q5630,2025-06-03 17:00:00,堰垭,恩施土家族苗族自治州,鹤峰县,29.7203,110.2667,912.3,908.6,18.2,92.0,19.21589028294928,36.52149999999999
Q5632,2025-06-03 17:00:00,上六峰,恩施土家族苗族自治州,鹤峰县,29.9206,110.4636,1194.0,879.8,13.4,92.0,14.13347710386539,27.7695
Q5633,2025-06-03 17:00:00,中坪,恩施土家族苗族自治州,鹤峰县,29.9917,110.4858,1137.0,883.4,13.7,84.0,13.159051389813598,28.359
Q5634,2025-06-03 17:00:00,水泉,恩施土家族苗族自治州,鹤峰县,29.9133,110.2561,606.5,941.3,19.0,96.0,21.081660373452745,42.64149999999995
Q5706,2025-06-03 17:00:00,溪丘湾,恩施土家族苗族自治州,巴东县,31.1572,110.4386,741.0,926.6,17.8,100.0,20.367713020241688,36.796499999999945
Q5707,2025-06-03 17:00:00,大支坪,恩施土家族苗族自治州,巴东县,30.6875,110.1708,1411.0,858.0,17.2,33.0,6.471391773432897,13.040000000000004
Q5708,2025-06-03 17:00:00,朱砂土,恩施土家族苗族自治州,巴东县,30.8936,110.3064,1166.0,880.7,16.8,65.0,12.42746685577064,26.191499999999976
Q5709,2025-06-03 17:00:00,玉米塘,恩施土家族苗族自治州,巴东县,30.6925,110.2486,1570.6,840.5,16.0,30.0,5.450792529306971,11.839000000000006
Q5710,2025-06-03 17:00:00,茅山岭,恩施土家族苗族自治州,巴东县,31.2233,110.2003,942.7,904.0,17.9,100.0,20.4964197860545,40.64549999999996
Q5712,2025-06-03 17:00:00,税家,恩施土家族苗族自治州,巴东县,30.9331,110.2219,1150.3,884.4,16.2,67.0,12.329875672882697,25.40749999999998
Q5720,2025-06-03 17:00:00,高家坡,恩施土家族苗族自治州,巴东县,31.1225,110.4797,735.0,927.8,18.6,76.0,16.277336008013293,26.99999999999996
Q5730,2025-06-03 17:00:00,麻沙坪,恩施土家族苗族自治州,巴东县,30.7125,110.4111,1234.0,874.7,15.4,65.0,11.364853843052778,21.279
Q5732,2025-06-03 17:00:00,庙坪,恩施土家族苗族自治州,巴东县,30.6672,110.2142,1261.9,872.1,15.6,73.0,12.928394000110035,26.465
Q5736,2025-06-03 17:00:00,倒卜龙,恩施土家族苗族自治州,巴东县,30.4069,110.1308,950.0,904.4,17.4,77.0,15.29216799708662,24.91300000000002
Q5751,2025-06-03 17:00:00,绿葱坡滑雪场,恩施土家族苗族自治州,巴东县,30.8117,110.2419,1663.0,832.1,12.7,64.0,9.392206955903603,16.929999999999996
Q5802,2025-06-03 17:00:00,茅田,恩施土家族苗族自治州,建始县,30.8097,109.8839,1364.3,862.4,12.7,88.0,12.914284564367454,27.60750000000004
Q5804,2025-06-03 17:00:00,高坪,恩施土家族苗族自治州,建始县,30.5989,110.0597,1239.1,872.2,18.3,57.0,11.980499456515895,25.99900000000001
Q5819,2025-06-03 17:00:00,封竹,恩施土家族苗族自治州,建始县,30.8222,109.9811,1731.3,826.1,13.1,48.0,7.231002089435315,16.893499999999996
Q5823,2025-06-03 17:00:00,石垭子,恩施土家族苗族自治州,建始县,30.6128,110.0208,777.3,922.8,17.2,94.0,18.4336614152331,37.968
Q5824,2025-06-03 17:00:00,落水洞,恩施土家族苗族自治州,建始县,30.5825,109.9603,917.0,906.9,16.3,91.0,16.853683503283694,34.440499999999986
Q5827,2025-06-03 17:00:00,冷竹,恩施土家族苗族自治州,建始县,30.5347,109.9972,1227.8,875.3,13.2,94.0,14.253514416989942,27.5295
Q5829,2025-06-03 17:00:00,粟谷坝,恩施土家族苗族自治州,建始县,30.3572,110.0744,754.5,924.3,16.9,89.0,17.124427447966475,34.71200000000001
Q5831,2025-06-03 17:00:00,竹园坝,恩施土家族苗族自治州,建始县,30.2125,109.9622,1551.0,844.1,14.2,55.0,8.900292183655111,16.121500000000008
Q5836,2025-06-03 17:00:00,野三河景区,恩施土家族苗族自治州,建始县,30.6983,110.0806,896.7,911.5,16.4,72.0,13.420025894341672,26.987
Q6080,2025-06-03 17:00:00,掇刀,荆门市,掇刀区,30.975,112.2028,108.5,994.9,22.6,84.0,23.02595822456805,42.06450000000001
Q6082,2025-06-03 17:00:00,麻城,荆门市,掇刀区,30.9114,112.2447,85.0,998.0,22.1,95.0,25.26053097260925,45.91699999999998
Q6083,2025-06-03 17:00:00,樊桥,荆门市,掇刀区,30.7958,112.2522,82.0,998.6,22.6,96.0,26.31538082807777,41.13049999999989
Q6084,2025-06-03 17:00:00,凤凰,荆门市,掇刀区,30.9525,112.1789,106.0,995.6,22.9,91.0,25.4031594116136,44.97899999999994
Q6085,2025-06-03 17:00:00,龙泉,荆门市,掇刀区,30.8675,112.0964,97.5,996.6,22.4,92.0,24.91405374794663,44.985499999999966
Q6086,2025-06-03 17:00:00,仙女,荆门市,掇刀区,31.0422,112.1217,190.0,986.2,20.7,86.0,20.986323852435607,34.87000000000002
Q6111,2025-06-03 17:00:00,后港,荆门市,沙洋县,30.5242,112.3883,31.2,1004.2,23.6,93.0,27.083950361242536,37.86999999999993
Q6113,2025-06-03 17:00:00,高阳,荆门市,沙洋县,30.7592,112.46,65.0,1000.4,22.9,92.0,25.68231500954342,48.23950000000003
Q6114,2025-06-03 17:00:00,五里,荆门市,沙洋县,30.7297,112.2397,67.0,1000.3,23.1,95.0,26.843058780190784,37.25799999999988
Q6115,2025-06-03 17:00:00,十里,荆门市,沙洋县,30.6244,112.1758,56.2,1001.3,21.7,96.0,24.910277607541225,60.96900000000007
Q6117,2025-06-03 17:00:00,拾回桥,荆门市,沙洋县,30.5508,112.275,36.5,1003.8,23.3,95.0,27.16978295874454,53.03149999999998
Q6118,2025-06-03 17:00:00,曾集,荆门市,沙洋县,30.7172,112.3717,71.0,999.8,22.9,95.0,26.51978180333288,45.17958333333334
Q6122,2025-06-03 17:00:00,雷集,荆门市,掇刀区,30.8122,112.2886,104.0,995.8,22.6,93.0,25.493025177200348,46.18949999999995
Q6125,2025-06-03 17:00:00,双堰,荆门市,沙洋县,30.8186,112.4253,60.1,1001.0,22.7,95.0,26.199921114113604,48.190916666666745
Q6128,2025-06-03 17:00:00,港口,荆门市,沙洋县,30.4275,112.3442,40.0,1003.4,23.6,93.0,27.083950361242536,57.99650000000003
Q6129,2025-06-03 17:00:00,姚集,荆门市,沙洋县,30.8017,112.6122,40.0,1003.2,22.8,94.0,26.081958700416017,54.16499999999997
Q6160,2025-06-03 17:00:00,石桥驿,荆门市,东宝区,31.2861,112.1533,98.0,996.4,20.2,92.0,21.76783251902604,39.723
Q6162,2025-06-03 17:00:00,仙居,荆门市,东宝区,31.3903,112.0286,129.0,992.7,21.0,87.0,21.62614798995916,39.14099999999999
Q6163,2025-06-03 17:00:00,马河,荆门市,东宝区,31.1444,111.935,134.0,992.6,19.2,95.0,21.1240263246392,52.709499999999935
Q6164,2025-06-03 17:00:00,栗溪,荆门市,东宝区,31.2678,111.9847,231.2,981.6,18.6,97.0,20.775020957595917,47.02000000000007
Q6167,2025-06-03 17:00:00,观音寺,荆门市,东宝区,31.0697,111.925,129.0,992.8,20.8,91.0,22.343712498325917,45.319000000000045
Q6168,2025-06-03 17:00:00,东宝,荆门市,东宝区,31.0633,112.2033,110.0,995.1,22.7,74.0,20.40835960467796,35.67549999999996
Q6169,2025-06-03 17:00:00,岩垱,荆门市,东宝区,31.2031,112.1422,112.5,994.8,19.8,90.0,20.77326448543352,47.31749999999998
Q6170,2025-06-03 17:00:00,象河,荆门市,东宝区,31.3072,112.1028,121.0,993.7,20.0,85.0,19.864050548954765,42.12299999999995
Q6171,2025-06-03 17:00:00,安河,荆门市,东宝区,31.0814,112.1022,246.3,979.8,20.8,80.0,19.64282417435245,41.287999999999975
Q6172,2025-06-03 17:00:00,圣境山,荆门市,东宝区,31.12,112.1464,355.3,967.5,25.7,42.0,13.869247642718554,24.253
Q6173,2025-06-03 17:00:00,东宝八角,荆门市,东宝区,31.1497,112.2619,70.8,999.0,21.2,95.0,23.906798464732304,47.22800000000005
Q6174,2025-06-03 17:00:00,文丰,荆门市,东宝区,31.1786,112.0386,179.5,987.3,18.7,95.0,20.47445780956146,49.990499999999976
Q6175,2025-06-03 17:00:00,琵琶洲,荆门市,东宝区,31.135,111.9811,156.5,989.8,19.4,93.0,20.938584202629794,53.514500000000034
Q6176,2025-06-03 17:00:00,铁坪,荆门市,东宝区,31.2347,111.9575,270.2,977.1,19.4,87.0,19.58770780246013,34.520000000000024
Q6210,2025-06-03 17:00:00,长寿,荆门市,钟祥市,31.4994,112.5936,124.4,993.5,21.5,93.0,23.83814747552502,54.255499999999984
Q6213,2025-06-03 17:00:00,客店,荆门市,钟祥市,31.4353,112.8739,207.8,984.1,21.4,78.0,19.871115824985456,40.01300000000004
Q6217,2025-06-03 17:00:00,张集,荆门市,钟祥市,31.5064,112.72,136.9,992.1,20.6,95.0,23.040053059889534,55.56399999999995
Q6218,2025-06-03 17:00:00,洋梓,荆门市,钟祥市,31.2917,112.6356,56.0,1002.3,22.2,94.0,25.14748831534266,42.2965
Q6219,2025-06-03 17:00:00,柴湖,荆门市,钟祥市,30.9944,112.5881,40.0,1003.0,23.1,93.0,26.2779417532394,42.750499999999946
Q6220,2025-06-03 17:00:00,磷矿,荆门市,钟祥市,31.2944,112.4272,47.9,1002.1,20.0,92.0,21.49991353533928,44.74300000000003
Q6223,2025-06-03 17:00:00,九里,荆门市,钟祥市,31.1669,112.6503,53.0,1002.3,22.4,92.0,24.91405374794663,43.55016666666668
Q6224,2025-06-03 17:00:00,文集,荆门市,钟祥市,31.1594,112.5319,54.6,1002.3,22.9,100.0,27.915559792981977,60.52050000000008
Q6235,2025-06-03 17:00:00,洪山寺,荆门市,钟祥市,31.4969,112.5197,56.0,1000.4,22.9,90.0,25.124003813683775,47.94900000000005
Q6236,2025-06-03 17:00:00,北山,荆门市,钟祥市,31.2022,112.4103,93.0,997.1,20.5,88.0,21.21106444006037,43.53449999999996
Q6237,2025-06-03 17:00:00,陈坡,荆门市,钟祥市,31.0467,112.4686,43.0,1002.0,23.1,94.0,26.56050026671509,47.468500000000006
Q6260,2025-06-03 17:00:00,钟祥杨集,荆门市,钟祥市,31.3961,112.4883,59.0,1001.9,21.7,92.0,23.87234937389368,40.89400000000006
Q6263,2025-06-03 17:00:00,明显陵,荆门市,钟祥市,31.2106,112.6344,65.0,1000.6,20.9,94.0,23.222864847095316,51.56770000000002
Q6264,2025-06-03 17:00:00,郢中,荆门市,钟祥市,31.1667,112.5667,65.8,1000.5,23.7,85.0,24.903834784270245,52.467500000000015
Q6317,2025-06-03 17:00:00,宋河,荆门市,京山市,31.1814,113.3008,77.2,998.9,21.5,93.0,23.83814747552502,41.96899999999996
Q6319,2025-06-03 17:00:00,永兴,荆门市,京山市,30.9697,113.2225,63.0,999.9,22.8,93.0,25.80449105466691,42.97916666666677
Q6320,2025-06-03 17:00:00,钱场,荆门市,京山市,30.8547,113.0992,49.6,1002.2,23.3,90.0,25.73979438196851,41.819500000000055
Q6321,2025-06-03 17:00:00,石龙,荆门市,京山市,30.8972,112.8411,34.0,1003.2,22.9,92.0,25.68231500954342,47.66949999999998
Q6322,2025-06-03 17:00:00,永漋,荆门市,京山市,30.7744,112.8278,33.9,1003.9,23.1,88.0,24.865149185860936,47.41450000000002
Q6323,2025-06-03 17:00:00,坪坝,荆门市,京山市,31.2839,113.3547,73.0,999.0,20.9,96.0,23.716968354480315,39.40275
Q6324,2025-06-03 17:00:00,屈家岭,荆门市,市辖区,30.8344,112.945,77.0,999.1,22.1,93.0,24.72873032055432,39.44949999999994
Q6333,2025-06-03 17:00:00,三阳,荆门市,京山市,31.3436,113.1756,203.2,984.5,20.7,89.0,21.71840491705545,42.96400000000003
Q6335,2025-06-03 17:00:00,三台,荆门市,京山市,31.2819,112.9369,174.2,987.6,19.5,96.0,21.74894253325107,43.642999999999965
Q6336,2025-06-03 17:00:00,将军岭,荆门市,京山市,31.2428,112.9794,208.9,984.3,19.6,97.0,22.112565943045105,45.54100000000005
Q6339,2025-06-03 17:00:00,空山洞,荆门市,京山市,30.9928,113.045,105.0,995.8,21.1,96.0,24.01049470778239,54.4125
Q6343,2025-06-03 17:00:00,四股泉,荆门市,京山市,31.1531,113.2286,226.5,981.9,20.2,88.0,20.82140501819882,32.8765
Q6344,2025-06-03 17:00:00,马岭,荆门市,京山市,31.0558,113.4464,45.0,1001.8,23.2,94.0,26.72171447018369,34.46000000000003
Q6349,2025-06-03 17:00:00,中南山,荆门市,京山市,30.9269,113.0072,111.0,995.4,22.2,92.0,24.61243537246303,54.10350000000004
Q6353,2025-06-03 17:00:00,黄台,荆门市,京山市,31.1539,112.8736,115.4,994.6,21.6,96.0,24.7582919631612,49.97750000000002
Q6358,2025-06-03 17:00:00,绿林寨,荆门市,京山市,31.3367,113.0661,174.0,989.0,19.3,82.0,18.347361221963663,40.78550000000004
Q6370,2025-06-03 17:00:00,罗汉寺,荆门市,市辖区,30.9961,112.6831,38.0,1003.2,22.7,98.0,27.02728704403298,50.577
Q6371,2025-06-03 17:00:00,长滩办事处,荆门市,市辖区,30.9972,112.7556,57.0,1001.5,22.3,96.0,25.839487384065816,47.6725
Q6372,2025-06-03 17:00:00,月宝山,荆门市,市辖区,30.9675,112.7822,89.0,997.5,22.8,90.0,24.97208811741959,37.224500000000056
Q6373,2025-06-03 17:00:00,牙谷山,荆门市,市辖区,30.9711,112.8208,105.0,995.8,21.8,91.0,23.75771184275205,48.06249999999992
Q6374,2025-06-03 17:00:00,刘台,荆门市,市辖区,30.8964,112.7422,38.5,1003.6,22.8,96.0,26.63689399191423,50.81375000000005
Q6375,2025-06-03 17:00:00,种业基地,荆门市,市辖区,30.8661,112.8697,73.3,999.7,22.7,92.0,25.372555184194223,38.36300000000006
Q6376,2025-06-03 17:00:00,蔡垱,荆门市,市辖区,30.7656,112.8836,33.1,1004.0,23.0,92.0,25.838433708009617,46.95350000000002
Q6401,2025-06-03 17:00:00,洈水,荆州市,松滋市,29.9694,111.5644,100.3,997.4,23.3,69.0,19.733842359509197,33.84349999999999
Q6402,2025-06-03 17:00:00,沙道观,荆州市,松滋市,30.1794,111.9433,38.4,1003.1,23.6,89.0,25.919049270436403,54.425
Q6403,2025-06-03 17:00:00,纸厂河,荆州市,松滋市,30.0286,111.8453,52.1,1002.7,22.0,90.0,23.78545661174949,48.855966666666674
Q6404,2025-06-03 17:00:00,南海,荆州市,松滋市,30.1169,111.85,48.2,1003.4,22.4,82.0,22.206004427517644,44.54274999999998
Q6406,2025-06-03 17:00:00,卸甲坪,荆州市,松滋市,30.03,111.37,136.0,994.1,20.8,83.0,20.379430080890668,31.32799999999997
Q6407,2025-06-03 17:00:00,北干渠,荆州市,松滋市,30.0261,111.6894,43.0,1001.5,22.0,85.0,22.46404235554118,52.32900000000002
Q6408,2025-06-03 17:00:00,北河,荆州市,松滋市,30.0728,111.6294,164.0,989.1,23.0,59.0,16.57029987796269,31.198999999999973
Q6409,2025-06-03 17:00:00,陈店,荆州市,松滋市,30.2792,111.6517,122.0,993.1,22.0,87.0,22.99260805802451,46.12775000000005
Q6411,2025-06-03 17:00:00,涴市,荆州市,松滋市,30.2714,112.0189,50.1,1003.2,22.7,90.0,24.820977897581308,52.64999999999997
Q6412,2025-06-03 17:00:00,杨林市,荆州市,松滋市,29.9758,111.7756,69.2,1000.2,22.8,88.0,24.417152825921377,43.18399999999996
Q6414,2025-06-03 17:00:00,八宝,荆州市,松滋市,30.18,111.8686,46.1,1003.2,22.9,93.0,25.96147060747324,55.64699999999996
Q6415,2025-06-03 17:00:00,万家,荆州市,松滋市,29.9686,111.6961,76.2,1000.7,21.8,83.0,21.66912179064198,41.63400000000002
Q6417,2025-06-03 17:00:00,三堰淌,荆州市,松滋市,30.0903,111.4008,626.8,938.7,18.4,76.0,16.07455513857466,28.34800000000001
Q6418,2025-06-03 17:00:00,卸甲坪村,荆州市,松滋市,30.0397,111.3681,220.0,982.8,18.8,91.0,19.735457204066982,38.56100000000005
Q6426,2025-06-03 17:00:00,新江口,荆州市,松滋市,30.1769,111.7736,69.5,1000.1,24.8,64.0,20.03083727757836,32.889999999999986
Q6494,2025-06-03 17:00:00,南平,荆州市,公安县,29.9206,112.0969,44.0,1003.6,23.2,90.0,25.58462023740992,40.72299999999999
Q6495,2025-06-03 17:00:00,狮子口,荆州市,公安县,29.99,112.0072,48.0,1002.9,23.3,88.0,25.167798951258103,45.71249999999999
Q6496,2025-06-03 17:00:00,杨家厂,荆州市,公安县,30.0592,112.3197,30.0,1004.1,22.5,88.0,23.976244735857392,40.58049999999992
Q6497,2025-06-03 17:00:00,孟家溪,荆州市,公安县,29.8575,112.0914,40.0,1004.2,23.3,89.0,25.453796666613307,50.19549999999994
Q6498,2025-06-03 17:00:00,麻豪口,荆州市,公安县,29.9631,112.3392,40.0,1004.0,24.4,83.0,25.362867014476844,43.07850000000004
Q6499,2025-06-03 17:00:00,夹竹园,荆州市,公安县,29.99,112.1083,37.0,1003.9,23.3,96.0,27.455780674099746,48.63187500000001
Q6500,2025-06-03 17:00:00,甘厂,荆州市,公安县,29.7447,112.0739,36.9,1004.2,22.8,87.0,24.139685180172272,46.66449999999998
Q6502,2025-06-03 17:00:00,斑竹垱,荆州市,公安县,30.0544,112.0081,39.5,1003.7,23.7,99.0,29.005642866385347,60.72099999999995
Q6503,2025-06-03 17:00:00,埠河,荆州市,公安县,30.2919,112.2406,44.0,1003.3,23.2,86.0,24.447526004636146,47.965999999999966
Q6577,2025-06-03 17:00:00,大垸,荆州市,石首市,29.8425,112.4731,35.7,1004.1,23.9,100.0,29.65363286035348,57.81021666666663
Q6651,2025-06-03 17:00:00,监利汪桥,荆州市,监利市,29.98,112.7044,26.1,1004.9,23.6,90.0,26.21027454313793,44.809000000000005
Q6656,2025-06-03 17:00:00,监利上车,荆州市,监利市,29.8086,113.0083,26.5,1004.9,23.5,89.0,25.76314428935245,45.968999999999966
Q6657,2025-06-03 17:00:00,监利周老嘴,荆州市,监利市,30.0322,112.9767,25.1,1004.6,23.4,90.0,25.895792340581178,49.566500000000005
Q6658,2025-06-03 17:00:00,监利朱河,荆州市,监利市,29.7317,113.1064,24.9,1005.0,23.2,90.0,25.58462023740992,50.14424999999997
Q6659,2025-06-03 17:00:00,监利福田,荆州市,监利市,29.9039,113.0831,24.7,1005.0,23.1,95.0,26.843058780190784,58.37449999999993
Q6660,2025-06-03 17:00:00,监利黄歇口,荆州市,监利市,30.0361,112.8011,26.1,1005.0,24.5,86.0,26.43755771140915,50.87150000000001
Q6661,2025-06-03 17:00:00,监利大垸,荆州市,监利市,29.8486,112.7075,24.2,1004.3,24.0,86.0,25.65598702143605,45.87450000000004
Q6662,2025-06-03 17:00:00,监利网市,荆州市,监利市,30.1097,113.1147,25.8,1004.9,23.3,94.0,26.883785243389337,62.20808690476185
Q6665,2025-06-03 17:00:00,监利分盐,荆州市,监利市,29.9844,113.0503,31.9,1004.7,24.2,85.0,25.66422097169782,47.62766666666671
Q6667,2025-06-03 17:00:00,监利柘木,荆州市,监利市,29.59,113.1403,26.4,1005.0,23.1,85.0,24.01747364543386,50.60749999999998
Q6668,2025-06-03 17:00:00,监利汴河,荆州市,监利市,29.8086,113.0872,25.1,1005.1,23.1,93.0,26.2779417532394,52.76699999999996
Q6670,2025-06-03 17:00:00,三洲,荆州市,监利市,29.545,112.9406,29.0,1004.8,22.4,100.0,27.080493204289816,43.15296666666663
Q6750,2025-06-03 17:00:00,曹市,荆州市,洪湖市,29.8625,113.5478,29.8,1004.9,23.8,92.0,27.11760992472829,52.4982916666666
Q6751,2025-06-03 17:00:00,黄家口,荆州市,洪湖市,30.0486,113.5617,20.0,1005.3,22.8,96.0,26.63689399191423,62.13299999999994
Q6753,2025-06-03 17:00:00,瞿家湾渡口,荆州市,洪湖市,29.9325,113.2267,30.0,1005.0,24.3,91.0,27.64121133783487,53.35550000000003
Q6754,2025-06-03 17:00:00,洪狮渔场,荆州市,洪湖市,29.9217,113.29,20.0,1005.1,24.2,89.0,26.87194901742477,56.59100000000003
Q6755,2025-06-03 17:00:00,瞿家湾,荆州市,洪湖市,29.9614,113.1831,23.5,1004.9,23.4,99.0,28.48537157463929,59.5215
Q6756,2025-06-03 17:00:00,八卦洲,荆州市,洪湖市,29.8175,113.4078,34.0,1005.6,23.4,100.0,28.773102600645757,59.43849999999996
Q6757,2025-06-03 17:00:00,螺山,荆州市,洪湖市,29.6706,113.3161,26.7,1005.1,22.6,83.0,22.75183967427558,30.048000000000023
Q6758,2025-06-03 17:00:00,乌林,荆州市,洪湖市,29.9078,113.6072,30.0,1005.3,23.6,85.0,24.75414817963027,39.39399999999999
Q6759,2025-06-03 17:00:00,大沙,荆州市,洪湖市,30.0072,113.8642,30.0,1005.3,22.9,86.0,24.0073814219645,40.577499999999965
Q6760,2025-06-03 17:00:00,燕窝,荆州市,洪湖市,30.0958,113.9672,30.0,1004.9,23.0,91.0,25.55758116770517,52.10850000000002
Q6761,2025-06-03 17:00:00,汊河,荆州市,洪湖市,29.9578,113.4517,27.6,1005.2,24.5,80.0,24.593076940845727,46.61
Q6764,2025-06-03 17:00:00,大同湖,荆州市,洪湖市,30.0467,113.7133,23.7,1005.4,23.9,87.0,25.798660588507524,51.31399999999999
Q6767,2025-06-03 17:00:00,峰口,荆州市,洪湖市,30.1211,113.3494,25.3,1005.2,23.8,92.0,27.11760992472829,56.35550000000005
Q6769,2025-06-03 17:00:00,土地湖,荆州市,洪湖市,29.9361,113.3403,20.0,1005.2,24.2,88.0,26.57001700599304,45.598
Q6770,2025-06-03 17:00:00,袁新泵站,荆州市,洪湖市,29.7106,113.3156,20.0,1005.2,23.2,90.0,25.58462023740992,50.991749999999975
Q6771,2025-06-03 17:00:00,府场,荆州市,洪湖市,30.1222,113.1589,31.2,1004.9,23.7,93.0,27.24772511690745,51.40400000000005
Q6772,2025-06-03 17:00:00,洪湖龙口,荆州市,洪湖市,29.9878,113.7756,25.1,1005.2,24.0,84.0,25.059336160472427,42.80349999999996
Q6773,2025-06-03 17:00:00,洪湖经开区,荆州市,洪湖市,29.8489,113.4908,23.2,1005.3,23.4,84.0,24.16940618454243,47.4555000000001
Q6847,2025-06-03 17:00:00,江滩公园,荆州市,洪湖市,29.8033,113.4594,28.5,1004.5,22.4,94.0,25.455663612032428,43.98192976190476
Q6853,2025-06-03 17:00:00,纪南,荆州市,荆州区,30.4272,112.2525,33.0,1003.7,22.3,97.0,26.108648710983168,45.26612500000006
Q6856,2025-06-03 17:00:00,荆州中学,荆州市,荆州区,30.3653,112.2097,32.0,1004.2,23.8,85.0,25.054313517412005,49.192000000000064
Q6862,2025-06-03 17:00:00,乐居,荆州市,荆州区,30.3531,112.1147,38.6,1004.4,22.7,94.0,25.924132470807145,45.959916666666686
Q6863,2025-06-03 17:00:00,麋鹿,荆州市,石首市,29.7822,112.5547,35.4,1004.3,21.0,98.0,24.36048854041377,44.32966666666668
Q6901,2025-06-03 17:00:00,观音垱,荆州市,沙市区,30.3797,112.4003,28.0,1004.1,23.5,94.0,27.210511946057643,44.81450000000001
Q6951,2025-06-03 17:00:00,秦市,荆州市,江陵县,29.9672,112.6025,30.3,1004.8,23.6,100.0,29.122527270153263,52.06550000000006
Q6953,2025-06-03 17:00:00,沙岗,荆州市,江陵县,30.0603,112.6308,30.0,1004.7,23.9,87.0,25.798660588507524,45.42849999999992
Q6954,2025-06-03 17:00:00,熊河,荆州市,江陵县,30.1106,112.44,30.1,1004.5,24.2,90.0,27.173881028856517,46.1425
Q6957,2025-06-03 17:00:00,三湖,荆州市,江陵县,30.1967,112.5561,26.0,1004.9,23.4,93.0,26.758985418600552,52.30949999999995
Q6958,2025-06-03 17:00:00,郝穴,荆州市,江陵县,29.9919,112.4553,31.3,1004.5,24.4,81.0,24.75171359244126,44.38449999999998
Q6960,2025-06-03 17:00:00,江北农场,荆州市,江陵县,30.1814,112.3494,30.0,1004.4,22.4,100.0,27.080493204289816,55.736333333333405
Q7030,2025-06-03 17:00:00,悟峰山,孝感市,大悟县,31.7775,114.1636,92.4,997.3,19.6,97.0,22.112565943045105,41.17350000000003
Q7038,2025-06-03 17:00:00,新城,孝感市,大悟县,31.4925,114.2794,120.0,992.9,21.0,95.0,23.61475929938069,47.22299999999995
Q7087,2025-06-03 17:00:00,河口茶园,孝感市,大悟县,31.3186,114.3764,56.4,1000.0,19.6,97.0,22.112565943045105,46.1525
Q7092,2025-06-03 17:00:00,大悟城关,孝感市,大悟县,31.5711,114.1214,74.9,998.4,22.9,86.0,24.0073814219645,41.996
Q7138,2025-06-03 17:00:00,雷公,孝感市,安陆市,31.2953,113.515,101.0,996.2,21.5,96.0,24.607119974735504,59.73624999999996
Q7165,2025-06-03 17:00:00,接官,孝感市,安陆市,31.4175,113.7522,68.6,999.8,22.0,100.0,26.4282851241661,61.21499999999994
Q7166,2025-06-03 17:00:00,辛榨,孝感市,安陆市,31.1122,113.6156,45.9,1002.5,23.0,100.0,28.085254030445235,45.30299999999998
Q7167,2025-06-03 17:00:00,府河,孝感市,安陆市,31.2575,113.6686,36.4,1003.6,22.3,96.0,25.839487384065816,60.15950000000002
Q7218,2025-06-03 17:00:00,田店,孝感市,应城市,31.0317,113.4494,52.5,1001.9,22.8,96.0,26.63689399191423,41.88150000000002
Q7266,2025-06-03 17:00:00,义和,孝感市,应城市,30.7686,113.4944,28.9,1004.5,23.8,91.0,26.82285329511168,53.02849999999999
Q7315,2025-06-03 17:00:00,城隍,孝感市,汉川市,30.6261,113.7594,24.9,1004.9,23.5,89.0,25.76314428935245,55.48399999999999
Q7316,2025-06-03 17:00:00,华严农场,孝感市,汉川市,30.6256,113.6964,24.1,1005.2,23.0,90.0,25.27672862740071,48.35800000000002
Q7317,2025-06-03 17:00:00,回龙,孝感市,汉川市,30.565,113.4961,24.3,1004.8,23.3,94.0,26.883785243389337,50.54550000000008
Q7318,2025-06-03 17:00:00,脉旺,孝感市,汉川市,30.5175,113.5933,23.9,1004.8,22.9,92.0,25.68231500954342,39.295000000000016
Q7350,2025-06-03 17:00:00,庙头,孝感市,汉川市,30.5944,113.7875,27.0,1004.9,22.9,92.0,25.68231500954342,53.76449999999994
Q7354,2025-06-03 17:00:00,刘家隔,孝感市,汉川市,30.7539,113.8008,25.0,1005.2,21.8,97.0,25.324154381834603,57.18775000000003
Q7358,2025-06-03 17:00:00,麻河,孝感市,汉川市,30.775,113.6914,22.2,1005.3,23.0,96.0,26.961843869227422,54.53949999999997
Q7378,2025-06-03 17:00:00,南河,孝感市,汉川市,30.4967,113.7769,25.0,1004.6,23.3,92.0,26.311789812678928,53.03000000000001
Q7387,2025-06-03 17:00:00,新河,孝感市,汉川市,30.6956,113.9111,30.0,1005.1,22.2,93.0,24.879961843902844,41.43599999999999
Q7392,2025-06-03 17:00:00,西江,孝感市,汉川市,30.4806,113.6775,24.0,1005.0,23.1,90.0,25.43026621281232,46.01450000000006
Q7393,2025-06-03 17:00:00,韩集,孝感市,汉川市,30.6742,113.5964,28.0,1005.2,24.2,86.0,25.96615298312956,43.1365
Q7426,2025-06-03 17:00:00,周巷,孝感市,孝昌县,31.2169,114.1108,105.8,996.1,21.0,92.0,22.86903005834762,50.41049999999996
Q7432,2025-06-03 17:00:00,丰和,孝感市,孝昌县,31.1422,114.1475,85.0,998.2,22.4,86.0,23.28922415568924,50.77699999999997
Q7442,2025-06-03 17:00:00,花西,孝感市,孝昌县,31.1939,113.8561,72.2,999.6,22.7,100.0,27.578864330645896,54.12049999999996
Q7461,2025-06-03 17:00:00,双峰山景区,孝感市,孝昌县,31.2011,114.1914,582.5,944.2,21.0,80.0,19.88611309421532,36.38049999999998
Q7538,2025-06-03 17:00:00,隔蒲潭,孝感市,云梦县,30.9461,113.7253,28.7,1004.7,23.3,89.0,25.453796666613307,45.79999999999998
Q7546,2025-06-03 17:00:00,倒店,孝感市,云梦县,31.1844,113.7389,58.9,1001.0,22.9,90.0,25.124003813683775,51.63116666666668
Q7554,2025-06-03 17:00:00,清明河,孝感市,云梦县,31.0272,113.6944,34.0,1004.3,22.6,91.0,24.9447880766154,47.64900000000005
Q7618,2025-06-03 17:00:00,杨店,孝感市,孝南区,31.025,114.1083,52.0,1002.9,22.2,99.0,26.485120672541736,51.33609999999999
Q7622,2025-06-03 17:00:00,陡岗,孝感市,孝南区,31.0397,113.8556,30.1,1003.7,23.2,88.0,25.016073121023037,48.74800000000001
Q7626,2025-06-03 17:00:00,肖港,孝感市,孝南区,31.0981,113.975,46.5,1002.2,23.0,100.0,28.085254030445235,48.93900000000001
Q7630,2025-06-03 17:00:00,毛陈,孝感市,孝南区,30.8239,113.9908,23.2,1005.2,22.9,96.0,26.79893740126269,47.12250000000002
Q7642,2025-06-03 17:00:00,新铺,孝感市,孝南区,30.9806,113.98,46.2,1002.5,22.2,92.0,24.61243537246303,56.471500000000006
Q7650,2025-06-03 17:00:00,卧龙,孝感市,孝南区,30.8961,113.9025,27.1,1005.1,23.9,85.0,25.205587931300453,55.30149999999987
Q7654,2025-06-03 17:00:00,闵集,孝感市,孝南区,30.8508,114.1303,46.2,1004.2,22.0,92.0,24.31402231423281,56.41213333333328
Q7658,2025-06-03 17:00:00,东山头,孝感市,孝南区,30.7981,114.0183,25.3,1005.2,22.5,88.0,23.976244735857392,49.05808333333336
Q7659,2025-06-03 17:00:00,朱湖,孝感市,孝南区,30.8081,113.9397,19.7,1005.5,22.6,95.0,26.0412622777853,59.52199999999998
Q7663,2025-06-03 17:00:00,郑家河,孝感市,市辖区,31.3603,113.2903,96.0,996.6,21.4,100.0,25.475789519212125,44.41599999999992
Q7701,2025-06-03 17:00:00,拖市,省直辖县级行政区划,天门市,30.7267,112.8314,40.0,1004.0,22.7,92.0,25.372555184194223,46.323000000000064
Q7704,2025-06-03 17:00:00,佛子山,省直辖县级行政区划,天门市,30.7503,113.0092,35.2,1003.8,23.2,95.0,27.00598802837714,62.364500000000014
Q7705,2025-06-03 17:00:00,汪场,省直辖县级行政区划,天门市,30.61,113.0192,26.7,1004.7,23.0,100.0,28.085254030445235,57.12650000000002
Q7708,2025-06-03 17:00:00,岳口,省直辖县级行政区划,天门市,30.5239,113.0894,38.0,1004.2,23.3,92.0,26.311789812678928,47.06300000000002
Q7709,2025-06-03 17:00:00,九真,省直辖县级行政区划,天门市,30.7694,113.2297,29.7,1004.6,23.1,93.0,26.2779417532394,41.653500000000015
