Station_Id_C,Datetime,Station_Name,City,Cnty,Lat,Lon,Alti,PRS,TEM,RHU,VAP,PWV
57264,2025-06-03 16:00:00,武当山,十堰市,丹江口市,32.4261,111.0153,1017.5,897.5,21.7,35,9.081872044416071,16.535500000000027
57351,2025-06-03 16:00:00,坛子岭,宜昌市,夷陵区,30.8333,111.0167,231.0,982.8,21.4,88,22.41869477690667,54.9895
57352,2025-06-03 16:00:00,三斗坪,宜昌市,夷陵区,30.8092,111.0003,185.3,987.8,21.8,81,21.146974277614465,46.20450000000002
57353,2025-06-03 16:00:00,苏家坳,宜昌市,夷陵区,30.8378,111.0164,191.8,987.2,22.7,81,22.33888010782318,48.026499999999935
57354,2025-06-03 16:00:00,神农顶,省直辖县级行政区划,神农架林区,31.4558,110.2711,2948.1,715.0,7.1,36,3.629987848465015,6.016500000000001
57367,2025-06-03 16:00:00,大老岭,宜昌市,夷陵区,31.0836,110.9406,1910.0,809.3,15.7,24,4.277749476600135,12.697999999999984
57451,2025-06-03 16:00:00,绿葱坡,恩施土家族苗族自治州,巴东县,30.8131,110.2539,1813.5,819.0,15.3,36,6.254090473965558,13.60100000000001
Q0004,2025-06-03 16:00:00,沪渝K1464,恩施土家族苗族自治州,利川市,30.2789,108.8711,1082.2,889.4,15.7,83,14.79388360657547,26.28550000000001
Q0005,2025-06-03 16:00:00,沪渝K1439,恩施土家族苗族自治州,利川市,30.2444,109.1197,1131.4,885.4,16.5,98,18.38282360973586,29.294416666666603
Q0007,2025-06-03 16:00:00,沪渝K1412,恩施土家族苗族自治州,恩施市,30.2389,109.3664,706.7,929.5,19.2,72,16.00978837235813,34.99849999999999
Q0008,2025-06-03 16:00:00,沪渝K1407,恩施土家族苗族自治州,巴东县,30.2439,109.4128,545.1,946.1,20.0,76,17.76079813788897,35.296500000000044
Q0010,2025-06-03 16:00:00,沪渝K1375,恩施土家族苗族自治州,恩施市,30.4114,109.5864,729.9,926.5,18.5,99,21.070934009328244,42.50500000000004
Q0011,2025-06-03 16:00:00,沪渝K1369,恩施土家族苗族自治州,恩施市,30.455,109.6258,624.1,937.4,19.3,99,22.15108245090736,47.60699999999997
Q0013,2025-06-03 16:00:00,沪渝K1351,恩施土家族苗族自治州,恩施市,30.4628,109.7828,780.1,920.3,17.6,79,15.8888180457199,30.579499999999967
Q0014,2025-06-03 16:00:00,沪渝K1343,恩施土家族苗族自治州,恩施市,30.4997,109.8508,903.4,907.8,17.3,74,14.60373074519817,25.077000000000037
Q0015,2025-06-03 16:00:00,沪渝K1336,恩施土家族苗族自治州,建始县,30.55,109.8914,879.8,910.0,17.3,84,16.57720787292765,31.19050000000002
Q0017,2025-06-03 16:00:00,沪渝K1313,恩施土家族苗族自治州,巴东县,30.6506,110.0908,794.9,919.1,17.4,73,14.497769659575624,25.34600000000002
Q0019,2025-06-03 16:00:00,沪渝K1305,恩施土家族苗族自治州,巴东县,30.6308,110.1639,865.2,911.6,17.8,66,13.442690593359517,26.45799999999999
Q0021,2025-06-03 16:00:00,沪渝K1291,恩施土家族苗族自治州,巴东县,30.6119,110.3097,1104.2,886.8,15.6,96,17.00172361658306,33.7225
Q0022,2025-06-03 16:00:00,沪渝k1283,恩施土家族苗族自治州,恩施市,30.6217,110.3864,923.0,900.5,18.3,68,14.292525667422474,25.667500000000004
Q0026,2025-06-03 16:00:00,沪渝K1262,宜昌市,长阳土家族自治县,30.6247,110.6047,597.8,939.9,17.2,68,13.334989108892032,25.481000000000005
Q0028,2025-06-03 16:00:00,沪渝K1179,宜昌市,市辖区,30.5711,111.4003,54.9,999.3,21.6,94,24.242494213928676,48.29499999999997
Q0030,2025-06-03 16:00:00,沪渝K1208,宜昌市,长阳土家族自治县,30.5589,111.1281,241.9,981.7,21.0,79,19.63753668053763,31.79600000000006
Q0032,2025-06-03 16:00:00,沪渝K1097,荆州市,荆州区,30.3922,112.195,25.4,1003.7,23.9,82,24.31597894548985,44.01999999999995
Q0033,2025-06-03 16:00:00,沪渝K1069,荆州市,荆州区,30.3353,112.4733,25.4,1004.5,24.7,93,28.933786084377303,56.58499999999993
Q0034,2025-06-03 16:00:00,沪渝K1065,省直辖县级行政区划,潜江市,30.3383,112.5164,24.4,1004.1,24.4,97,29.64094096872595,62.2224999999999
Q0037,2025-06-03 16:00:00,沪渝K933,武汉市,蔡甸区,30.4533,113.8225,17.0,1004.5,23.2,85,24.1632524464427,43.22249999999998
Q0039,2025-06-03 16:00:00,沪渝k959,省直辖县级行政区划,仙桃市,30.3486,113.5853,15.2,1004.5,24.0,84,25.059336160472427,42.87249999999997
Q0040,2025-06-03 16:00:00,沪渝K982,省直辖县级行政区划,仙桃市,30.3631,113.3619,9.0,1005.1,24.5,84,25.82273078788801,49.69500000000004
Q0047,2025-06-03 16:00:00,黄黄785,黄冈市,浠水县,30.2406,115.1297,19.8,1005.9,22.5,87,23.70378740931356,39.43649999999998
Q0049,2025-06-03 16:00:00,黄黄K761,黄冈市,蕲春县,30.1353,115.33,21.4,1005.5,23.5,84,24.315776632647257,51.41325000000003
Q0050,2025-06-03 16:00:00,黄黄K742,黄冈市,武穴市,30.0289,115.4664,41.4,1003.6,20.9,93,22.97581309340281,48.708499999999965
Q0051,2025-06-03 16:00:00,黄黄K730,黄冈市,武穴市,30.0039,115.5917,38.0,1004.4,20.9,94,23.222864847095316,48.44250000000002
Q0052,2025-06-03 16:00:00,黄黄K722,黄冈市,武穴市,30.0161,115.6708,42.5,1003.1,21.9,78,20.488572607429887,35.39150000000004
Q0053,2025-06-03 16:00:00,黄黄K714,黄冈市,武穴市,30.0278,115.7514,22.2,1005.6,22.2,93,24.879961843902844,50.80200000000004
Q0054,2025-06-03 16:00:00,黄黄K708,黄冈市,黄梅县,30.0278,115.8164,23.1,1005.9,21.9,99,26.004726770968706,52.218291666666666
Q0055,2025-06-03 16:00:00,黄黄K700,黄冈市,黄梅县,30.0333,115.8986,25.2,1005.3,22.3,90,24.224519422561706,44.984999999999935
Q0056,2025-06-03 16:00:00,黄黄K685,黄冈市,黄梅县,30.1047,116.0217,45.9,1003.2,21.4,99,25.221031624020004,61.21550000000012
Q0058,2025-06-03 16:00:00,大广K2491,黄石市,市辖区,30.1703,114.9136,25.0,1004.2,22.7,86,23.71782332435547,46.977999999999966
Q0061,2025-06-03 16:00:00,大广K2520,黄石市,大冶市,29.9158,114.8833,57.7,1001.4,20.5,86,20.72899479369536,40.00350000000001
Q0064,2025-06-03 16:00:00,大广K2552,黄石市,阳新县,29.6617,114.9464,23.5,1005.3,19.9,86,19.973539709775004,40.152666666666754
Q0065,2025-06-03 16:00:00,大广K2560,黄石市,阳新县,29.6053,114.9322,37.1,1002.8,18.6,96,20.560845483806265,45.10249999999997
Q0066,2025-06-03 16:00:00,大广K2583,咸宁市,通山县,29.4306,114.8339,281.9,974.5,21.3,54,13.672801217280302,21.949
Q0067,2025-06-03 16:00:00,杭瑞K731,咸宁市,崇阳县,29.3742,113.8803,81.0,997.4,20.8,97,23.816924311402342,51.08750000000003
Q0069,2025-06-03 16:00:00,杭瑞K679,咸宁市,通山县,29.5817,114.3203,81.0,994.7,19.4,93,20.938584202629794,46.37249999999998
Q0071,2025-06-03 16:00:00,杭瑞K640,咸宁市,通山县,29.7172,114.6692,128.1,992.9,18.6,99,21.20337190517521,47.83091666666665
Q0072,2025-06-03 16:00:00,杭瑞K620,黄石市,阳新县,29.7147,114.8767,167.3,989.3,18.8,95,20.602949828421576,45.51650000000007
Q0074,2025-06-03 16:00:00,杭瑞K583,黄石市,阳新县,29.7067,115.2367,54.2,1001.2,18.6,99,21.20337190517521,45.372999999999976
Q0079,2025-06-03 16:00:00,福银K1447,十堰市,郧西县,33.08,110.3,444.3,958.3,18.7,90,19.396854766952963,28.57649999999996
Q0080,2025-06-03 16:00:00,福银K1421,十堰市,郧西县,32.95,110.5,395.1,962.9,19.3,86,19.24235445230336,28.526000000000018
Q0081,2025-06-03 16:00:00,福银K1405,十堰市,郧西县,32.86,110.65,275.8,974.6,19.9,71,16.48978278365146,33.91049999999996
Q0082,2025-06-03 16:00:00,福银K1398,十堰市,郧西县,32.82,110.7,205.1,982.6,21.9,84,22.064616654155262,41.13099999999996
Q0083,2025-06-03 16:00:00,福银K1338,十堰市,丹江口市,32.51,111.14,162.4,987.8,21.4,90,22.92821056729091,44.58349999999999
Q0087,2025-06-03 16:00:00,福银K1277,襄阳市,谷城县,32.28,111.66,73.4,997.4,23.0,86,24.1533184661829,39.02350000000003
Q0089,2025-06-03 16:00:00,福银K1234,襄阳市,市辖区,32.19,112.1,76.5,997.5,23.3,66,18.875849213443576,38.58349999999996
Q0093,2025-06-03 16:00:00,福银K1103,随州市,市辖区,31.67,113.26,101.0,995.7,21.4,90,22.92821056729091,40.179
Q0094,2025-06-03 16:00:00,福银K1093,随州市,市辖区,31.6,113.33,83.0,998.2,22.2,87,23.274803015263952,38.99450000000004
Q0095,2025-06-03 16:00:00,福银K1076,随州市,市辖区,31.48,113.43,110.0,995.2,20.6,98,23.767633682833413,39.74050000000003
Q0096,2025-06-03 16:00:00,福银K1064,孝感市,安陆市,31.39,113.51,97.7,997.4,21.8,92,24.01878559926581,59.72537500000002
Q0100,2025-06-03 16:00:00,福银K993,孝感市,市辖区,30.98,114.05,29.2,1003.8,23.1,91,25.712824726288016,43.315
Q0103,2025-06-03 16:00:00,襄荆K1620,荆门市,钟祥市,31.54,112.28,56.7,999.8,23.7,5,1.46493145789825,6.161499999999997
Q0104,2025-06-03 16:00:00,襄荆K1634,荆门市,钟祥市,31.42,112.34,68.6,999.1,22.2,87,23.274803015263952,38.69449999999996
Q0106,2025-06-03 16:00:00,襄荆K1685,荆门市,市辖区,30.99,112.27,51.3,1000.2,22.4,94,25.455663612032428,48.36399999999999
Q0107,2025-06-03 16:00:00,襄荆K1704,荆门市,市辖区,30.82,112.24,75.1,998.4,23.5,86,24.894723695329333,42.403999999999925
Q0108,2025-06-03 16:00:00,襄荆K1715交通气象站,荆门市,沙洋县,30.7,112.22,50.4,1001.4,23.6,5,1.4561263635076631,8.2065
Q0109,2025-06-03 16:00:00,襄荆K1745,荆门市,沙洋县,30.45,112.21,42.3,1003.4,24.6,82,25.35930935808551,47.06500000000002
Q0600,2025-06-03 16:00:00,洪湖石码头,荆州市,洪湖市,29.8361,113.5272,26.0,1004.5,23.2,90,25.58462023740992,50.19884999999997
Q0603,2025-06-03 16:00:00,石首海事码头,荆州市,石首市,29.7378,112.4081,20.0,1004.0,22.4,99,26.80968827224692,54.73599999999995
Q0604,2025-06-03 16:00:00,公安航道码头,荆州市,公安县,30.0744,112.215,11.0,1003.5,23.1,88,24.865149185860936,38.5795
Q0605,2025-06-03 16:00:00,江陵航道码头,荆州市,江陵县,30.03,112.4025,50.0,1003.5,23.5,81,23.447356038624143,38.05499999999999
Q0606,2025-06-03 16:00:00,杨林矶海事码头,荆州市,市辖区,30.3206,112.2025,15.0,1003.4,22.9,91,25.4031594116136,47.223499999999966
Q0607,2025-06-03 16:00:00,阳逻海事水上搜救中心,武汉市,新洲区,30.6586,114.5494,40.0,1004.6,23.5,90,26.052617820693488,46.66650000000004
Q0608,2025-06-03 16:00:00,金口航道码头,武汉市,江夏区,30.3672,114.1486,0.0,1004.8,23.3,84,24.02380808983728,44.98200000000004
Q0609,2025-06-03 16:00:00,嘉鱼簰洲湾海事站房,咸宁市,嘉鱼县,30.2064,113.9283,20.0,1004.8,22.7,93,25.648343827500685,49.653500000000015
Q0611,2025-06-03 16:00:00,秭归泄滩小学,宜昌市,秭归县,31.0047,110.6128,194.5,985.8,21.6,93,23.984595339312413,44.40149999999997
Q0612,2025-06-03 16:00:00,长江航道宜昌综合码头,宜昌市,宜都市,30.5539,111.39,40.0,1002.1,22.4,85,23.01841922364634,42.00799999999997
Q0613,2025-06-03 16:00:00,宜昌海事局孙家河执法队,宜昌市,宜都市,30.4106,111.5064,60.0,1002.7,22.6,84,23.02595822456805,42.02799999999998
Q0614,2025-06-03 16:00:00,松滋河口,宜昌市,宜都市,30.3075,111.6236,40.0,1002.7,23.4,72,20.716633872464943,36.39950000000006
Q0615,2025-06-03 16:00:00,枝江姚港,宜昌市,枝江市,30.3725,111.64,50.0,1003.0,22.0,94,24.84258801671613,53.33800000000001
Q0616,2025-06-03 16:00:00,枝江七星台,宜昌市,枝江市,30.4125,111.8875,40.0,1003.2,23.1,86,24.30003215890955,45.64149999999998
Q0617,2025-06-03 16:00:00,监利何王庙,荆州市,监利市,29.7708,113.0303,40.0,1004.0,23.5,86,24.894723695329333,46.66450000000002
Q0618,2025-06-03 16:00:00,监利三洲,荆州市,监利市,29.6517,112.9492,30.0,1004.2,21.5,2,0.5126483328069896,2.798500000000004
Q0619,2025-06-03 16:00:00,洪湖龙口汽渡码头,荆州市,洪湖市,29.9542,113.8303,30.0,1004.4,22.9,92,25.68231500954342,51.487500000000026
Q0701,2025-06-03 16:00:00,水口白灯船,武汉市,新洲区,30.6869,114.5175,4.0,1004.3,23.1,80,22.6046810780554,39.512499999999925
Q0702,2025-06-03 16:00:00,牧鹅洲白灯船,武汉市,新洲区,30.5583,114.6317,4.0,1004.5,23.6,81,23.589247088824145,46.95300000000003
Q0704,2025-06-03 16:00:00,沙市河段航道整治一期工程提示标,荆州市,沙市区,30.3142,112.2003,8.0,1002.6,22.9,100,27.915559792981977,58.38999999999996
Q0705,2025-06-03 16:00:00,公安大桥进口白泵船,荆州市,公安县,30.0753,112.3128,7.0,1002.6,22.6,99,27.13773647895521,64.63888571428562
Q0707,2025-06-03 16:00:00,桃花洲中提示标,荆州市,洪湖市,29.7636,112.6675,6.0,1003.2,21.9,100,26.267400778756265,57.96549999999985
Q0725,2025-06-03 16:00:00,天兴洲航道整治建筑物上提示标,武汉市,江岸区,30.6411,114.3525,4.0,1004.0,24.0,85,25.35766159095424,42.7049999999999
Q0729,2025-06-03 16:00:00,黄冈大桥#1红浮,黄冈市,市辖区,30.5308,114.8308,4.0,1004.1,23.5,89,25.76314428935245,46.57149999999998
Q0737,2025-06-03 16:00:00,李家洲#3红浮,黄冈市,市辖区,30.1289,115.2844,3.0,1004.7,22.6,88,24.12243242573796,56.59493452380956
Q1000,2025-06-03 16:00:00,江滩,武汉市,江岸区,30.5944,114.3017,28.8,1004.9,23.5,78,22.578935444601026,42.20250000000006
Q1001,2025-06-03 16:00:00,潘塘,武汉市,新洲区,30.9978,114.8886,62.0,1000.1,21.9,86,22.589964669730385,40.84800000000001
Q1002,2025-06-03 16:00:00,三店,武汉市,新洲区,30.9278,114.7925,28.0,1004.7,22.6,91,24.9447880766154,47.911
Q1003,2025-06-03 16:00:00,李集,武汉市,新洲区,30.8803,114.6789,24.6,1005.0,22.1,97,25.79233162466418,57.26400000000006
Q1004,2025-06-03 16:00:00,旧街,武汉市,新洲区,30.8169,114.8717,27.0,1004.7,20.8,92,22.58924780050532,38.8365
Q1005,2025-06-03 16:00:00,辛冲,武汉市,新洲区,30.7997,114.8161,40.0,1003.6,22.2,89,23.809855958143583,42.74449999999991
Q1006,2025-06-03 16:00:00,汪集,武汉市,新洲区,30.8086,114.73,37.0,1003.5,22.8,83,23.029814597175847,39.07950000000001
Q1007,2025-06-03 16:00:00,仓埠,武汉市,江岸区,30.8736,114.6136,28.8,1002.7,22.5,83,22.61395810313822,34.12199999999995
Q1008,2025-06-03 16:00:00,凤凰,武汉市,新洲区,30.9403,114.7225,67.0,1001.4,20.9,96,23.716968354480315,41.10249999999996
Q1010,2025-06-03 16:00:00,化工,武汉市,洪山区,30.5064,114.3839,40.8,1003.9,23.3,81,23.165814943771665,46.18549999999996
Q1011,2025-06-03 16:00:00,五一大队,武汉市,东西湖区,30.7475,114.0272,26.0,1005.5,22.5,96,26.155903348208064,55.02199999999997
Q1013,2025-06-03 16:00:00,湖北省农科院,武汉市,洪山区,30.4836,114.3192,31.0,1004.9,22.5,85,23.15887275622589,43.58999999999998
Q1014,2025-06-03 16:00:00,花山工作基地,武汉市,市辖区,30.5325,114.5006,41.0,1003.1,22.4,66,17.87312551483128,31.362500000000036
Q1016,2025-06-03 16:00:00,湖北省预备役师,武汉市,洪山区,30.5333,114.5058,29.0,1004.3,20.9,81,20.01119204909277,45.94700000000002
Q1017,2025-06-03 16:00:00,和平公园,武汉市,青山区,30.6381,114.3803,22.0,1004.9,22.0,90,23.78545661174949,42.77783333333333
Q1018,2025-06-03 16:00:00,纱帽,武汉市,汉南区,30.3322,114.0706,19.0,1005.1,23.2,88,25.016073121023037,50.14649999999999
Q1019,2025-06-03 16:00:00,湘口,武汉市,汉南区,30.2669,113.8478,25.0,1005.2,22.3,94,25.30116473023111,42.6795
Q1020,2025-06-03 16:00:00,邓南,武汉市,汉南区,30.3078,113.9783,27.0,1004.8,22.2,97,25.950067729662106,44.88199999999998
Q1021,2025-06-03 16:00:00,东荆,武汉市,汉南区,30.3461,113.9131,24.0,1005.1,22.8,92,25.52702340891781,50.962499999999984
Q1022,2025-06-03 16:00:00,气象预警中心,武汉市,东西湖区,30.6703,114.1803,32.0,1005.2,22.6,94,25.767143727492822,53.00249999999997
Q1023,2025-06-03 16:00:00,建和分校,武汉市,洪山区,30.4614,114.2383,23.2,1005.3,23.3,86,24.59580352054769,41.6545
Q1024,2025-06-03 16:00:00,实验小学,武汉市,东西湖区,30.6242,114.1408,26.0,1005.4,24.2,73,22.04103683451695,40.24150000000003
Q1025,2025-06-03 16:00:00,白玉公园,武汉市,青山区,30.6014,114.4875,25.0,1005.4,21.5,95,24.35079580833201,44.39575000000004
Q1026,2025-06-03 16:00:00,沌阳,武汉市,汉南区,30.455,114.1294,28.0,1005.3,22.2,100,26.75264714398155,47.05925000000003
Q1027,2025-06-03 16:00:00,华师,武汉市,洪山区,30.5183,114.3594,43.1,1003.1,23.2,79,22.45761109728204,43.69649999999997
Q1028,2025-06-03 16:00:00,常青路,武汉市,东西湖区,30.6731,114.2292,24.0,1005.3,22.8,93,25.80449105466691,55.51450000000008
Q1029,2025-06-03 16:00:00,光谷二十七小学,武汉市,洪山区,30.5644,114.4858,26.8,1004.9,23.1,82,23.16979810500678,50.87950000000001
Q1030,2025-06-03 16:00:00,材保所,武汉市,东西湖区,30.6772,114.2828,35.0,1005.3,22.9,85,23.72822582403468,53.1901666666666
Q1031,2025-06-03 16:00:00,湖北省第二师范,武汉市,洪山区,30.4789,114.4464,35.0,1003.9,22.0,84,22.19975950429952,42.962500000000055
Q1032,2025-06-03 16:00:00,百步亭社区,武汉市,江岸区,30.6644,114.3136,26.0,1005.4,22.6,83,22.75183967427558,36.24199999999998
Q1033,2025-06-03 16:00:00,南湖社区,武汉市,武昌区,30.5133,114.3114,19.0,1005.4,22.7,84,23.166246037742557,48.617
Q1036,2025-06-03 16:00:00,东湖落雁景区,武汉市,市辖区,30.5517,114.4369,23.0,1005.4,22.8,89,24.694620471670486,37.35900000000001
Q1038,2025-06-03 16:00:00,天兴洲,武汉市,洪山区,30.6708,114.41,25.0,1004.8,21.4,87,22.163936881714548,37.790999999999976
Q1039,2025-06-03 16:00:00,光谷二十一小学,武汉市,洪山区,30.5031,114.4803,45.3,1003.2,22.9,66,18.424269463368105,40.987
Q1040,2025-06-03 16:00:00,五云,武汉市,江岸区,30.7594,114.6317,24.0,1003.6,21.9,94,24.69135673203089,43.585999999999984
Q1041,2025-06-03 16:00:00,鄢家湖,武汉市,江岸区,30.6386,114.5739,11.5,1005.2,20.9,96,23.716968354480315,49.66650000000001
Q1042,2025-06-03 16:00:00,席家岗,武汉市,江岸区,30.8764,114.4739,32.5,1003.9,21.2,95,23.906798464732304,41.792
Q1043,2025-06-03 16:00:00,六指中心福利院,武汉市,江岸区,30.8822,114.5217,39.2,1003.7,22.2,91,24.344908901023214,47.960999999999984
Q1044,2025-06-03 16:00:00,青华,武汉市,江岸区,30.8683,114.5803,42.3,1003.5,21.3,92,23.29440207388496,54.43899999999999
Q1045,2025-06-03 16:00:00,大咀,武汉市,江岸区,30.7972,114.4647,31.3,1003.5,22.9,89,24.84484821575396,50.8535
Q1052,2025-06-03 16:00:00,武汉植物园,武汉市,洪山区,30.5447,114.42,23.3,1005.3,21.8,85,22.191269303669497,49.00749999999999
Q1054,2025-06-03 16:00:00,湖大,武汉市,武昌区,30.5814,114.3311,23.0,1005.2,23.6,77,22.42434599801801,40.705000000000005
Q1057,2025-06-03 16:00:00,林业站,武汉市,洪山区,30.6369,114.5061,33.0,1005.5,20.8,93,22.834783102684725,50.677
Q1061,2025-06-03 16:00:00,青山,武汉市,青山区,30.6411,114.4039,33.5,1004.4,22.9,77,21.494981040596123,37.08549999999994
Q1071,2025-06-03 16:00:00,士官学校,武汉市,洪山区,30.51,114.4581,35.0,1004.7,21.2,92,23.15184693426708,54.92550000000002
Q1072,2025-06-03 16:00:00,堤角公园,武汉市,江岸区,30.6664,114.335,27.0,1004.9,21.9,88,23.115312685305515,42.75624999999998
Q1073,2025-06-03 16:00:00,湖北省移动公司,武汉市,江汉区,30.6272,114.2394,25.0,1005.2,23.0,83,23.310760845269545,31.733000000000025
Q1081,2025-06-03 16:00:00,汉南,武汉市,汉南区,30.255,114.0589,22.1,1005.3,22.7,88,24.26940061096839,42.12649999999998
Q1082,2025-06-03 16:00:00,沌口,武汉市,汉南区,30.4769,114.1631,18.1,1005.0,22.8,91,25.2495557631687,46.11049999999998
Q1083,2025-06-03 16:00:00,春笋,武汉市,汉南区,30.4156,114.1306,21.6,1005.4,22.3,90,24.224519422561706,43.446999999999925
Q1084,2025-06-03 16:00:00,恒大农业,武汉市,汉南区,30.3267,114.0014,23.3,1005.2,22.2,95,25.415014786782475,45.16000000000001
Q1085,2025-06-03 16:00:00,武湖湿地,武汉市,汉南区,30.2131,113.8472,22.6,1005.5,22.3,91,24.493680749479054,46.60950000000009
Q1086,2025-06-03 16:00:00,喜鹊湖,武汉市,汉南区,30.22,113.8256,21.3,1005.6,22.4,95,25.726468544075324,56.75500000000004
Q1087,2025-06-03 16:00:00,龙灵山,武汉市,汉南区,30.4258,114.1092,33.7,1004.1,21.9,83,21.8019426463677,43.54850000000004
Q1088,2025-06-03 16:00:00,武汉西,武汉市,汉南区,30.4586,114.0606,29.0,1004.5,22.3,89,23.95535809564435,37.475333333333374
Q1101,2025-06-03 16:00:00,道观河,武汉市,新洲区,30.8781,114.9839,83.0,997.7,21.6,81,20.889808843917265,48.55150000000004
Q1102,2025-06-03 16:00:00,阳逻,武汉市,江岸区,30.6969,114.5339,25.0,1005.3,22.6,91,24.9447880766154,39.189
Q1103,2025-06-03 16:00:00,涨渡湖,武汉市,新洲区,30.6675,114.7861,18.7,1005.8,22.5,89,24.248702062401225,41.45149999999997
Q1104,2025-06-03 16:00:00,双柳,武汉市,新洲区,30.5964,114.6472,23.0,1005.3,22.4,86,23.28922415568924,39.64550000000001
Q1105,2025-06-03 16:00:00,将军山,武汉市,新洲区,30.8894,115.0589,344.5,969.2,20.0,79,18.4618822749109,38.90800000000001
Q1106,2025-06-03 16:00:00,徐古,武汉市,新洲区,30.9481,114.9694,73.0,999.5,21.7,81,21.01804673136291,52.96900000000001
Q1107,2025-06-03 16:00:00,徐治湾,武汉市,新洲区,30.8731,114.7681,25.0,1004.7,22.1,93,24.72873032055432,41.1835
Q1108,2025-06-03 16:00:00,方院,武汉市,新洲区,30.9156,114.6519,39.3,1003.5,21.0,96,23.863335713058383,47.176
Q1109,2025-06-03 16:00:00,杨裴,武汉市,江岸区,30.7858,114.5475,31.6,1004.1,22.2,90,24.077382429583395,46.8295
Q1111,2025-06-03 16:00:00,陈家田,武汉市,新洲区,30.975,114.7111,51.1,1002.1,20.4,96,22.99687977224152,41.05649999999997
Q1112,2025-06-03 16:00:00,大雾山,武汉市,新洲区,30.8286,114.9725,196.4,985.6,23.6,51,14.852488907778165,28.92550000000001
Q1113,2025-06-03 16:00:00,王寨,武汉市,新洲区,30.8742,114.8856,30.1,1004.4,21.6,89,22.95299984084736,38.664499999999954
Q1114,2025-06-03 16:00:00,春光,武汉市,新洲区,30.9244,114.6972,55.4,1001.6,21.5,82,21.018581645086574,38.88450000000001
Q1115,2025-06-03 16:00:00,易河,武汉市,新洲区,30.9389,114.9081,36.0,1003.7,21.0,97,24.111912126736076,49.63299999999995
Q1116,2025-06-03 16:00:00,李岗,武汉市,新洲区,30.9575,114.87,60.0,1001.0,21.6,92,23.72669646469615,37.42949999999997
Q1117,2025-06-03 16:00:00,徐寨,武汉市,新洲区,30.9631,114.7978,28.0,1004.7,22.4,92,24.91405374794663,46.8045
Q1118,2025-06-03 16:00:00,陈路,武汉市,新洲区,30.6256,114.7536,22.2,1005.5,22.4,91,24.643248815903736,42.9815
Q1119,2025-06-03 16:00:00,滨湖,武汉市,新洲区,30.6903,114.705,26.5,1004.8,21.9,82,21.539268638580133,37.1564999999999
Q1120,2025-06-03 16:00:00,航天新城,武汉市,新洲区,30.5981,114.6917,22.5,1005.4,22.4,88,23.83083401977504,39.77850000000004
Q1121,2025-06-03 16:00:00,大泊,武汉市,新洲区,30.7686,114.6692,20.6,1005.4,22.3,94,25.30116473023111,46.27949999999996
Q1122,2025-06-03 16:00:00,冯铺,武汉市,新洲区,30.7528,114.7064,23.9,1005.1,23.0,93,26.11928624831407,46.43650000000002
Q1123,2025-06-03 16:00:00,人胜,武汉市,新洲区,30.8286,114.6825,23.6,1005.1,22.7,93,25.648343827500685,53.33499999999998
Q1124,2025-06-03 16:00:00,杨铺,武汉市,新洲区,30.7658,114.815,35.4,1003.8,23.1,92,25.995383239763708,49.26650000000001
Q1125,2025-06-03 16:00:00,朱岗,武汉市,新洲区,30.7722,114.8658,39.5,1003.4,21.4,86,21.909178986522424,46.23910833333335
Q1126,2025-06-03 16:00:00,毛集,武汉市,新洲区,30.6581,114.6303,22.0,1003.9,21.6,82,21.14770771853352,38.16750000000002
Q1128,2025-06-03 16:00:00,王瓦,武汉市,新洲区,30.7972,114.6519,13.8,1005.2,21.8,94,24.54093311229333,42.661
Q1129,2025-06-03 16:00:00,四道沟,武汉市,新洲区,30.73,114.7775,20.2,1005.5,21.3,95,24.05400214151164,40.04850000000005
Q1130,2025-06-03 16:00:00,道观河水库,武汉市,新洲区,30.8692,115.0061,92.7,997.4,20.5,84,20.24692514733035,44.08250000000004
Q1131,2025-06-03 16:00:00,大屋冲,武汉市,新洲区,30.9228,115.0169,109.7,995.3,20.2,77,18.21872939092397,38.64299999999999
Q1132,2025-06-03 16:00:00,凤凰镇中心小学,武汉市,新洲区,30.9228,114.7528,34.0,1002.4,23.5,81,23.447356038624143,45.82950000000001
Q1133,2025-06-03 16:00:00,旧街利河小学,武汉市,新洲区,30.8536,114.9625,31.0,1002.9,20.9,84,20.75234731017028,35.261
Q1134,2025-06-03 16:00:00,双柳汉昕小学,武汉市,新洲区,30.6467,114.8336,15.0,1005.7,22.3,85,22.87871278797494,41.59300000000004
Q1135,2025-06-03 16:00:00,刘六,武汉市,新洲区,30.8819,114.8447,32.0,1003.0,22.0,92,24.31402231423281,41.20049999999996
Q1136,2025-06-03 16:00:00,涨渡湖湿地森林公园,武汉市,新洲区,30.6756,114.7642,28.8,1005.7,22.7,95,26.199921114113604,52.96050000000002
Q1191,2025-06-03 16:00:00,紫薇都市田园,武汉市,江岸区,30.8192,114.6042,35.7,1003.7,21.8,87,22.71341681669702,46.0835
Q1199,2025-06-03 16:00:00,邾城,武汉市,新洲区,30.8331,114.7997,26.4,1004.7,22.2,86,23.007276543824133,40.00349999999997
Q1201,2025-06-03 16:00:00,姚家集,武汉市,黄陂区,31.2047,114.3831,48.5,1002.9,21.3,97,24.560402186596097,50.53249999999997
Q1202,2025-06-03 16:00:00,蔡家榨,武汉市,黄陂区,30.9883,114.5211,88.0,998.2,22.5,87,23.70378740931356,51.06000000000003
Q1203,2025-06-03 16:00:00,李家集,武汉市,黄陂区,30.9947,114.2333,37.5,1002.4,21.7,98,25.429241724365003,57.91124999999999
Q1204,2025-06-03 16:00:00,天河机场,武汉市,黄陂区,30.8131,114.2119,35.0,1003.5,23.9,83,24.612515274093383,45.19650000000002
Q1207,2025-06-03 16:00:00,蔡店,武汉市,黄陂区,31.2856,114.3106,67.0,1000.4,21.8,95,24.802006868807087,49.84169999999999
Q1208,2025-06-03 16:00:00,祁家湾,武汉市,黄陂区,30.8853,114.2261,41.0,1003.5,23.1,86,24.30003215890955,47.454999999999984
Q1209,2025-06-03 16:00:00,横店,武汉市,黄陂区,30.8003,114.2903,38.0,1002.7,24.1,78,23.409670232793964,42.86249999999996
Q1212,2025-06-03 16:00:00,夏家寺水库,武汉市,黄陂区,31.0553,114.4678,49.0,1001.5,22.2,90,24.077382429583395,42.25799999999997
Q1213,2025-06-03 16:00:00,刘家山,武汉市,黄陂区,31.3047,114.2033,537.0,949.2,21.8,76,19.84160549504567,36.98349999999996
Q1214,2025-06-03 16:00:00,三里桥,武汉市,江岸区,30.7583,114.4194,23.0,1005.6,21.6,95,24.500393088544936,41.99900000000002
Q1215,2025-06-03 16:00:00,罗汉寺,武汉市,黄陂区,30.9933,114.3361,48.0,1002.6,21.7,96,24.910277607541225,48.41850000000005
Q1216,2025-06-03 16:00:00,长轩岭,武汉市,黄陂区,31.1075,114.3617,49.0,1003.0,22.2,89,23.809855958143583,44.53600000000003
Q1217,2025-06-03 16:00:00,现代农展中心,武汉市,江岸区,30.7003,114.5036,21.0,1005.4,22.0,92,24.31402231423281,47.36533333333331
Q1218,2025-06-03 16:00:00,源泉,武汉市,黄陂区,31.2347,114.23,100.2,995.1,20.0,96,22.43469238470185,65.28699999999989
Q1219,2025-06-03 16:00:00,矿巴水库,武汉市,黄陂区,31.0919,114.2014,105.3,997.7,21.8,89,23.235564329724536,51.17899999999999
Q1220,2025-06-03 16:00:00,武湖,武汉市,江岸区,30.7003,114.4181,29.0,1005.0,23.4,84,24.16940618454243,45.75650000000009
Q1221,2025-06-03 16:00:00,滠口,武汉市,黄陂区,30.7122,114.3606,17.3,1004.3,23.1,86,24.30003215890955,46.248500000000014
Q1222,2025-06-03 16:00:00,农科院北区,武汉市,江岸区,30.7164,114.4722,28.0,1005.1,22.1,87,23.133328364389527,44.48958333333329
Q1224,2025-06-03 16:00:00,崇杰,武汉市,黄陂区,31.2561,114.3842,50.2,1002.5,21.6,95,24.500393088544936,52.599
Q1225,2025-06-03 16:00:00,梅店水库,武汉市,黄陂区,31.1831,114.3153,65.1,1000.6,21.7,92,23.87234937389368,53.629499999999936
Q1226,2025-06-03 16:00:00,道士冲,武汉市,黄陂区,31.2664,114.2336,106.9,995.6,20.3,95,22.61711175745233,50.186000000000014
Q1227,2025-06-03 16:00:00,姚家老屋,武汉市,黄陂区,31.2417,114.2836,87.3,997.7,21.1,90,22.50983878854599,35.48199999999993
Q1228,2025-06-03 16:00:00,双墩,武汉市,黄陂区,30.8536,114.1789,22.0,1003.7,23.6,87,25.33659872503334,44.36199999999994
Q1229,2025-06-03 16:00:00,红旗,武汉市,黄陂区,30.9553,114.1625,21.6,1003.6,22.2,95,25.415014786782475,37.010999999999925
Q1230,2025-06-03 16:00:00,同兴集,武汉市,黄陂区,31.1272,114.4814,46.7,1001.1,21.2,94,23.655147954577227,52.18049999999996
Q1231,2025-06-03 16:00:00,磨盘,武汉市,黄陂区,31.1839,114.4325,61.2,999.4,21.5,91,23.325499142718037,44.329000000000015
Q1232,2025-06-03 16:00:00,吊箭楼,武汉市,黄陂区,31.1419,114.4219,73.8,997.9,22.9,81,22.6116034323154,36.04049999999998
Q1233,2025-06-03 16:00:00,卧虎,武汉市,黄陂区,31.035,114.3906,29.0,1003.0,21.4,94,23.947242148059395,45.051000000000016
Q1234,2025-06-03 16:00:00,院基寺水库,武汉市,黄陂区,31.0972,114.315,48.5,1000.8,21.7,95,24.650795549129334,57.40849999999997
Q1235,2025-06-03 16:00:00,彭家冲,武汉市,黄陂区,31.0725,114.2422,86.4,998.9,21.3,91,23.041202051342733,53.727500000000006
Q1236,2025-06-03 16:00:00,红十月水库,武汉市,黄陂区,30.9511,114.4708,49.0,1000.7,22.5,91,24.79361671548889,47.490499999999976
Q1237,2025-06-03 16:00:00,北新,武汉市,黄陂区,31.0414,114.3053,60.4,999.3,22.8,87,24.139685180172272,37.573999999999984
Q1238,2025-06-03 16:00:00,余家冲水库,武汉市,黄陂区,31.3386,114.2825,96.0,995.1,21.7,94,24.39131349071745,52.40483333333341
Q1239,2025-06-03 16:00:00,官家砦,武汉市,黄陂区,31.0269,114.1628,34.0,1002.5,22.7,90,24.820977897581308,52.99450000000006
Q1243,2025-06-03 16:00:00,定正,武汉市,黄陂区,30.9133,114.4825,21.0,1003.5,21.4,95,24.20200004325152,50.10200000000002
Q1244,2025-06-03 16:00:00,黄陂石门,武汉市,黄陂区,31.1486,114.3,62.7,999.7,20.5,96,23.1393430255204,62.39300000000002
Q1245,2025-06-03 16:00:00,仁和,武汉市,黄陂区,31.25,114.3386,27.9,1002.4,21.1,94,23.510276068036926,42.52349999999997
Q1246,2025-06-03 16:00:00,帽子村,武汉市,黄陂区,31.1961,114.4222,55.1,999.9,21.8,94,24.54093311229333,58.04299999999997
Q1247,2025-06-03 16:00:00,白庙集,武汉市,黄陂区,30.9967,114.2653,53.0,1002.5,22.6,91,24.9447880766154,34.4275
Q1248,2025-06-03 16:00:00,白龙寺,武汉市,黄陂区,30.9969,114.4553,28.8,1004.2,22.2,93,24.879961843902844,42.60250000000005
Q1250,2025-06-03 16:00:00,童家湖,武汉市,黄陂区,30.7614,114.1772,14.3,1004.9,23.2,88,25.016073121023037,45.139500000000034
Q1251,2025-06-03 16:00:00,艾馆,武汉市,黄陂区,30.9539,114.6003,55.1,999.8,22.9,84,23.44907022610486,51.51099999999996
Q1252,2025-06-03 16:00:00,全华,武汉市,黄陂区,30.8608,114.2969,43.9,1001.4,23.8,86,25.349070147028616,52.58749999999996
Q1253,2025-06-03 16:00:00,下店,武汉市,黄陂区,30.9294,114.3856,35.8,1002.4,23.1,93,26.2779417532394,46.1915
Q1254,2025-06-03 16:00:00,黄陂郑店,武汉市,黄陂区,30.9661,114.2142,32.9,1002.0,22.2,95,25.415014786782475,45.57249999999997
Q1255,2025-06-03 16:00:00,茶庙,武汉市,黄陂区,31.2994,114.4211,65.4,998.9,22.2,88,23.542329486703768,37.63199999999998
Q1270,2025-06-03 16:00:00,木兰天池,武汉市,黄陂区,31.1797,114.2817,337.8,971.5,20.8,85,20.870500685249475,45.89450000000002
Q1271,2025-06-03 16:00:00,云雾山,武汉市,黄陂区,31.1264,114.2086,122.0,994.4,20.7,99,24.158675132454945,59.26550000000001
Q1301,2025-06-03 16:00:00,老屋汤,武汉市,江夏区,30.3508,114.4364,20.5,1005.5,21.8,95,24.802006868807087,47.93600000000003
Q1302,2025-06-03 16:00:00,安山,武汉市,江夏区,30.1533,114.2303,42.0,1003.2,22.3,91,24.493680749479054,47.22449999999996
Q1304,2025-06-03 16:00:00,郑店,武汉市,江夏区,30.285,114.2281,32.6,1004.8,21.6,94,24.242494213928676,48.78449999999996
Q1305,2025-06-03 16:00:00,法泗,武汉市,江夏区,30.1131,114.1917,24.0,1005.1,24.3,90,27.337461762693824,44.1565
Q1306,2025-06-03 16:00:00,五里界,武汉市,江夏区,30.3058,114.4239,38.2,1003.7,21.5,95,24.35079580833201,52.79049999999994
Q1307,2025-06-03 16:00:00,山坡,武汉市,江夏区,30.0333,114.3808,40.0,1002.9,20.7,92,22.450485981675303,47.45799999999996
Q1308,2025-06-03 16:00:00,湖泗,武汉市,江夏区,30.0231,114.4622,40.8,1003.4,20.8,94,23.08031840486413,52.876
Q1309,2025-06-03 16:00:00,舒安,武汉市,江夏区,30.1494,114.5,32.3,1003.8,21.2,91,22.900196424112,46.06900000000007
Q1310,2025-06-03 16:00:00,乌龙泉,武汉市,江夏区,30.2106,114.3286,35.0,1003.7,21.9,93,24.428682724243327,50.517500000000034
Q1311,2025-06-03 16:00:00,庙山,武汉市,江夏区,30.4372,114.3781,19.7,1005.4,22.1,91,24.19692966849939,44.65799999999997
Q1313,2025-06-03 16:00:00,梁子湖,武汉市,江夏区,30.2603,114.4494,22.8,1005.5,23.0,95,26.68099132892297,44.127000000000045
Q1314,2025-06-03 16:00:00,庙山天玺湾,武汉市,江夏区,30.3864,114.38,22.0,1005.6,22.8,88,24.417152825921377,35.761500000000055
Q1316,2025-06-03 16:00:00,中央大公园,武汉市,江夏区,30.3872,114.3056,26.0,1005.4,22.4,95,25.726468544075324,39.34649999999995
Q1317,2025-06-03 16:00:00,郑店海吉星,武汉市,江夏区,30.3178,114.2592,28.0,1005.3,21.1,95,23.760385387909658,55.507000000000055
Q1318,2025-06-03 16:00:00,五里界锦绣,武汉市,江夏区,30.3278,114.3869,27.0,1003.8,21.0,96,23.863335713058383,59.2705
Q1319,2025-06-03 16:00:00,舒安未来家园,武汉市,江夏区,30.1294,114.4775,35.0,1005.3,22.2,89,23.809855958143583,48.93950000000001
Q1320,2025-06-03 16:00:00,湖泗祝祠,武汉市,江夏区,30.005,114.5111,55.0,1002.9,20.9,95,23.46991660078781,50.52899999999999
Q1321,2025-06-03 16:00:00,舒安嗣孟,武汉市,江夏区,30.0417,114.5383,49.0,1003.5,20.8,98,24.06245961358175,53.75550000000004
Q1322,2025-06-03 16:00:00,乌龙泉茗泉谷,武汉市,江夏区,30.2406,114.3142,66.0,1001.8,21.6,92,23.72669646469615,52.468500000000056
Q1323,2025-06-03 16:00:00,山坡光星,武汉市,江夏区,30.0956,114.3458,24.0,1005.7,20.5,99,23.862447495067915,44.7255000000001
Q1324,2025-06-03 16:00:00,乌龙泉杨湖,武汉市,江夏区,30.2308,114.4347,24.0,1005.6,20.9,95,23.46991660078781,52.79050000000004
Q1325,2025-06-03 16:00:00,金口南岸,武汉市,江夏区,30.2164,114.0742,24.0,1005.7,23.1,91,25.712824726288016,42.063499999999934
Q1326,2025-06-03 16:00:00,金水花篮棚,武汉市,江夏区,30.2019,114.1539,21.0,1005.7,23.6,90,26.21027454313793,38.55599999999994
Q1327,2025-06-03 16:00:00,法泗花莲湖,武汉市,江夏区,30.2031,114.1856,23.0,1005.6,23.5,93,26.921038414716605,41.72150000000007
Q1328,2025-06-03 16:00:00,东湖路学校,武汉市,江夏区,30.3664,114.3228,23.0,1005.4,24.0,79,23.567709008063357,39.64050000000002
Q1329,2025-06-03 16:00:00,金口长江,武汉市,江夏区,30.2903,114.0978,21.1,1005.4,22.0,96,25.37115371919945,42.892
Q1330,2025-06-03 16:00:00,马蹄口,武汉市,江夏区,30.2444,114.1503,23.7,1005.4,22.9,92,25.68231500954342,41.00899999999992
Q1331,2025-06-03 16:00:00,三门口,武汉市,江夏区,30.2861,114.1775,43.3,1003.0,21.7,85,22.05597496501046,38.559500000000064
Q1332,2025-06-03 16:00:00,塘口,武汉市,江夏区,30.1914,114.4686,20.9,1005.6,22.4,97,26.26807840816112,40.643499999999925
Q1333,2025-06-03 16:00:00,三合,武汉市,江夏区,30.1481,114.36,34.1,1004.1,21.7,95,24.650795549129334,52.15799999999996
Q1334,2025-06-03 16:00:00,乌龙泉五星,武汉市,江夏区,30.1872,114.3167,41.0,1003.3,21.1,96,24.01049470778239,51.5216666666667
Q1335,2025-06-03 16:00:00,邓家洲,武汉市,江夏区,30.0183,114.25,21.7,1005.5,23.1,83,23.45235661848248,43.03099999999999
Q1336,2025-06-03 16:00:00,前途,武汉市,江夏区,30.0481,114.3033,35.5,1004.0,20.8,96,23.571389009222937,50.79450000000007
Q1337,2025-06-03 16:00:00,涂洲,武汉市,江夏区,30.2183,114.2303,28.3,1004.7,21.6,95,24.500393088544936,51.73349999999994
Q1338,2025-06-03 16:00:00,合心,武汉市,江夏区,30.1039,114.2444,31.2,1004.5,20.7,96,23.426594067835097,54.725
Q1339,2025-06-03 16:00:00,沿湖,武汉市,江夏区,30.1778,114.3586,32.5,1004.3,20.8,95,23.32585370704353,53.78100000000004
Q1340,2025-06-03 16:00:00,长岭,武汉市,江夏区,30.2194,114.3758,21.5,1005.5,21.1,98,24.510713347527854,54.36349999999994
Q1341,2025-06-03 16:00:00,祝庙,武汉市,江夏区,30.1742,114.5003,39.8,1003.4,21.7,94,24.39131349071745,48.777
Q1342,2025-06-03 16:00:00,陈六,武汉市,江夏区,30.0381,114.4119,39.1,1003.6,20.7,96,23.426594067835097,53.14724999999992
Q1343,2025-06-03 16:00:00,金口花园,武汉市,江夏区,30.3275,114.1272,27.9,1004.8,22.5,94,25.610988695120398,48.278999999999925
Q1344,2025-06-03 16:00:00,安山青春,武汉市,江夏区,30.1744,114.2619,26.9,1004.9,21.0,97,24.111912126736076,58.55749999999996
Q1345,2025-06-03 16:00:00,安山英雄,武汉市,江夏区,30.1472,114.3175,41.3,1003.3,20.8,95,23.32585370704353,53.02300000000007
Q1346,2025-06-03 16:00:00,周李家,武汉市,江夏区,30.0914,114.3069,40.7,1003.4,21.6,88,22.6951009662311,51.72166666666668
Q1347,2025-06-03 16:00:00,狮子山,武汉市,江夏区,30.2844,114.3825,35.2,1003.8,21.3,95,24.05400214151164,51.36100000000005
Q1348,2025-06-03 16:00:00,凉亭,武汉市,江夏区,30.3039,114.1303,26.0,1005.3,23.0,88,24.715023546791805,38.76599999999996
Q1349,2025-06-03 16:00:00,金港,武汉市,江夏区,30.3728,114.1886,24.9,1005.2,21.9,91,23.903334708668204,47.279500000000006
Q1350,2025-06-03 16:00:00,山坡东方红,武汉市,江夏区,30.0536,114.2386,22.2,1005.5,22.2,93,24.879961843902844,45.83849999999998
Q1351,2025-06-03 16:00:00,新生,武汉市,江夏区,30.1067,114.4064,42.6,1003.3,21.9,85,22.327290661942826,35.04779999999998
Q1352,2025-06-03 16:00:00,官堤,武汉市,江夏区,30.0669,114.4333,38.5,1003.7,20.8,94,23.08031840486413,53.213
Q1353,2025-06-03 16:00:00,八分山,武汉市,江夏区,30.3608,114.2928,262.0,978.2,23.7,63,18.45813636951795,35.69349999999995
Q1354,2025-06-03 16:00:00,普生园,武汉市,江夏区,30.4092,114.3656,20.7,1004.2,23.6,79,23.006796543421075,42.593999999999966
Q1401,2025-06-03 16:00:00,东山,武汉市,东西湖区,30.7736,114.0089,20.9,1005.5,22.4,84,22.747614291603444,46.76649999999999
Q1402,2025-06-03 16:00:00,柏泉,武汉市,东西湖区,30.7692,114.1272,33.6,1004.5,22.3,88,23.686196768727,37.77183333333336
Q1403,2025-06-03 16:00:00,郁金香公园,武汉市,东西湖区,30.7053,114.0806,21.0,1005.6,21.6,96,24.7582919631612,40.46150000000002
Q1404,2025-06-03 16:00:00,走马岭,武汉市,东西湖区,30.6506,114.0136,13.0,1005.0,23.1,86,24.30003215890955,41.38799999999999
Q1405,2025-06-03 16:00:00,辛安渡,武汉市,东西湖区,30.7461,113.9286,31.3,1005.2,22.0,95,25.106870867957795,59.53962500000002
Q1406,2025-06-03 16:00:00,径河,武汉市,东西湖区,30.6808,114.1228,23.0,1004.9,23.4,89,25.60806131457472,50.25249999999998
Q1407,2025-06-03 16:00:00,将军路,武汉市,东西湖区,30.6642,114.2636,16.0,1004.9,22.6,90,24.670669526322914,44.95183333333336
Q1408,2025-06-03 16:00:00,杜公湖,武汉市,东西湖区,30.7228,114.145,25.0,1005.3,23.7,89,26.07577995058885,49.047999999999945
Q1410,2025-06-03 16:00:00,新沟,武汉市,东西湖区,30.6897,113.9931,22.0,1005.3,21.6,93,23.984595339312413,36.70049999999999
Q1411,2025-06-03 16:00:00,塔尔头,武汉市,东西湖区,30.6919,114.1892,32.0,1005.2,22.4,95,25.726468544075324,46.2135
Q1412,2025-06-03 16:00:00,金银湖,武汉市,东西湖区,30.6422,114.1814,23.0,1005.2,23.2,84,23.87897888824926,45.786
Q1413,2025-06-03 16:00:00,红星合作社,武汉市,东西湖区,30.7642,113.9464,32.0,1005.4,21.7,97,25.169759665953112,53.88650000000009
Q1501,2025-06-03 16:00:00,成功闸,武汉市,蔡甸区,30.3908,113.7656,21.0,1005.0,23.6,87,25.33659872503334,49.224500000000006
Q1502,2025-06-03 16:00:00,大集,武汉市,蔡甸区,30.5081,114.0531,30.0,1004.4,23.4,83,23.881675158535977,43.74600000000002
Q1503,2025-06-03 16:00:00,索河,武汉市,蔡甸区,30.5236,113.8964,41.3,1003.4,22.1,93,24.72873032055432,46.3845
Q1504,2025-06-03 16:00:00,桐湖农场,武汉市,蔡甸区,30.3917,113.9786,35.0,1005.2,23.1,88,24.865149185860936,48.76000000000001
Q1506,2025-06-03 16:00:00,消泗,武汉市,蔡甸区,30.3169,113.7728,27.0,1005.4,22.5,92,25.066074042032728,42.72849999999998
Q1507,2025-06-03 16:00:00,永安,武汉市,蔡甸区,30.4617,113.9281,48.6,1002.5,22.8,83,23.029814597175847,40.86850000000005
Q1509,2025-06-03 16:00:00,奓山,武汉市,蔡甸区,30.4297,114.0436,31.3,1004.1,23.3,86,24.59580352054769,46.902499999999954
Q1510,2025-06-03 16:00:00,侏儒,武汉市,蔡甸区,30.4525,113.8792,26.5,1005.0,22.5,94,25.610988695120398,51.944
Q1512,2025-06-03 16:00:00,沉湖湿地,武汉市,蔡甸区,30.3242,113.8619,25.0,1004.8,22.6,93,25.493025177200348,45.7245
Q1513,2025-06-03 16:00:00,千子山,武汉市,蔡甸区,30.4078,114.0333,37.2,1003.6,23.3,86,24.59580352054769,46.40799999999994
Q1514,2025-06-03 16:00:00,九真山,武汉市,蔡甸区,30.4839,113.9544,122.0,994.0,20.9,98,24.211071861865324,52.93899999999999
Q1515,2025-06-03 16:00:00,绿茵园,武汉市,蔡甸区,30.4467,114.0142,27.3,1004.7,23.2,90,25.58462023740992,47.70949999999999
Q1516,2025-06-03 16:00:00,时光农场,武汉市,蔡甸区,30.4086,113.8017,21.5,1005.3,22.7,98,27.02728704403298,55.9815
Q1517,2025-06-03 16:00:00,农耕园,武汉市,蔡甸区,30.4275,113.9525,22.7,1005.3,21.8,98,25.585228138348366,45.53200000000001
Q1518,2025-06-03 16:00:00,花博汇,武汉市,蔡甸区,30.4956,114.0656,32.4,1005.5,21.4,92,23.437726357675157,36.265
Q1519,2025-06-03 16:00:00,鸽翅岭,武汉市,蔡甸区,30.5394,113.9619,32.0,1004.1,21.4,93,23.692484252867278,39.39350000000001
Q1520,2025-06-03 16:00:00,景秀大地,武汉市,蔡甸区,30.4989,113.9781,22.3,1005.3,21.5,94,24.094471641928514,39.24549999999999
Q1521,2025-06-03 16:00:00,七沟,武汉市,蔡甸区,30.4289,113.7733,23.2,1005.1,23.0,92,25.838433708009617,53.775499999999965
Q1522,2025-06-03 16:00:00,香草花田,武汉市,蔡甸区,30.5133,113.8858,27.1,1004.7,21.1,96,24.01049470778239,33.888500000000015
Q1523,2025-06-03 16:00:00,金龙水寨,武汉市,蔡甸区,30.54,113.9247,22.2,1005.2,22.3,88,23.686196768727,36.78800000000002
Q1524,2025-06-03 16:00:00,谢八家,武汉市,蔡甸区,30.6244,113.9264,24.8,1004.8,22.7,92,25.372555184194223,47.9115
Q1525,2025-06-03 16:00:00,蔡甸野生动物王国,武汉市,蔡甸区,30.5567,113.9353,23.3,1005.1,22.4,95,25.726468544075324,46.92750000000001
Q1526,2025-06-03 16:00:00,长江大学,武汉市,蔡甸区,30.5292,114.0256,21.5,1005.4,23.4,92,26.47125439259409,37.53200000000003
Q1527,2025-06-03 16:00:00,蔡甸汉江堤防,武汉市,蔡甸区,30.6311,113.9797,26.1,1004.7,23.0,87,24.434171006487357,39.47199999999996
Q1528,2025-06-03 16:00:00,后官湖湿地公园,武汉市,蔡甸区,30.5306,114.0786,24.3,1005.1,22.8,94,26.081958700416017,56.71449999999991
Q1529,2025-06-03 16:00:00,张家大湖,武汉市,蔡甸区,30.3156,113.8164,23.3,1005.3,22.9,96,26.79893740126269,54.99375000000002
Q1599,2025-06-03 16:00:00,孙家畈,武汉市,蔡甸区,30.5664,114.0289,17.8,1005.0,22.4,88,23.83083401977504,35.45500000000002
Q1701,2025-06-03 16:00:00,藏龙岛,武汉市,江夏区,30.4017,114.4189,30.0,1004.8,21.7,96,24.910277607541225,49.3395
Q1702,2025-06-03 16:00:00,东湖高新射击场,武汉市,洪山区,30.5039,114.4608,40.0,1004.0,21.0,84,20.88041874892609,33.89900000000001
Q1703,2025-06-03 16:00:00,武汉欢乐谷,武汉市,洪山区,30.5972,114.3886,30.0,1005.3,23.4,81,23.30621310652306,44.18750000000004
Q1704,2025-06-03 16:00:00,东湖湖心亭,武汉市,武昌区,30.57,114.39,30.0,1005.3,23.5,90,26.052617820693488,38.66699999999995
Q1706,2025-06-03 16:00:00,青山沙排中心,武汉市,青山区,30.6508,114.3919,30.0,1004.8,23.2,100,28.42735581934436,56.286499999999926
Q1707,2025-06-03 16:00:00,驿山高尔夫,武汉市,洪山区,30.5,114.5006,50.0,1001.3,21.8,65,16.969794173394323,24.55399999999999
Q1708,2025-06-03 16:00:00,华科,武汉市,武昌区,30.5094,114.4117,40.0,1004.0,22.9,75,20.93666984473648,41.22666666666666
Q1709,2025-06-03 16:00:00,省奥体中心,武汉市,市辖区,30.4739,114.4547,40.0,1002.8,23.5,79,22.868408975942064,44.86400000000001
Q1710,2025-06-03 16:00:00,洪山体育馆,武汉市,武昌区,30.5489,114.3281,30.0,1003.8,24.0,74,22.07608185565428,35.75950000000001
Q1711,2025-06-03 16:00:00,武汉体育学院,武汉市,洪山区,30.5219,114.3725,30.0,1005.0,23.9,72,21.3506156594545,42.10500000000002
Q1712,2025-06-03 16:00:00,武大,武汉市,武昌区,30.5383,114.3511,30.0,1005.1,23.3,76,21.735826366995635,43.73300000000008
Q1713,2025-06-03 16:00:00,武汉软件职院,武汉市,市辖区,30.4508,114.4231,30.0,1004.1,23.6,95,27.6664009066456,42.963
Q1714,2025-06-03 16:00:00,武汉理工大学,武汉市,洪山区,30.5058,114.325,30.0,1005.4,24.4,75,22.918253326334497,41.06900000000003
Q1715,2025-06-03 16:00:00,武汉城市职院,武汉市,洪山区,30.4414,114.3086,20.0,1005.6,23.5,98,28.3684060714218,47.887499999999925
Q1716,2025-06-03 16:00:00,武汉体育中心,武汉市,汉南区,30.5061,114.1683,30.0,1005.4,23.8,81,23.87528699894556,44.50049999999997
Q1717,2025-06-03 16:00:00,武汉商学院,武汉市,汉南区,30.4664,114.08,30.0,1005.3,22.5,100,27.2457326543834,53.84200000000001
Q1718,2025-06-03 16:00:00,江汉大学,武汉市,汉南区,30.5208,114.1497,30.0,1005.3,23.3,90,25.73979438196851,50.33149999999996
Q1720,2025-06-03 16:00:00,全民健身中心,武汉市,江岸区,30.6472,114.2831,30.0,1005.6,23.7,80,23.438903326372,47.76649999999997
Q1721,2025-06-03 16:00:00,汉口文体中心,武汉市,江汉区,30.6028,114.2636,30.0,1005.5,24.0,91,27.14761417384513,47.29000000000002
Q1722,2025-06-03 16:00:00,汉阳沙排中心,武汉市,汉阳区,30.5017,114.2308,30.0,1004.8,23.1,92,25.995383239763708,49.10849999999998
Q1723,2025-06-03 16:00:00,军山,武汉市,汉南区,30.3978,114.1156,40.0,1003.3,22.8,100,27.746764574910657,50.51250000000001
Q1724,2025-06-03 16:00:00,蔡甸国防园,武汉市,蔡甸区,30.4764,113.9647,60.0,1002.0,21.1,94,23.510276068036926,46.31099999999999
Q1725,2025-06-03 16:00:00,海工大木兰校区,武汉市,黄陂区,31.1183,114.4642,50.0,1002.2,22.4,100,27.080493204289816,55.62999999999999
Q1726,2025-06-03 16:00:00,体育中心,武汉市,东西湖区,30.6378,114.1269,20.0,1004.5,23.6,77,22.42434599801801,39.72850000000003
Q1727,2025-06-03 16:00:00,东湖帆船基地,武汉市,武昌区,30.5425,114.3689,30.0,1005.6,22.5,86,23.431330082769723,47.841499999999975
Q1728,2025-06-03 16:00:00,雷神山,武汉市,江夏区,30.4408,114.2756,20.0,1005.5,24.0,88,26.25263788239969,37.94649999999994
Q1729,2025-06-03 16:00:00,桂子米业,武汉市,江夏区,30.1603,114.1839,47.0,1003.1,23.0,91,25.55758116770517,45.57399999999996
Q1730,2025-06-03 16:00:00,天子山教育基地,武汉市,江夏区,30.1494,114.4292,40.0,1004.0,21.3,99,25.066802231680555,50.09649999999996
Q1745,2025-06-03 16:00:00,中法生态城,武汉市,蔡甸区,30.5631,114.07,22.1,1005.0,23.0,87,24.434171006487357,39.25799999999997
Q1753,2025-06-03 16:00:00,高新大道,武汉市,市辖区,30.4872,114.4561,50.0,1002.1,21.5,78,19.9932849794726,36.24024999999999
Q1754,2025-06-03 16:00:00,天兴洲大桥,武汉市,洪山区,30.6575,114.4003,60.0,1000.0,25.6,62,20.35240931745636,39.65199999999997
Q1755,2025-06-03 16:00:00,知音桥,武汉市,硚口区,30.5811,114.2161,35.0,1004.1,24.6,78,24.12226987720329,42.47099999999996
Q1756,2025-06-03 16:00:00,晴川桥,武汉市,硚口区,30.5656,114.2783,15.0,1003.4,25.1,73,23.26059508243501,46.13849999999995
Q1759,2025-06-03 16:00:00,长江二桥,武汉市,江岸区,30.6036,114.3217,20.0,1001.6,25.2,64,20.51478733009884,35.66816666666661
Q1760,2025-06-03 16:00:00,二七长江大桥,武汉市,江岸区,30.6294,114.3394,25.0,1001.0,25.7,58,19.152770554230383,35.60850000000006
Q1761,2025-06-03 16:00:00,杨泗港长江大桥,武汉市,汉阳区,30.5069,114.2625,30.0,1000.6,25.2,66,21.155874434164428,35.636
Q1762,2025-06-03 16:00:00,鹦鹉洲大桥,武汉市,汉阳区,30.5339,114.2764,40.0,1001.5,25.2,69,22.11750509026281,38.618499999999976
Q1763,2025-06-03 16:00:00,古田桥,武汉市,硚口区,30.5872,114.1797,25.0,1003.3,24.9,74,23.29945298073383,31.57049999999996
Q1764,2025-06-03 16:00:00,月湖桥,武汉市,硚口区,30.5644,114.2483,35.0,1003.8,24.5,74,22.74859617028229,43.26949999999999
Q1765,2025-06-03 16:00:00,八一路延长线,武汉市,市辖区,30.5286,114.3831,11.0,1004.4,23.7,72,21.0950129937348,39.72300000000005
Q1766,2025-06-03 16:00:00,青化立交,武汉市,洪山区,30.6058,114.43,20.0,1003.8,23.8,68,20.04345081392961,32.39200000000001
Q1767,2025-06-03 16:00:00,欢乐大道,武汉市,市辖区,30.6017,114.41,22.0,1004.1,24.6,70,21.64819091543885,36.48450000000002
Q1768,2025-06-03 16:00:00,姑嫂树立交,武汉市,东西湖区,30.6386,114.2514,26.0,1003.5,25.3,68,21.92719685272226,36.580999999999975
Q1769,2025-06-03 16:00:00,楚康路出口,武汉市,洪山区,30.5097,114.3594,18.0,1003.8,24.8,74,23.160655602199974,39.905499999999904
Q1770,2025-06-03 16:00:00,长丰大道,武汉市,硚口区,30.6083,114.2083,22.0,1004.0,24.4,71,21.695946482263327,38.79049999999996
Q1771,2025-06-03 16:00:00,雄楚大道光谷大道入口,武汉市,洪山区,30.4992,114.4108,27.0,1001.8,25.3,57,18.380150303017185,30.43049999999996
Q1775,2025-06-03 16:00:00,汪家咀立交,武汉市,汉阳区,30.5186,114.1814,17.0,1003.7,24.9,85,26.76288518057264,46.34883333333333
Q1776,2025-06-03 16:00:00,四新北路,武汉市,汉阳区,30.5147,114.2403,21.0,1004.2,24.3,77,23.388717285860277,42.24500000000006
Q1778,2025-06-03 16:00:00,老武黄立交,武汉市,市辖区,30.5103,114.4556,8.0,1003.1,21.9,79,20.751246615217447,33.59924999999997
Q1779,2025-06-03 16:00:00,青菱立交,武汉市,洪山区,30.4628,114.2886,13.0,1004.6,24.2,87,26.2680849945613,44.95562500000002
Q2004,2025-06-03 16:00:00,红卫,十堰市,张湾区,32.6525,110.7253,336.4,969.5,20.8,87,21.36157128960829,29.390500000000028
Q2022,2025-06-03 16:00:00,小川,十堰市,茅箭区,32.4628,110.7172,643.8,937.2,16.3,92,17.038888816506592,35.91400000000002
Q2023,2025-06-03 16:00:00,黄龙,十堰市,张湾区,32.6861,110.5586,186.4,986.0,21.5,89,22.81285080991104,44.42000000000001
Q2031,2025-06-03 16:00:00,紫霄宫,十堰市,丹江口市,32.4253,111.0228,851.0,914.5,19.0,66,14.493641506748764,29.178
Q2032,2025-06-03 16:00:00,八仙观,十堰市,丹江口市,32.4308,111.0567,588.0,944.7,22.0,63,16.649819628224645,28.040000000000024
Q2033,2025-06-03 16:00:00,太子坡,十堰市,丹江口市,32.4489,111.0708,558.0,946.1,21.5,74,18.967988313858616,36.502499999999934
Q2034,2025-06-03 16:00:00,元和观,十堰市,丹江口市,32.4978,111.0942,396.0,962.3,23.1,59,16.670952295065856,28.811000000000035
Q2050,2025-06-03 16:00:00,火车站小学,十堰市,茅箭区,32.6017,110.7742,310.0,973.3,22.1,65,17.28352119178528,26.938
Q2204,2025-06-03 16:00:00,习家店,十堰市,丹江口市,32.7708,111.1592,253.1,978.5,19.3,91,20.361095990227977,41.700500000000005
Q2205,2025-06-03 16:00:00,石鼓,十堰市,丹江口市,32.7553,111.3811,297.0,973.5,24.5,63,19.367048090916008,32.58400000000006
Q2206,2025-06-03 16:00:00,丁家营,十堰市,丹江口市,32.4447,111.2453,186.0,986.6,19.7,96,22.021002278855697,44.44700000000002
Q2236,2025-06-03 16:00:00,蒿口新村,十堰市,丹江口市,32.5219,111.0364,179.1,987.1,21.5,85,21.78755414429706,40.033499999999975
Q2261,2025-06-03 16:00:00,马鞍山,十堰市,丹江口市,32.3306,111.1797,503.1,951.9,18.3,87,18.286025486261103,24.43000000000001
Q2266,2025-06-03 16:00:00,大坝街道,十堰市,丹江口市,32.5486,111.5125,133.4,992.0,22.8,89,24.694620471670486,46.68899999999996
Q2309,2025-06-03 16:00:00,茶店,十堰市,郧阳区,32.7992,110.8847,212.2,983.5,21.2,87,21.89359438349169,38.875500000000045
Q2324,2025-06-03 16:00:00,安阳,十堰市,郧阳区,32.8525,111.0044,221.0,981.4,20.7,87,21.23035087397556,40.3925
Q2326,2025-06-03 16:00:00,五峰,十堰市,郧阳区,32.8278,110.3708,193.5,986.4,20.7,86,20.986323852435607,33.82083333333333
Q2334,2025-06-03 16:00:00,塘上,十堰市,郧阳区,33.0756,110.735,834.7,916.0,13.7,89,13.942328258254884,25.459499999999995
Q2350,2025-06-03 16:00:00,韩家沟,十堰市,郧阳区,32.8653,110.6186,244.8,981.0,19.2,87,19.345160949932744,30.88550000000001
Q2353,2025-06-03 16:00:00,毛河,十堰市,郧阳区,32.5125,110.4669,537.4,948.4,19.6,89,20.288849164237263,32.88999999999998
Q2401,2025-06-03 16:00:00,上津,十堰市,郧西县,33.0742,110.0211,273.4,978.0,19.7,83,19.038991553593988,38.683499999999945
Q2402,2025-06-03 16:00:00,马安,十堰市,郧西县,33.0053,110.2311,374.2,966.7,17.5,93,18.586833876561847,40.17499999999991
Q2403,2025-06-03 16:00:00,土门,十堰市,郧西县,33.0589,110.3233,364.3,967.3,19.6,87,19.8329199695353,33.811
Q2405,2025-06-03 16:00:00,六郎,十堰市,郧西县,32.9978,110.0711,264.9,975.8,20.1,79,18.57660020173435,31.153499999999987
Q2409,2025-06-03 16:00:00,三官,十堰市,郧西县,33.1683,110.5619,838.1,915.9,13.0,94,14.068442995492164,25.93200000000001
Q2411,2025-06-03 16:00:00,槐树,十堰市,郧西县,33.2025,109.9003,794.0,921.1,18.5,65,13.83445162228622,24.598500000000016
Q2423,2025-06-03 16:00:00,河夹,十堰市,郧西县,32.9303,110.5283,273.0,974.7,19.1,86,19.00390366705638,32.18349999999996
Q2424,2025-06-03 16:00:00,湖北口,十堰市,郧西县,33.1942,109.575,890.6,911.1,14.8,88,14.80361368907238,25.69050000000001
Q2433,2025-06-03 16:00:00,包耳场,十堰市,郧西县,33.1864,109.75,640.0,937.9,16.3,94,17.409299442952385,29.25899999999995
Q2502,2025-06-03 16:00:00,土城,十堰市,房县,32.2775,110.6972,669.3,934.5,17.7,96,19.43012816856887,40.0645
Q2503,2025-06-03 16:00:00,沙河,十堰市,房县,32.1378,111.0931,843.6,915.6,19.3,76,17.004871376454133,22.52650000000001
Q2504,2025-06-03 16:00:00,卧牛观,十堰市,房县,32.2108,110.9142,711.4,929.8,17.5,92,18.386975447781616,34.802800000000055
Q2505,2025-06-03 16:00:00,门古寺,十堰市,房县,32.0058,110.4417,624.2,939.6,18.8,93,20.16920351624428,41.56449999999996
Q2507,2025-06-03 16:00:00,军店,十堰市,房县,32.0336,110.6253,495.7,953.1,19.6,85,19.376990774833335,49.06350000000001
Q2509,2025-06-03 16:00:00,中坝,十堰市,房县,32.0064,110.28,795.4,920.4,18.4,85,17.978120878669028,52.52566666666669
Q2524,2025-06-03 16:00:00,三里坪,十堰市,房县,31.9419,110.9697,415.0,962.1,19.5,95,21.52239104852971,40.88850000000001
Q2528,2025-06-03 16:00:00,白鹤,十堰市,房县,32.0997,110.7728,464.5,956.6,19.3,90,20.137347682643053,35.34199999999996
Q2530,2025-06-03 16:00:00,汪家河,十堰市,房县,32.1044,110.5331,563.7,945.9,18.6,85,18.20491527212013,38.98700000000003
Q2532,2025-06-03 16:00:00,对寺河,十堰市,房县,32.3347,110.3903,265.0,980.0,20.2,89,21.058011893405624,40.491000000000014
Q2546,2025-06-03 16:00:00,南潭,十堰市,房县,31.9833,110.7353,737.0,927.2,17.0,96,18.588826161454165,36.15300000000004
Q2548,2025-06-03 16:00:00,白鸡,十堰市,房县,32.2303,110.7133,592.3,942.7,17.8,93,18.94197310882477,37.88700000000001
Q2559,2025-06-03 16:00:00,东蒿,十堰市,房县,31.8842,110.7753,1359.0,862.9,13.0,94,14.068442995492164,26.94300000000002
Q2605,2025-06-03 16:00:00,柳林,十堰市,竹山县,31.7169,110.0508,523.7,952.0,18.9,91,19.85921676359638,41.54199999999994
Q2623,2025-06-03 16:00:00,秦古,十堰市,竹山县,32.4331,109.82,580.3,944.2,19.8,88,20.31163638575722,44.32899999999995
Q2624,2025-06-03 16:00:00,擂鼓,十堰市,竹山县,32.3533,109.9286,513.9,951.4,19.3,96,21.47983752815259,41.57350000000004
Q2626,2025-06-03 16:00:00,溢水,十堰市,竹山县,32.2786,110.0842,508.8,951.8,20.4,87,20.84092229359388,43.240500000000026
Q2628,2025-06-03 16:00:00,深河,十堰市,竹山县,32.1117,110.2306,361.0,968.8,19.4,93,20.938584202629794,45.8965
Q2655,2025-06-03 16:00:00,潘口,十堰市,竹山县,32.23,110.1844,273.8,977.9,20.0,93,21.73360824767992,41.172500000000085
Q2676,2025-06-03 16:00:00,北大街,十堰市,竹山县,32.2256,110.2261,307.0,974.3,21.1,91,22.75994810841873,46.67850000000004
Q2701,2025-06-03 16:00:00,龙坝,十堰市,竹溪县,32.3569,109.6453,563.6,945.7,19.1,86,19.00390366705638,39.49044999999997
Q2721,2025-06-03 16:00:00,泉溪,十堰市,竹溪县,32.0428,109.6986,849.5,915.7,16.7,100,18.99810753623445,53.76199999999999
Q2745,2025-06-03 16:00:00,界牌沟,十堰市,竹溪县,32.1683,109.5989,655.4,937.6,18.3,88,18.49620968725261,50.07899999999992
Q2748,2025-06-03 16:00:00,天宝,十堰市,竹溪县,31.9983,109.7814,498.9,952.0,18.3,97,20.38786749617617,41.578500000000005
Q2757,2025-06-03 16:00:00,高子河,十堰市,竹溪县,31.8119,109.7686,1063.6,894.4,14.8,100,16.822288283036794,55.77076666666667
Q2903,2025-06-03 16:00:00,新华,省直辖县级行政区划,神农架林区,31.5953,110.8861,716.7,930.2,17.5,89,17.787400161440907,35.20900000000004
Q2906,2025-06-03 16:00:00,徐家庄,省直辖县级行政区划,神农架林区,31.5622,110.5533,1398.1,859.8,12.3,94,13.437250255491552,27.245500000000007
Q2910,2025-06-03 16:00:00,木鱼,省直辖县级行政区划,神农架林区,31.4828,110.3786,1245.0,873.4,14.7,78,13.037005857417729,22.4145
Q2912,2025-06-03 16:00:00,神农架机场,省直辖县级行政区划,神农架林区,31.6119,110.3383,2597.4,745.9,9.8,33,3.9957503344495953,7.566999999999997
Q2916,2025-06-03 16:00:00,板桥,省直辖县级行政区划,神农架林区,31.4089,110.1781,1026.6,897.6,15.0,97,16.52927970181082,31.113999999999947
Q2923,2025-06-03 16:00:00,牛场坪,省直辖县级行政区划,神农架林区,31.5508,110.3911,2285.0,773.9,9.6,65,7.765481325211939,9.777499999999993
Q2925,2025-06-03 16:00:00,九冲,省直辖县级行政区划,神农架林区,31.4083,110.5553,699.8,931.8,17.0,83,16.071589285423915,26.031999999999957
Q2933,2025-06-03 16:00:00,大九湖,省直辖县级行政区划,神农架林区,31.4958,109.9953,1752.0,825.3,10.8,95,12.297515496350252,21.29200000000001
Q2940,2025-06-03 16:00:00,红花,省直辖县级行政区划,神农架林区,31.3992,110.475,819.5,919.2,16.1,89,16.274296374396346,27.780999999999946
Q2950,2025-06-03 16:00:00,阳日,省直辖县级行政区划,神农架林区,31.7328,110.8061,498.0,953.7,18.2,84,17.544943301823256,34.38099999999995
Q2957,2025-06-03 16:00:00,青天袍,省直辖县级行政区划,神农架林区,31.5144,110.3881,1569.0,844.5,14.6,59,9.797861255704712,18.79999999999997
Q3005,2025-06-03 16:00:00,隆中,襄阳市,襄城区,31.9889,112.0322,107.3,995.0,20.9,94,23.222864847095316,36.97250000000004
Q3008,2025-06-03 16:00:00,襄阳老站,襄阳市,襄城区,32.0283,112.1664,68.6,999.6,22.9,72,20.099203050947025,39.42150000000002
Q3012,2025-06-03 16:00:00,刘集小学,襄阳市,襄州区,32.1517,112.2992,70.1,999.3,22.9,77,21.494981040596123,45.99350000000001
Q3100,2025-06-03 16:00:00,东津,襄阳市,襄州区,32.0631,112.2203,69.7,999.2,22.5,90,24.52115938894506,42.94549999999997
Q3101,2025-06-03 16:00:00,朱集,襄阳市,襄州区,32.2967,112.3483,79.0,998.8,21.3,84,21.26880189354713,38.29099999999995
Q3103,2025-06-03 16:00:00,峪山,襄阳市,襄州区,31.9919,112.3706,93.0,997.6,22.1,77,20.474325104114868,40.830499999999965
Q3104,2025-06-03 16:00:00,龙王,襄阳市,襄州区,32.2089,111.9589,86.0,996.1,22.8,80,22.197411659928527,49.08199999999999
Q3106,2025-06-03 16:00:00,黄龙,襄阳市,襄州区,31.9858,112.4556,84.6,995.2,22.3,75,20.187099518801418,38.78250000000006
Q3107,2025-06-03 16:00:00,石桥,襄阳市,襄州区,32.3633,111.9611,110.7,994.6,23.2,74,21.036243306314823,35.011499999999955
Q3108,2025-06-03 16:00:00,程河,襄阳市,襄州区,32.2664,112.4508,114.6,995.4,23.7,69,20.21605411899585,32.113500000000016
Q3109,2025-06-03 16:00:00,伙牌,襄阳市,襄州区,32.1878,112.1847,108.3,995.0,23.0,69,19.37882528100721,41.08299999999999
Q3112,2025-06-03 16:00:00,张湾,襄阳市,襄州区,32.0886,112.1903,65.4,999.7,24.0,76,22.67273271661791,38.00900000000004
Q3113,2025-06-03 16:00:00,黄集,襄阳市,襄州区,32.3253,112.1328,142.2,991.3,23.9,65,19.27486135922976,31.179166666666703
Q3202,2025-06-03 16:00:00,枣阳吴店,襄阳市,枣阳市,31.9703,112.75,167.5,988.3,23.7,64,18.7511226610976,23.29800000000001
Q3203,2025-06-03 16:00:00,七方,襄阳市,枣阳市,32.2017,112.5589,131.0,992.3,23.6,69,20.09454381640575,33.87149999999999
Q3206,2025-06-03 16:00:00,枣阳新市,襄阳市,枣阳市,32.3414,112.9942,241.1,980.1,21.3,70,17.724001577955946,26.26150000000002
Q3207,2025-06-03 16:00:00,刘升榆树,襄阳市,枣阳市,32.12,112.8781,156.0,989.2,22.0,92,24.31402231423281,52.172499999999935
Q3212,2025-06-03 16:00:00,琚湾,襄阳市,枣阳市,32.0417,112.5906,72.0,997.3,22.1,85,22.60152771233459,46.70549999999997
Q3217,2025-06-03 16:00:00,姚棚水库,襄阳市,枣阳市,32.3253,112.8719,177.3,987.3,21.6,87,22.43720209161484,50.68
Q3218,2025-06-03 16:00:00,唐店,襄阳市,枣阳市,31.8503,112.8028,140.0,991.3,22.0,99,26.16400227292444,50.93150000000001
Q3237,2025-06-03 16:00:00,王城,襄阳市,枣阳市,31.9519,112.9217,115.0,994.2,21.3,91,23.041202051342733,51.650999999999925
Q3240,2025-06-03 16:00:00,北城,襄阳市,枣阳市,32.1411,112.7553,125.5,993.2,24.1,67,20.10830648201533,35.82399999999999
Q3305,2025-06-03 16:00:00,老河口半店,襄阳市,老河口市,32.4536,111.7536,153.1,989.2,22.0,89,23.52117376050783,42.832999999999984
Q3309,2025-06-03 16:00:00,方营,襄阳市,老河口市,32.3367,111.7022,90.0,997.2,21.3,100,25.320002254222786,45.81899999999998
Q3311,2025-06-03 16:00:00,老河口黄营,襄阳市,老河口市,32.3472,111.6742,80.3,997.6,21.5,99,25.376092473945988,50.53550000000003
Q3314,2025-06-03 16:00:00,农垦示范园,襄阳市,老河口市,32.4319,111.8458,148.3,990.5,23.4,77,22.15528900249723,40.46349999999996
Q3315,2025-06-03 16:00:00,老河口黑虎山水库,襄阳市,老河口市,32.5408,111.6622,163.3,988.4,21.7,86,22.315457023422347,34.93949999999993
Q3317,2025-06-03 16:00:00,古城水库,襄阳市,老河口市,32.5203,111.7786,145.2,990.5,22.2,86,23.007276543824133,35.97899999999997
Q3318,2025-06-03 16:00:00,老河口西关,襄阳市,老河口市,32.4217,111.6878,84.4,996.4,22.0,89,23.52117376050783,39.12499999999997
Q3321,2025-06-03 16:00:00,老河口老站,襄阳市,老河口市,32.38,111.67,90.0,997.0,23.0,93,26.11928624831407,42.21549999999992
Q3326,2025-06-03 16:00:00,白鹤岗,襄阳市,老河口市,32.2931,111.7247,89.0,997.2,22.9,99,27.63640419505216,56.48699999999989
Q3401,2025-06-03 16:00:00,五山,襄阳市,谷城县,32.2931,111.3314,180.0,987.8,19.5,91,20.61618510964425,34.51900000000002
Q3404,2025-06-03 16:00:00,谷城南河,襄阳市,谷城县,32.1678,111.4981,146.4,990.7,22.4,77,20.85197976730316,29.962499999999995
Q3405,2025-06-03 16:00:00,赵湾,襄阳市,谷城县,31.9917,111.4303,518.0,950.9,18.4,81,17.13209166084931,24.161000000000023
Q3409,2025-06-03 16:00:00,薤山,襄阳市,谷城县,32.1725,111.4061,701.7,930.0,23.9,47,13.937207444366132,21.502
Q3413,2025-06-03 16:00:00,茨河,襄阳市,谷城县,32.0483,111.8314,158.0,988.9,22.4,72,19.497955107088668,35.55499999999999
Q3414,2025-06-03 16:00:00,谷城城关,襄阳市,谷城县,32.2692,111.6333,86.6,997.7,24.1,0,0.0,6.176500000000001
Q3420,2025-06-03 16:00:00,紫金,襄阳市,谷城县,32.1342,111.3078,247.7,977.2,21.0,84,20.88041874892609,44.738499999999966
Q3501,2025-06-03 16:00:00,寺坪,襄阳市,保康县,31.9906,111.1233,275.0,977.8,20.5,100,24.103482318250418,47.13200000000002
Q3516,2025-06-03 16:00:00,两峪,襄阳市,保康县,31.5581,111.3953,660.0,934.6,17.8,87,17.71991032761027,30.091000000000022
Q3517,2025-06-03 16:00:00,歇马毛家岭,襄阳市,保康县,31.6419,111.1967,796.0,919.7,19.7,71,16.286366268737027,26.254000000000037
Q3520,2025-06-03 16:00:00,保康天宝寨,襄阳市,保康县,31.4017,111.2936,997.0,899.7,18.2,66,13.7853125942897,24.333000000000023
Q3525,2025-06-03 16:00:00,马良产业园,襄阳市,保康县,31.4942,111.3539,292.0,976.2,19.6,100,22.796459735098047,40.71599999999995
Q3545,2025-06-03 16:00:00,尧治河,襄阳市,保康县,31.8447,110.8022,1576.0,841.6,16.5,58,10.879630299639588,23.922500000000003
Q3555,2025-06-03 16:00:00,团结,襄阳市,保康县,31.68,111.0128,1064.0,890.2,18.3,57,11.980499456515895,18.106999999999992
Q3606,2025-06-03 16:00:00,武镇,襄阳市,南漳县,31.6647,111.9922,120.0,993.9,21.5,100,25.632416640349483,54.59700000000008
Q3608,2025-06-03 16:00:00,东巩,襄阳市,南漳县,31.3292,111.8253,183.0,983.3,19.8,99,22.85059093397687,44.154500000000006
Q3617,2025-06-03 16:00:00,薛坪,襄阳市,南漳县,31.6231,111.6778,820.0,918.2,16.4,91,16.961421616459614,26.613999999999987
Q3618,2025-06-03 16:00:00,长坪,襄阳市,南漳县,31.7775,111.5617,254.0,981.6,19.1,94,20.771708659340696,35.789499999999954
Q3623,2025-06-03 16:00:00,南漳大坪,襄阳市,南漳县,31.5489,111.8342,343.2,968.9,19.8,100,23.081404983815023,53.14550000000001
Q3632,2025-06-03 16:00:00,赵店,襄阳市,南漳县,31.9058,111.6194,271.6,977.1,18.6,91,19.489968114858023,32.965000000000025
Q3641,2025-06-03 16:00:00,漫云,襄阳市,南漳县,31.4556,111.6847,342.0,969.0,19.5,94,21.295839563808343,33.610000000000014
Q3748,2025-06-03 16:00:00,高楼,襄阳市,宜城市,31.6356,112.5942,141.0,991.7,22.1,86,22.867428038362057,40.901000000000025
Q3750,2025-06-03 16:00:00,孔湾,襄阳市,宜城市,31.5681,112.2661,55.0,1001.2,23.6,76,22.13312072531648,37.28650000000004
Q3751,2025-06-03 16:00:00,二库,襄阳市,宜城市,31.7467,112.4303,89.0,996.9,22.1,98,26.05823195069165,54.260000000000055
Q3752,2025-06-03 16:00:00,小南河,襄阳市,宜城市,31.4622,111.9878,177.5,987.1,21.5,77,19.736960813069103,38.85850000000004
Q3760,2025-06-03 16:00:00,刘猴,襄阳市,宜城市,31.4853,112.0169,159.0,989.8,21.9,83,21.8019426463677,27.362000000000027
Q3770,2025-06-03 16:00:00,谭湾,襄阳市,宜城市,31.7736,112.0389,94.0,996.1,23.0,86,24.1533184661829,43.39799999999998
Q3782,2025-06-03 16:00:00,联合,襄阳市,宜城市,31.8692,112.2653,86.0,997.4,20.1,94,22.103802771683917,36.02549999999994
Q3792,2025-06-03 16:00:00,流水,襄阳市,宜城市,31.5683,112.455,62.0,1001.0,21.9,95,24.954030739818453,41.8039999999999
Q3802,2025-06-03 16:00:00,殷店,随州市,随县,32.0808,113.5014,145.6,991.0,19.6,94,21.428672150992163,32.82950000000001
Q3803,2025-06-03 16:00:00,洪山,随州市,随县,31.6611,112.9072,154.4,990.3,21.1,92,23.01005742829146,48.5955
Q3804,2025-06-03 16:00:00,柳林,随州市,随县,31.5336,113.2278,120.0,993.9,21.1,95,23.760385387909658,44.38000000000001
Q3805,2025-06-03 16:00:00,唐镇,随州市,随县,32.0003,113.105,127.7,993.5,21.3,96,24.30720216405387,59.46353333333338
Q3807,2025-06-03 16:00:00,厉山,随州市,随县,31.8839,113.3125,92.0,997.7,23.2,91,25.86889379560337,55.09924999999998
Q3809,2025-06-03 16:00:00,淮河,随州市,随县,32.3436,113.6333,153.8,989.6,18.5,90,19.15539455393477,42.81150000000002
Q3812,2025-06-03 16:00:00,万店,随州市,曾都区,31.8386,113.5169,115.0,994.2,23.3,85,24.30980580519248,39.19649999999994
Q3815,2025-06-03 16:00:00,澴潭,随州市,随县,31.8106,113.0514,115.3,994.5,22.0,88,23.25689090926617,35.532499999999985
Q3820,2025-06-03 16:00:00,吴山,随州市,随县,32.1531,113.0822,215.4,983.2,20.9,88,21.74055432494029,50.38699999999998
Q3823,2025-06-03 16:00:00,南郊,随州市,曾都区,31.7278,113.2831,64.1,1000.3,21.4,95,24.20200004325152,44.06699999999998
Q3829,2025-06-03 16:00:00,大堰坡,随州市,曾都区,31.61,113.4317,85.0,998.7,21.7,96,24.910277607541225,37.30249999999995
Q3830,2025-06-03 16:00:00,长岗,随州市,随县,31.53,112.9711,228.2,981.8,19.2,85,18.900444606256126,36.84399999999996
Q3831,2025-06-03 16:00:00,雷达站,随州市,曾都区,31.7164,113.3869,96.2,996.8,23.6,82,23.880472361525676,48.11799999999996
Q3832,2025-06-03 16:00:00,府河,随州市,曾都区,31.4911,113.5678,65.8,1000.3,22.1,95,25.26053097260925,45.25836666666667
Q3836,2025-06-03 16:00:00,新城,随州市,随县,32.3561,113.1931,215.4,983.3,18.0,95,19.59454847370259,41.905000000000015
Q3844,2025-06-03 16:00:00,东庄畈,随州市,随县,31.5131,113.0106,274.3,976.8,19.0,77,16.909248424540223,29.327500000000004
Q3845,2025-06-03 16:00:00,城南新区,随州市,曾都区,31.6922,113.3744,78.4,998.6,22.3,88,23.686196768727,46.236
Q3847,2025-06-03 16:00:00,金顶,随州市,随县,31.4867,112.9781,1042.0,894.2,21.1,25,6.252732996818331,12.270999999999994
Q3852,2025-06-03 16:00:00,王家河,随州市,随县,31.9353,113.3081,122.2,993.8,21.7,100,25.948205841188777,54.370833333333415
Q3853,2025-06-03 16:00:00,银杏谷,随州市,曾都区,31.4347,113.2972,175.7,987.7,20.2,95,22.477653144646453,43.2585
Q3854,2025-06-03 16:00:00,自在谷,随州市,随县,31.4703,112.9844,467.3,955.8,17.3,78,15.393121596289964,32.034999999999975
Q3855,2025-06-03 16:00:00,状元台,随州市,随县,31.4778,112.9647,981.1,900.9,19.2,37,8.227252358017372,13.362000000000007
Q3856,2025-06-03 16:00:00,北郊,随州市,曾都区,31.7839,113.3958,105.4,995.7,22.4,93,25.184858679989528,45.56249999999994
Q3857,2025-06-03 16:00:00,西城,随州市,曾都区,31.7206,113.3617,64.5,1000.2,23.1,84,23.734915131958168,46.77250000000001
Q3901,2025-06-03 16:00:00,余店,随州市,广水市,31.7872,113.6322,109.6,995.2,21.3,96,24.30720216405387,40.913
Q3902,2025-06-03 16:00:00,长岭,随州市,广水市,31.4711,113.5781,47.3,1002.2,22.2,95,25.415014786782475,50.6184
Q3909,2025-06-03 16:00:00,蔡河,随州市,广水市,31.7264,113.8322,120.0,994.5,22.6,91,24.9447880766154,50.36900000000004
Q3911,2025-06-03 16:00:00,太平,随州市,广水市,31.4608,113.9217,46.4,1000.7,23.0,89,24.99587608709626,49.76800000000002
Q3913,2025-06-03 16:00:00,武胜关,随州市,广水市,31.7358,114.0353,100.0,995.8,20.7,95,23.182567046295148,53.74199999999999
Q3918,2025-06-03 16:00:00,应山,随州市,广水市,31.62,113.82,93.3,997.2,23.3,89,25.453796666613307,55.3655
Q3924,2025-06-03 16:00:00,尹家湾,随州市,广水市,32.0019,113.7164,203.6,984.8,18.5,96,20.432420857530417,41.25999999999996
Q4000,2025-06-03 16:00:00,葛洲坝,宜昌市,西陵区,30.7433,111.2694,67.8,1000.3,22.0,85,22.46404235554118,42.90899999999997
Q4001,2025-06-03 16:00:00,王家河公园,宜昌市,伍家岗区,30.6589,111.3303,56.3,1002.0,24.1,79,23.709794210137478,36.04350000000001
Q4002,2025-06-03 16:00:00,窑湾,宜昌市,西陵区,30.7186,111.3436,160.0,988.4,23.1,80,22.6046810780554,48.17799999999998
Q4003,2025-06-03 16:00:00,猇亭,宜昌市,猇亭区,30.5061,111.4444,42.6,1002.5,22.3,88,23.686196768727,44.02849999999996
Q4005,2025-06-03 16:00:00,土城,宜昌市,点军区,30.6931,111.0022,615.0,939.5,18.1,75,15.566983897318032,25.833000000000013
Q4015,2025-06-03 16:00:00,白龙岗公园,宜昌市,西陵区,30.7067,111.2972,116.6,993.3,23.2,79,22.45761109728204,45.18049999999997
Q4019,2025-06-03 16:00:00,艾家小学,宜昌市,点军区,30.6183,111.3422,87.0,998.0,22.7,80,22.06309146451672,45.36099999999995
Q4022,2025-06-03 16:00:00,猇亭古战场,宜昌市,猇亭区,30.5697,111.3964,78.5,999.0,21.9,88,23.115312685305515,40.76999999999998
Q4023,2025-06-03 16:00:00,长岭,宜昌市,点军区,30.6519,111.205,100.0,996.7,21.9,90,23.64066070088064,44.125999999999976
Q4025,2025-06-03 16:00:00,鸣翠谷,宜昌市,点军区,30.7389,111.2333,98.8,996.7,21.8,85,22.191269303669497,39.64649999999999
Q4026,2025-06-03 16:00:00,沙河公园,宜昌市,西陵区,30.7417,111.3144,86.3,998.3,23.1,80,22.6046810780554,45.283
Q4032,2025-06-03 16:00:00,宜昌一中,宜昌市,点军区,30.7086,111.2361,78.9,999.0,22.5,88,23.976244735857392,48.59299999999998
Q4033,2025-06-03 16:00:00,水井湾,宜昌市,伍家岗区,30.6853,111.3367,84.3,998.5,21.5,92,23.581823309121525,47.9795
Q4034,2025-06-03 16:00:00,龙盘湖,宜昌市,伍家岗区,30.6161,111.4,62.5,1000.8,20.8,96,23.571389009222937,50.27550000000004
Q4035,2025-06-03 16:00:00,碧桂园公园,宜昌市,伍家岗区,30.6478,111.3658,88.6,997.8,23.3,83,23.737810374482077,44.023
Q4036,2025-06-03 16:00:00,夷陵中学,宜昌市,夷陵区,30.6967,111.3817,113.0,995.2,21.9,92,24.166008716455764,33.851000000000006
Q4037,2025-06-03 16:00:00,李家咀,宜昌市,点军区,30.7214,111.1625,389.1,964.3,20.5,86,20.72899479369536,38.72050000000004
Q4105,2025-06-03 16:00:00,太平溪,宜昌市,夷陵区,30.8789,110.9697,215.0,984.2,22.4,74,20.03956497117446,44.95350000000008
Q4109,2025-06-03 16:00:00,樟村坪林场,宜昌市,夷陵区,31.2667,111.15,1162.0,884.2,14.6,82,13.61736649097943,28.24100000000001
Q4111,2025-06-03 16:00:00,鸦鹊岭,宜昌市,夷陵区,30.6117,111.5211,109.2,995.5,23.1,82,23.16979810500678,34.43350000000002
Q4112,2025-06-03 16:00:00,王家垭,宜昌市,夷陵区,30.9667,110.9878,990.0,900.7,20.4,46,11.019338224199062,20.96499999999996
Q4113,2025-06-03 16:00:00,古村坪,宜昌市,夷陵区,30.9228,110.9672,855.0,914.2,19.9,70,16.25753232190989,30.43050000000001
Q4115,2025-06-03 16:00:00,百里荒,宜昌市,夷陵区,30.96,111.5114,1251.8,872.9,19.5,38,8.608956419411884,13.448500000000008
Q4120,2025-06-03 16:00:00,秀水,宜昌市,夷陵区,31.1456,111.0747,1068.2,892.0,17.1,81,15.784045258016423,31.39800000000001
Q4127,2025-06-03 16:00:00,十字沟,宜昌市,夷陵区,31.0511,111.4406,402.0,963.1,20.3,77,18.33176426656663,32.05750000000001
Q4131,2025-06-03 16:00:00,二户坪,宜昌市,夷陵区,31.0117,111.3114,945.0,906.1,18.7,67,14.439880770953872,21.37850000000002
Q4140,2025-06-03 16:00:00,三峡大瀑布,宜昌市,夷陵区,30.9325,111.3158,169.1,987.1,19.8,99,22.85059093397687,47.7385
Q4146,2025-06-03 16:00:00,沙坪,宜昌市,夷陵区,30.9192,111.0428,403.0,963.3,21.2,79,19.880390302251072,40.540999999999976
Q4148,2025-06-03 16:00:00,黄金河,宜昌市,夷陵区,31.0078,110.9369,705.9,930.2,19.5,59,13.366537598560557,27.762500000000028
Q4150,2025-06-03 16:00:00,古村,宜昌市,夷陵区,31.4353,111.2158,1098.9,889.1,14.9,85,14.391419791620514,30.320500000000035
Q4153,2025-06-03 16:00:00,马卧泥,宜昌市,夷陵区,31.2117,111.2406,1073.1,891.6,18.3,64,13.451788863456445,25.36800000000001
Q4154,2025-06-03 16:00:00,青龙,宜昌市,夷陵区,30.7428,111.5075,108.8,995.7,21.2,88,22.145244893646765,33.61449999999998
Q4201,2025-06-03 16:00:00,傅家堰,宜昌市,五峰土家族自治县,30.3053,110.4817,705.3,929.8,19.0,68,14.932842764529031,21.67750000000002
Q4202,2025-06-03 16:00:00,长乐坪,宜昌市,五峰土家族自治县,30.1778,110.8722,1004.1,899.5,15.6,73,12.928394000110035,26.80642500000002
Q4203,2025-06-03 16:00:00,湾潭,宜昌市,五峰土家族自治县,30.0528,110.4344,1139.2,884.0,14.5,75,12.374691449389877,22.744999999999997
Q4204,2025-06-03 16:00:00,仁和坪,宜昌市,五峰土家族自治县,30.1022,111.2453,591.9,942.6,17.4,79,15.689367165842114,28.392500000000005
Q4205,2025-06-03 16:00:00,牛庄,宜昌市,五峰土家族自治县,30.2381,110.3611,1830.5,816.8,14.6,29,4.815897905346383,11.792499999999992
Q4206,2025-06-03 16:00:00,采花,宜昌市,五峰土家族自治县,30.2056,110.445,506.8,953.2,18.6,84,17.99073979833048,31.94000000000001
Q4207,2025-06-03 16:00:00,渔关,宜昌市,五峰土家族自治县,30.1831,111.075,255.1,979.4,21.1,71,17.75776171096406,28.488499999999995
Q4208,2025-06-03 16:00:00,清水湾,宜昌市,五峰土家族自治县,30.0797,110.9669,853.1,914.1,16.1,78,14.262866485426011,24.944499999999994
Q4209,2025-06-03 16:00:00,后河,宜昌市,五峰土家族自治县,30.0789,110.6214,952.7,905.5,14.3,88,14.332994718626136,27.31800000000001
Q4210,2025-06-03 16:00:00,水浕司,宜昌市,五峰土家族自治县,30.2494,110.6283,564.8,946.4,18.8,78,16.916106174914557,35.295999999999985
Q4213,2025-06-03 16:00:00,北风垭,宜昌市,五峰土家族自治县,30.14,110.5681,2213.7,780.7,12.0,25,3.5038481760627325,8.449499999999997
Q4214,2025-06-03 16:00:00,涨水坪,宜昌市,五峰土家族自治县,30.2553,111.02,737.6,927.3,16.4,88,16.402253870862044,29.80150000000001
Q4215,2025-06-03 16:00:00,三教庙,宜昌市,五峰土家族自治县,30.2011,110.9022,1031.0,895.7,14.4,86,14.098185894908063,27.467499999999983
Q4218,2025-06-03 16:00:00,大龙坪,宜昌市,五峰土家族自治县,30.3589,110.4706,1157.3,884.1,14.2,82,13.269526528358528,28.61000000000001
Q4238,2025-06-03 16:00:00,万里,宜昌市,五峰土家族自治县,30.1997,110.4069,1174.1,881.9,16.6,54,10.193963276422808,18.37500000000002
Q4249,2025-06-03 16:00:00,柴埠溪,宜昌市,五峰土家族自治县,30.2219,110.8947,1259.0,873.6,15.5,53,9.326378862579077,16.86000000000001
Q4252,2025-06-03 16:00:00,万马池,宜昌市,五峰土家族自治县,30.2056,110.665,619.4,940.7,18.1,78,16.189663253210753,31.56350000000001
Q4309,2025-06-03 16:00:00,胡家畈,宜昌市,枝江市,30.5808,111.6733,125.7,993.0,22.6,91,24.9447880766154,58.963500000000046
Q4321,2025-06-03 16:00:00,雅畈,宜昌市,枝江市,30.3967,111.5886,68.0,1000.2,22.6,84,23.02595822456805,41.08850000000003
Q4323,2025-06-03 16:00:00,马家店,宜昌市,枝江市,30.43,111.7592,44.5,1002.9,23.8,78,22.99101711009572,37.24649999999996
Q4325,2025-06-03 16:00:00,万福垴,宜昌市,枝江市,30.4386,111.4522,55.9,1001.5,22.3,89,23.95535809564435,46.834500000000034
Q4326,2025-06-03 16:00:00,田家河,宜昌市,枝江市,30.3369,111.5311,57.0,1001.6,22.1,100,26.59003260274658,54.18750000000001
Q4327,2025-06-03 16:00:00,姚家港工业园,宜昌市,枝江市,30.4011,111.6131,87.7,997.9,25.0,66,20.90503427883608,39.3945
Q4401,2025-06-03 16:00:00,社坪,宜昌市,长阳土家族自治县,30.63,110.5428,506.0,952.6,17.2,91,17.84535307219375,28.282500000000024
Q4403,2025-06-03 16:00:00,渔峡口,宜昌市,长阳土家族自治县,30.4286,110.4992,380.0,967.8,20.1,82,19.28204071572426,31.179500000000008
Q4404,2025-06-03 16:00:00,高家堰,宜昌市,长阳土家族自治县,30.6069,111.0583,167.0,989.4,20.4,85,20.361820631672177,41.29133333333331
Q4406,2025-06-03 16:00:00,大堰,宜昌市,长阳土家族自治县,30.3353,111.0731,631.0,938.3,17.8,89,18.1272645880151,25.599
Q4411,2025-06-03 16:00:00,横山,宜昌市,长阳土家族自治县,30.3692,110.9569,473.0,955.3,19.7,77,17.662678911165507,30.961
Q4415,2025-06-03 16:00:00,火烧坪,宜昌市,长阳土家族自治县,30.4944,110.7997,1546.9,844.5,14.1,43,6.913455191880678,13.745000000000005
Q4425,2025-06-03 16:00:00,榔坪,宜昌市,长阳土家族自治县,30.6219,110.4972,490.0,956.6,17.4,92,18.271161762752843,26.717500000000005
Q4437,2025-06-03 16:00:00,中岭,宜昌市,长阳土家族自治县,30.6211,110.8139,1055.0,893.9,16.9,77,14.815515881948524,21.6675
Q4443,2025-06-03 16:00:00,清江画廊,宜昌市,长阳土家族自治县,30.4703,111.1336,190.3,986.8,21.6,74,19.08451672160342,28.915999999999983
Q4446,2025-06-03 16:00:00,三洞水,宜昌市,长阳土家族自治县,30.3936,111.1128,220.0,985.2,21.0,84,20.88041874892609,30.98850000000005
Q4447,2025-06-03 16:00:00,都镇湾,宜昌市,长阳土家族自治县,30.4117,110.97,290.0,977.4,20.7,86,20.986323852435607,34.746000000000066
Q4453,2025-06-03 16:00:00,崩尖子,宜昌市,长阳土家族自治县,30.3731,110.7244,283.3,977.4,18.4,89,18.824150096488747,31.31550000000003
Q4510,2025-06-03 16:00:00,九道河,宜昌市,宜都市,30.1967,111.4717,199.8,985.6,22.3,71,19.11045421113201,23.284999999999982
Q4519,2025-06-03 16:00:00,陆城,宜昌市,宜都市,30.3839,111.4547,74.1,999.6,24.3,64,19.43997280902672,32.34499999999996
Q4604,2025-06-03 16:00:00,草埠湖,宜昌市,当阳市,30.5725,111.9686,74.0,1001.5,23.1,85,24.01747364543386,42.7685
Q4606,2025-06-03 16:00:00,王店,宜昌市,当阳市,30.7075,111.675,158.6,989.5,21.8,93,24.27985935577957,56.03699999999997
Q4610,2025-06-03 16:00:00,红旗岗,宜昌市,当阳市,31.0844,111.9219,102.3,993.9,21.6,87,22.43720209161484,48.478499999999976
Q4611,2025-06-03 16:00:00,淯溪光明,宜昌市,当阳市,30.9275,111.9269,58.0,1001.6,21.5,95,24.35079580833201,46.07300000000002
Q4612,2025-06-03 16:00:00,向家草坝,宜昌市,当阳市,30.9167,111.685,96.0,997.1,20.9,93,22.97581309340281,54.55949999999997
Q4614,2025-06-03 16:00:00,长坂雄风,宜昌市,当阳市,30.8369,111.7611,70.0,1000.0,23.0,76,21.34479306313838,39.46550000000008
Q4701,2025-06-03 16:00:00,嫘祖,宜昌市,远安县,31.1906,111.4081,553.8,946.5,18.4,93,19.670179314308463,34.45949999999998
Q4708,2025-06-03 16:00:00,茅坪场,宜昌市,远安县,31.1481,111.6794,179.8,987.0,20.1,87,20.457774905707453,39.31149999999999
Q4709,2025-06-03 16:00:00,洋坪,宜昌市,远安县,31.2208,111.5594,152.4,991.1,20.9,94,23.222864847095316,42.10099999999999
Q4710,2025-06-03 16:00:00,晓坪水库,宜昌市,远安县,31.1881,111.7553,391.9,963.8,18.4,92,19.458672009853537,33.96650000000002
Q4718,2025-06-03 16:00:00,芭芒店,宜昌市,远安县,31.2361,111.5361,186.0,984.9,21.1,84,21.00918286930959,36.25450000000003
Q4729,2025-06-03 16:00:00,龙凤,宜昌市,远安县,30.9167,111.5608,723.5,925.2,20.2,26,6.151778755376925,10.711000000000016
Q4801,2025-06-03 16:00:00,高桥,宜昌市,兴山县,31.2092,110.53,992.5,899.8,17.3,68,13.419644468560485,24.776000000000003
Q4802,2025-06-03 16:00:00,昭君,宜昌市,兴山县,31.2261,110.7697,286.0,977.4,20.4,88,21.080473124554725,32.37700000000004
Q4804,2025-06-03 16:00:00,峡口,宜昌市,兴山县,31.1192,110.7786,266.0,980.5,21.3,91,23.041202051342733,40.249499999999976
Q4806,2025-06-03 16:00:00,榛子,宜昌市,兴山县,31.5008,111.0083,1281.0,870.7,14.8,80,13.457830626429438,25.73849999999999
Q4808,2025-06-03 16:00:00,南对河,宜昌市,兴山县,31.1778,111.0017,644.1,937.9,17.9,95,19.47159879675177,39.88349999999996
Q4818,2025-06-03 16:00:00,观音河,宜昌市,兴山县,31.5183,110.8078,498.7,956.7,18.8,92,19.95233036015563,36.24399999999995
Q4837,2025-06-03 16:00:00,和平,宜昌市,兴山县,31.4728,110.9975,1301.6,869.6,14.4,92,15.081780259669095,29.72650000000005
Q4901,2025-06-03 16:00:00,彭家坡,宜昌市,秭归县,31.0306,110.6972,190.3,986.6,21.5,88,22.556526643507546,36.43349999999996
Q4902,2025-06-03 16:00:00,郭家坝,宜昌市,秭归县,30.9564,110.7569,351.0,970.4,20.8,85,20.870500685249475,40.732500000000016
Q4903,2025-06-03 16:00:00,两河口,宜昌市,秭归县,30.8722,110.5756,620.5,940.0,19.4,86,19.362561735765183,28.79550000000002
Q4905,2025-06-03 16:00:00,杨林桥,宜昌市,秭归县,30.7458,110.7553,421.8,962.7,18.8,85,18.43421826753509,26.810000000000016
Q4909,2025-06-03 16:00:00,沙镇溪,宜昌市,秭归县,30.9614,110.6022,420.0,962.4,20.4,89,21.320023955515573,36.26650000000002
Q4911,2025-06-03 16:00:00,九畹溪,宜昌市,秭归县,30.8442,110.7836,499.0,954.0,17.9,93,19.061670401030685,38.83899999999998
Q4918,2025-06-03 16:00:00,金缸城,宜昌市,秭归县,30.8361,110.9464,547.7,947.1,19.8,88,20.31163638575722,38.96950000000001
Q4921,2025-06-03 16:00:00,芝兰,宜昌市,秭归县,30.7814,110.7939,271.1,979.0,19.8,90,20.77326448543352,43.45600000000003
Q4932,2025-06-03 16:00:00,九岭头,宜昌市,秭归县,30.9803,110.8039,1385.0,860.5,15.2,100,17.261187233819143,39.61149999999987
Q4941,2025-06-03 16:00:00,高潮,宜昌市,秭归县,30.9881,110.4783,753.0,927.2,18.7,90,19.396854766952963,34.66600000000001
Q4945,2025-06-03 16:00:00,七甲,宜昌市,秭归县,30.7944,110.4961,1330.0,866.2,17.2,76,14.903811356996975,22.2425
Q4950,2025-06-03 16:00:00,雁落坪,宜昌市,秭归县,30.8117,110.3497,985.0,900.9,16.9,86,16.547199556461987,26.46600000000001
Q4957,2025-06-03 16:00:00,三台寺,宜昌市,秭归县,30.6814,110.7139,1085.0,892.0,16.5,56,10.504470634134778,18.44
Q4962,2025-06-03 16:00:00,吴家沟,宜昌市,秭归县,30.9811,110.7606,209.2,983.5,22.2,77,20.599538300865795,42.13250000000003
Q5102,2025-06-03 16:00:00,白杨坪,恩施土家族苗族自治州,恩施市,30.4808,109.5828,638.9,938.5,17.9,96,19.67656299461232,37.5185
Q5106,2025-06-03 16:00:00,三岔,恩施土家族苗族自治州,恩施市,30.2978,109.6278,1054.7,894.6,17.5,94,18.786692305342083,44.0725
Q5109,2025-06-03 16:00:00,芭蕉,恩施土家族苗族自治州,恩施市,30.1222,109.3956,599.8,942.4,19.5,87,19.709979170758785,39.98749999999999
Q5122,2025-06-03 16:00:00,望城坡,恩施土家族苗族自治州,恩施市,30.3303,109.4231,1113.0,888.6,15.8,81,14.53012545788394,27.07150000000001
Q5133,2025-06-03 16:00:00,小卫家山,恩施土家族苗族自治州,恩施市,30.3539,109.6558,1312.4,868.8,17.5,66,13.190656299495505,29.132500000000007
Q5135,2025-06-03 16:00:00,神堂,恩施土家族苗族自治州,恩施市,30.3583,109.8217,1567.0,843.1,16.6,43,8.117415201595938,16.91400000000001
Q5150,2025-06-03 16:00:00,大峡谷顶,恩施土家族苗族自治州,恩施市,30.4167,109.1628,1615.0,836.5,13.1,67,10.093273749836792,15.145499999999991
Q5153,2025-06-03 16:00:00,马者滑坡点,恩施土家族苗族自治州,恩施市,30.3733,109.3019,946.0,907.1,18.5,63,13.408776187754336,28.74699999999998
Q5206,2025-06-03 16:00:00,宜影古镇,恩施土家族苗族自治州,利川市,30.3353,109.1053,1025.3,899.0,15.8,85,15.247662517532524,31.493666666666627
Q5207,2025-06-03 16:00:00,元堡,恩施土家族苗族自治州,利川市,30.2233,109.0339,1088.3,889.7,15.3,95,16.503849861853556,31.567499999999992
Q5208,2025-06-03 16:00:00,黄泥塘,恩施土家族苗族自治州,利川市,30.0775,108.8592,1469.7,857.7,14.0,83,13.25829643866741,19.306499999999996
Q5209,2025-06-03 16:00:00,龙桥,恩施土家族苗族自治州,利川市,29.9294,108.7097,474.0,956.6,19.0,95,20.86205974456261,39.53199999999998
Q5211,2025-06-03 16:00:00,建南,恩施土家族苗族自治州,利川市,30.4353,108.5392,676.0,934.7,18.7,90,19.396854766952963,37.044999999999966
Q5214,2025-06-03 16:00:00,南坪,恩施土家族苗族自治州,利川市,30.43,108.7925,1129.0,887.1,16.0,86,15.625605250679984,26.512499999999974
Q5222,2025-06-03 16:00:00,凉雾,恩施土家族苗族自治州,利川市,30.2664,108.805,1092.5,889.4,16.2,88,16.194463570353392,33.00000000000001
Q5226,2025-06-03 16:00:00,利川团堡,恩施土家族苗族自治州,利川市,30.3353,109.1494,986.8,901.5,16.2,88,16.194463570353392,30.829999999999988
Q5241,2025-06-03 16:00:00,小河,恩施土家族苗族自治州,利川市,30.0786,108.6025,1074.0,893.9,16.2,94,17.298631541059304,38.23000000000008
Q5249,2025-06-03 16:00:00,铁峰,恩施土家族苗族自治州,利川市,30.4533,108.6578,1558.5,843.1,15.5,49,8.622501212573107,14.288500000000012
Q5250,2025-06-03 16:00:00,药材,恩施土家族苗族自治州,利川市,30.4922,108.7469,1406.0,856.6,14.5,65,10.724732589471229,18.331
Q5301,2025-06-03 16:00:00,黄金洞,恩施土家族苗族自治州,咸丰县,29.9539,109.0781,788.1,921.6,17.5,97,19.386267591682785,45.806499999999936
Q5307,2025-06-03 16:00:00,朝阳寺,恩施土家族苗族自治州,咸丰县,29.6125,108.9175,468.0,957.6,20.2,95,22.477653144646453,40.90400000000008
Q5309,2025-06-03 16:00:00,坪坝营,恩施土家族苗族自治州,咸丰县,29.3997,108.9803,1268.8,872.7,14.9,96,16.253838823477285,32.58030000000002
Q5310,2025-06-03 16:00:00,茅坝,恩施土家族苗族自治州,咸丰县,29.7658,108.8233,723.6,929.8,17.4,95,18.86696051588609,42.82849999999996
Q5326,2025-06-03 16:00:00,李子溪,恩施土家族苗族自治州,咸丰县,29.8839,108.9089,832.0,918.6,17.8,97,19.75668162963444,45.18899999999999
Q5327,2025-06-03 16:00:00,中心场,恩施土家族苗族自治州,咸丰县,29.9194,108.9083,847.0,916.8,17.3,97,19.14272813897598,38.69800000000001
Q5330,2025-06-03 16:00:00,八家台,恩施土家族苗族自治州,咸丰县,29.8736,108.8114,869.0,912.1,17.8,95,19.3493273692296,35.86374999999999
Q5338,2025-06-03 16:00:00,柏杨坪,恩施土家族苗族自治州,咸丰县,29.8175,109.0397,872.4,911.1,17.2,93,18.237558634219983,34.55350000000001
Q5409,2025-06-03 16:00:00,翔凤,恩施土家族苗族自治州,来凤县,29.4669,109.4019,458.0,958.0,21.3,93,23.547602096427187,48.95149999999998
Q5421,2025-06-03 16:00:00,兴隆坳,恩施土家族苗族自治州,来凤县,29.3261,109.2883,602.0,940.1,19.7,95,21.79161683845095,50.87150000000004
Q5422,2025-06-03 16:00:00,沙坝水库,恩施土家族苗族自治州,来凤县,29.4094,109.3228,512.0,951.5,20.2,92,21.76783251902604,44.08049999999997
Q5508,2025-06-03 16:00:00,沙道,恩施土家族苗族自治州,宣恩县,29.6986,109.5653,589.0,943.3,20.1,91,21.398362257694004,38.10050000000005
Q5509,2025-06-03 16:00:00,椿木营,恩施土家族苗族自治州,宣恩县,30.0575,109.8269,1681.0,831.6,11.6,89,12.148636042174529,29.423999999999968
Q5515,2025-06-03 16:00:00,中间河,恩施土家族苗族自治州,宣恩县,30.1294,109.6347,664.8,935.4,19.6,96,21.88460134569413,45.931500000000014
Q5516,2025-06-03 16:00:00,长潭北,恩施土家族苗族自治州,宣恩县,30.0081,109.5883,490.9,954.3,19.3,95,21.256089220567667,37.619
Q5517,2025-06-03 16:00:00,荆竹坪,恩施土家族苗族自治州,宣恩县,29.96,109.3461,1134.7,885.9,16.7,95,18.04820215942273,32.51000000000003
Q5530,2025-06-03 16:00:00,洗草坝,恩施土家族苗族自治州,宣恩县,29.9867,109.3608,743.4,927.2,17.2,98,19.21807253928557,34.49199999999999
Q5532,2025-06-03 16:00:00,金盆村,恩施土家族苗族自治州,宣恩县,29.8356,109.6717,655.8,936.8,18.9,94,20.513916217341315,43.77550000000002
Q5539,2025-06-03 16:00:00,竹园,恩施土家族苗族自治州,宣恩县,29.9019,109.26,1180.2,881.8,15.9,91,16.428724021591947,33.84949999999998
Q5543,2025-06-03 16:00:00,彭家寨,恩施土家族苗族自治州,宣恩县,29.6717,109.6153,582.9,943.5,19.1,94,20.771708659340696,41.412500000000016
Q5601,2025-06-03 16:00:00,江坪河,恩施土家族苗族自治州,鹤峰县,29.7383,110.3472,467.0,956.3,20.3,86,20.47443801200948,44.087999999999965
Q5603,2025-06-03 16:00:00,蛤蟆颈,恩施土家族苗族自治州,鹤峰县,30.0658,110.2706,1382.0,859.5,12.9,85,12.638508494416774,28.027499999999986
Q5605,2025-06-03 16:00:00,清湖,恩施土家族苗族自治州,鹤峰县,30.0139,110.2697,1300.0,867.4,14.3,80,13.029995198751031,26.53299999999996
Q5610,2025-06-03 16:00:00,五里,恩施土家族苗族自治州,鹤峰县,29.8969,110.3406,1142.0,886.1,15.3,91,15.808950920301829,27.172499999999992
Q5620,2025-06-03 16:00:00,堰塘,恩施土家族苗族自治州,鹤峰县,29.8628,109.8564,1175.0,881.9,16.0,94,17.079149925161843,34.05749999999998
Q5621,2025-06-03 16:00:00,云蒙,恩施土家族苗族自治州,鹤峰县,30.0564,110.0675,1011.3,898.6,15.0,93,15.84765992029285,27.272
Q5626,2025-06-03 16:00:00,龚家垭,恩施土家族苗族自治州,鹤峰县,30.1083,110.1294,1215.7,877.7,17.0,64,12.392550774302778,22.026500000000013
Q5628,2025-06-03 16:00:00,马家,恩施土家族苗族自治州,鹤峰县,29.7681,110.5636,509.0,950.4,17.9,90,18.44677780744905,39.15650000000001
Q5629,2025-06-03 16:00:00,细杉,恩施土家族苗族自治州,鹤峰县,29.8014,110.6133,673.7,933.8,16.6,87,16.42360750090341,28.38250000000004
Q5630,2025-06-03 16:00:00,堰垭,恩施土家族苗族自治州,鹤峰县,29.7203,110.2667,912.3,908.7,18.5,90,19.15539455393477,36.950499999999934
Q5632,2025-06-03 16:00:00,上六峰,恩施土家族苗族自治州,鹤峰县,29.9206,110.4636,1194.0,880.0,13.8,93,14.66398081752786,27.35050000000003
Q5633,2025-06-03 16:00:00,中坪,恩施土家族苗族自治州,鹤峰县,29.9917,110.4858,1137.0,883.6,14.0,86,13.737511972595147,28.425500000000028
Q5634,2025-06-03 16:00:00,水泉,恩施土家族苗族自治州,鹤峰县,29.9133,110.2561,606.5,941.4,19.3,96,21.47983752815259,47.51299999999994
Q5706,2025-06-03 16:00:00,溪丘湾,恩施土家族苗族自治州,巴东县,31.1572,110.4386,741.0,926.2,17.7,100,20.23971684225924,36.98499999999999
Q5707,2025-06-03 16:00:00,大支坪,恩施土家族苗族自治州,巴东县,30.6875,110.1708,1411.0,857.9,16.4,40,7.455569941300929,20.12749999999998
Q5708,2025-06-03 16:00:00,朱砂土,恩施土家族苗族自治州,巴东县,30.8936,110.3064,1166.0,880.9,16.9,71,13.661060098939547,26.597000000000023
Q5709,2025-06-03 16:00:00,玉米塘,恩施土家族苗族自治州,巴东县,30.6925,110.2486,1570.6,840.3,16.2,31,5.704867848647217,11.357000000000014
Q5710,2025-06-03 16:00:00,茅山岭,恩施土家族苗族自治州,巴东县,31.2233,110.2003,942.7,903.8,18.3,98,20.59805169716768,44.46225
Q5712,2025-06-03 16:00:00,税家,恩施土家族苗族自治州,巴东县,30.9331,110.2219,1150.3,884.4,16.2,72,13.250015648470956,28.11799999999999
Q5720,2025-06-03 16:00:00,高家坡,恩施土家族苗族自治州,巴东县,31.1225,110.4797,735.0,927.4,18.7,77,16.59508685617087,30.24599999999996
Q5730,2025-06-03 16:00:00,麻沙坪,恩施土家族苗族自治州,巴东县,30.7125,110.4111,1234.0,874.5,15.9,68,12.276409158991786,25.269499999999976
Q5732,2025-06-03 16:00:00,庙坪,恩施土家族苗族自治州,巴东县,30.6672,110.2142,1261.9,871.9,16.1,74,13.531437434891345,28.300500000000014
Q5736,2025-06-03 16:00:00,倒卜龙,恩施土家族苗族自治州,巴东县,30.4069,110.1308,950.0,904.2,17.9,83,17.012028422425235,33.452499999999915
Q5751,2025-06-03 16:00:00,绿葱坡滑雪场,恩施土家族苗族自治州,巴东县,30.8117,110.2419,1663.0,832.0,13.4,68,10.446483076770072,17.828000000000007
Q5802,2025-06-03 16:00:00,茅田,恩施土家族苗族自治州,建始县,30.8097,109.8839,1364.3,862.4,13.0,84,12.571800123631297,29.65249999999999
Q5804,2025-06-03 16:00:00,高坪,恩施土家族苗族自治州,建始县,30.5989,110.0597,1239.1,872.2,18.1,54,11.208228406068985,23.009500000000006
Q5819,2025-06-03 16:00:00,封竹,恩施土家族苗族自治州,建始县,30.8222,109.9811,1731.3,826.2,13.0,69,10.326835815839992,16.574999999999992
Q5823,2025-06-03 16:00:00,石垭子,恩施土家族苗族自治州,建始县,30.6128,110.0208,777.3,922.7,17.5,93,18.586833876561847,37.475000000000016
Q5824,2025-06-03 16:00:00,落水洞,恩施土家族苗族自治州,建始县,30.5825,109.9603,917.0,906.8,17.1,93,18.12242233327812,34.648
Q5827,2025-06-03 16:00:00,冷竹,恩施土家族苗族自治州,建始县,30.5347,109.9972,1227.8,875.3,13.6,94,14.630100706280787,27.66900000000001
Q5829,2025-06-03 16:00:00,粟谷坝,恩施土家族苗族自治州,建始县,30.3572,110.0744,754.5,924.1,17.3,87,17.169251011246498,32.955499999999944
Q5831,2025-06-03 16:00:00,竹园坝,恩施土家族苗族自治州,建始县,30.2125,109.9622,1551.0,843.9,14.6,54,8.967534030644991,15.709500000000013
Q5836,2025-06-03 16:00:00,野三河景区,恩施土家族苗族自治州,建始县,30.6983,110.0806,896.7,911.3,16.8,72,13.765809440238243,26.29550000000001
Q6080,2025-06-03 16:00:00,掇刀,荆门市,掇刀区,30.975,112.2028,108.5,994.8,22.8,83,23.029814597175847,43.502500000000026
Q6082,2025-06-03 16:00:00,麻城,荆门市,掇刀区,30.9114,112.2447,85.0,998.0,22.2,94,25.14748831534266,45.99349999999998
Q6083,2025-06-03 16:00:00,樊桥,荆门市,掇刀区,30.7958,112.2522,82.0,998.7,22.9,95,26.51978180333288,41.77816666666656
Q6084,2025-06-03 16:00:00,凤凰,荆门市,掇刀区,30.9525,112.1789,106.0,995.6,23.4,86,24.744868236555345,42.66999999999992
Q6085,2025-06-03 16:00:00,龙泉,荆门市,掇刀区,30.8675,112.0964,97.5,996.8,22.6,93,25.493025177200348,46.18949999999995
Q6086,2025-06-03 16:00:00,仙女,荆门市,掇刀区,31.0422,112.1217,190.0,986.2,21.3,87,22.02840196117382,49.92599999999992
Q6111,2025-06-03 16:00:00,后港,荆门市,沙洋县,30.5242,112.3883,31.2,1004.5,23.7,88,25.7827936590092,44.1899999999999
Q6113,2025-06-03 16:00:00,高阳,荆门市,沙洋县,30.7592,112.46,65.0,1000.5,22.6,94,25.767143727492822,45.1668833333334
Q6114,2025-06-03 16:00:00,五里,荆门市,沙洋县,30.7297,112.2397,67.0,1000.4,23.5,95,27.49998547739868,43.78383333333325
Q6115,2025-06-03 16:00:00,十里,荆门市,沙洋县,30.6244,112.1758,56.2,1001.6,22.0,95,25.106870867957795,48.269000000000005
Q6117,2025-06-03 16:00:00,拾回桥,荆门市,沙洋县,30.5508,112.275,36.5,1004.0,23.6,94,27.375175633944067,44.83599999999999
Q6118,2025-06-03 16:00:00,曾集,荆门市,沙洋县,30.7172,112.3717,71.0,999.9,23.1,94,26.56050026671509,42.93166666666667
Q6122,2025-06-03 16:00:00,雷集,荆门市,掇刀区,30.8122,112.2886,104.0,995.9,23.0,93,26.11928624831407,40.973999999999904
Q6125,2025-06-03 16:00:00,双堰,荆门市,沙洋县,30.8186,112.4253,60.1,1001.1,23.0,95,26.68099132892297,51.02966666666676
Q6128,2025-06-03 16:00:00,港口,荆门市,沙洋县,30.4275,112.3442,40.0,1003.6,23.9,90,26.688269574318127,48.29999999999995
Q6129,2025-06-03 16:00:00,姚集,荆门市,沙洋县,30.8017,112.6122,40.0,1003.4,23.0,93,26.11928624831407,52.8315
Q6160,2025-06-03 16:00:00,石桥驿,荆门市,东宝区,31.2861,112.1533,98.0,996.2,20.5,90,21.69313408642537,34.67600000000004
Q6162,2025-06-03 16:00:00,仙居,荆门市,东宝区,31.3903,112.0286,129.0,992.5,21.1,82,20.50896422956412,41.627000000000045
Q6163,2025-06-03 16:00:00,马河,荆门市,东宝区,31.1444,111.935,134.0,992.6,19.4,94,21.163730269324738,50.077999999999946
Q6164,2025-06-03 16:00:00,栗溪,荆门市,东宝区,31.2678,111.9847,231.2,981.7,18.8,96,20.81982298451022,47.98300000000003
Q6167,2025-06-03 16:00:00,观音寺,荆门市,东宝区,31.0697,111.925,129.0,992.8,21.2,91,22.900196424112,47.37299999999996
Q6168,2025-06-03 16:00:00,东宝,荆门市,东宝区,31.0633,112.2033,110.0,995.0,23.1,73,20.62677148372555,32.485499999999995
Q6169,2025-06-03 16:00:00,岩垱,荆门市,东宝区,31.2031,112.1422,112.5,994.7,19.9,88,20.438040633258147,42.391000000000005
Q6170,2025-06-03 16:00:00,象河,荆门市,东宝区,31.3072,112.1028,121.0,993.6,20.3,85,20.23636315140472,46.00049999999998
Q6171,2025-06-03 16:00:00,安河,荆门市,东宝区,31.0814,112.1022,246.3,979.9,21.2,87,21.89359438349169,54.79440000000007
Q6172,2025-06-03 16:00:00,圣境山,荆门市,东宝区,31.12,112.1464,355.3,967.7,26.2,46,15.646965282212578,26.89350000000002
Q6173,2025-06-03 16:00:00,东宝八角,荆门市,东宝区,31.1497,112.2619,70.8,998.9,21.4,95,24.20200004325152,46.82300000000006
Q6174,2025-06-03 16:00:00,文丰,荆门市,东宝区,31.1786,112.0386,179.5,987.3,18.9,94,20.513916217341315,45.361499999999936
Q6175,2025-06-03 16:00:00,琵琶洲,荆门市,东宝区,31.135,111.9811,156.5,989.8,19.6,91,20.744778358939225,46.57500000000008
Q6176,2025-06-03 16:00:00,铁坪,荆门市,东宝区,31.2347,111.9575,270.2,977.1,19.7,87,19.956533315212976,41.06999999999997
Q6210,2025-06-03 16:00:00,长寿,荆门市,钟祥市,31.4994,112.5936,124.4,993.4,21.9,94,24.69135673203089,62.28599999999997
Q6213,2025-06-03 16:00:00,客店,荆门市,钟祥市,31.4353,112.8739,207.8,984.3,22.2,77,20.599538300865795,44.35499999999998
Q6217,2025-06-03 16:00:00,张集,荆门市,钟祥市,31.5064,112.72,136.9,992.1,21.2,94,23.655147954577227,48.76299999999995
Q6218,2025-06-03 16:00:00,洋梓,荆门市,钟祥市,31.2917,112.6356,56.0,1002.2,22.6,93,25.493025177200348,45.57900000000001
Q6219,2025-06-03 16:00:00,柴湖,荆门市,钟祥市,30.9944,112.5881,40.0,1003.2,23.1,91,25.712824726288016,43.91849999999995
Q6220,2025-06-03 16:00:00,磷矿,荆门市,钟祥市,31.2944,112.4272,47.9,1002.0,20.3,92,21.902887175638053,44.32750000000004
Q6223,2025-06-03 16:00:00,九里,荆门市,钟祥市,31.1669,112.6503,53.0,1002.5,22.6,92,25.21890662690787,45.14350000000001
Q6224,2025-06-03 16:00:00,文集,荆门市,钟祥市,31.1594,112.5319,54.6,1002.2,23.1,97,27.408175807142168,56.22150000000004
Q6235,2025-06-03 16:00:00,洪山寺,荆门市,钟祥市,31.4969,112.5197,56.0,1000.3,23.5,90,26.052617820693488,49.67249999999999
Q6236,2025-06-03 16:00:00,北山,荆门市,钟祥市,31.2022,112.4103,93.0,997.1,20.5,90,21.69313408642537,43.569
Q6237,2025-06-03 16:00:00,陈坡,荆门市,钟祥市,31.0467,112.4686,43.0,1002.0,23.4,95,27.334447470613465,52.98733333333338
Q6260,2025-06-03 16:00:00,钟祥杨集,荆门市,钟祥市,31.3961,112.4883,59.0,1001.8,22.0,91,24.049739462991152,45.62850000000006
Q6263,2025-06-03 16:00:00,明显陵,荆门市,钟祥市,31.2106,112.6344,65.0,1000.8,21.0,94,23.366182885703,50.86774166666665
Q6264,2025-06-03 16:00:00,郢中,荆门市,钟祥市,31.1667,112.5667,65.8,1000.5,24.0,86,25.65598702143605,51.78149999999999
Q6317,2025-06-03 16:00:00,宋河,荆门市,京山市,31.1814,113.3008,77.2,998.9,22.0,93,24.57830516547447,47.25750000000002
Q6319,2025-06-03 16:00:00,永兴,荆门市,京山市,30.9697,113.2225,63.0,999.9,23.2,90,25.58462023740992,42.17099999999998
Q6320,2025-06-03 16:00:00,钱场,荆门市,京山市,30.8547,113.0992,49.6,1002.2,23.5,89,25.76314428935245,46.849000000000025
Q6321,2025-06-03 16:00:00,石龙,荆门市,京山市,30.8972,112.8411,34.0,1003.2,23.2,92,26.15316735379681,52.83153333333339
Q6322,2025-06-03 16:00:00,永漋,荆门市,京山市,30.7744,112.8278,33.9,1004.0,23.4,89,25.60806131457472,46.1645
Q6323,2025-06-03 16:00:00,坪坝,荆门市,京山市,31.2839,113.3547,73.0,999.1,21.3,95,24.05400214151164,41.43441666666666
Q6324,2025-06-03 16:00:00,屈家岭,荆门市,市辖区,30.8344,112.945,77.0,999.1,22.5,90,24.52115938894506,43.43900000000002
Q6333,2025-06-03 16:00:00,三阳,荆门市,京山市,31.3436,113.1756,203.2,984.6,20.7,97,23.670621089375047,46.049
Q6335,2025-06-03 16:00:00,三台,荆门市,京山市,31.2819,112.9369,174.2,987.8,19.5,96,21.74894253325107,43.642999999999965
Q6336,2025-06-03 16:00:00,将军岭,荆门市,京山市,31.2428,112.9794,208.9,984.5,19.8,96,22.15814878446242,46.18850000000004
Q6339,2025-06-03 16:00:00,空山洞,荆门市,京山市,30.9928,113.045,105.0,995.8,21.0,96,23.863335713058383,51.45049999999996
Q6343,2025-06-03 16:00:00,四股泉,荆门市,京山市,31.1531,113.2286,226.5,981.9,20.9,81,20.01119204909277,28.468666666666635
Q6344,2025-06-03 16:00:00,马岭,荆门市,京山市,31.0558,113.4464,45.0,1001.7,23.5,90,26.052617820693488,48.53699999999998
Q6349,2025-06-03 16:00:00,中南山,荆门市,京山市,30.9269,113.0072,111.0,995.3,22.8,90,24.97208811741959,47.34099999999996
Q6353,2025-06-03 16:00:00,黄台,荆门市,京山市,31.1539,112.8736,115.4,994.8,21.6,93,23.984595339312413,48.487000000000016
Q6358,2025-06-03 16:00:00,绿林寨,荆门市,京山市,31.3367,113.0661,174.0,989.2,19.6,82,18.6930969827804,41.8055
Q6370,2025-06-03 16:00:00,罗汉寺,荆门市,市辖区,30.9961,112.6831,38.0,1003.3,22.9,98,27.35724859712234,58.40800000000007
Q6371,2025-06-03 16:00:00,长滩办事处,荆门市,市辖区,30.9972,112.7556,57.0,1001.6,22.4,96,25.99727347611822,50.57166666666667
Q6372,2025-06-03 16:00:00,月宝山,荆门市,市辖区,30.9675,112.7822,89.0,997.5,23.1,86,24.30003215890955,40.14900000000004
Q6373,2025-06-03 16:00:00,牙谷山,荆门市,市辖区,30.9711,112.8208,105.0,995.8,22.2,90,24.077382429583395,47.402000000000015
Q6374,2025-06-03 16:00:00,刘台,荆门市,市辖区,30.8964,112.7422,38.5,1003.6,23.0,94,26.40013878861852,51.36200000000005
Q6375,2025-06-03 16:00:00,种业基地,荆门市,市辖区,30.8661,112.8697,73.3,999.8,22.8,89,24.694620471670486,43.78699999999996
Q6376,2025-06-03 16:00:00,蔡垱,荆门市,市辖区,30.7656,112.8836,33.1,1004.1,23.4,93,26.758985418600552,54.74049999999998
Q6401,2025-06-03 16:00:00,洈水,荆州市,松滋市,29.9694,111.5644,100.3,997.8,23.3,74,21.163830936285223,31.675499999999985
Q6402,2025-06-03 16:00:00,沙道观,荆州市,松滋市,30.1794,111.9433,38.4,1003.3,23.6,92,26.792725088541,56.79449999999997
Q6403,2025-06-03 16:00:00,纸厂河,荆州市,松滋市,30.0286,111.8453,52.1,1003.1,22.7,92,25.372555184194223,57.74399999999998
Q6404,2025-06-03 16:00:00,南海,荆州市,松滋市,30.1169,111.85,48.2,1003.7,22.5,82,22.341500776594383,44.54774999999999
Q6406,2025-06-03 16:00:00,卸甲坪,荆州市,松滋市,30.03,111.37,136.0,994.4,21.1,83,20.75907354943686,32.18749999999998
Q6407,2025-06-03 16:00:00,北干渠,荆州市,松滋市,30.0261,111.6894,43.0,1001.9,22.4,82,22.206004427517644,41.19549999999997
Q6408,2025-06-03 16:00:00,北河,荆州市,松滋市,30.0728,111.6294,164.0,989.5,23.6,55,16.017389998584296,28.040499999999987
Q6409,2025-06-03 16:00:00,陈店,荆州市,松滋市,30.2792,111.6517,122.0,993.3,22.4,84,22.747614291603444,42.63
Q6411,2025-06-03 16:00:00,涴市,荆州市,松滋市,30.2714,112.0189,50.1,1003.4,23.0,89,24.99587608709626,48.5225
Q6414,2025-06-03 16:00:00,八宝,荆州市,松滋市,30.18,111.8686,46.1,1003.5,23.1,95,26.843058780190784,61.48849999999996
Q6415,2025-06-03 16:00:00,万家,荆州市,松滋市,29.9686,111.6961,76.2,1001.2,22.0,90,23.78545661174949,48.889500000000005
Q6417,2025-06-03 16:00:00,三堰淌,荆州市,松滋市,30.0903,111.4008,626.8,939.0,18.8,75,16.26548670664861,27.008500000000016
Q6418,2025-06-03 16:00:00,卸甲坪村,荆州市,松滋市,30.0397,111.3681,220.0,983.2,19.0,91,19.983657229002084,37.39650000000007
Q6426,2025-06-03 16:00:00,新江口,荆州市,松滋市,30.1769,111.7736,69.5,1000.3,24.9,64,20.15087825360764,29.849000000000004
Q6494,2025-06-03 16:00:00,南平,荆州市,公安县,29.9206,112.0969,44.0,1003.8,23.3,86,24.59580352054769,39.54850000000008
Q6495,2025-06-03 16:00:00,狮子口,荆州市,公安县,29.99,112.0072,48.0,1003.2,23.3,87,24.8818012359029,39.08500000000005
Q6496,2025-06-03 16:00:00,杨家厂,荆州市,公安县,30.0592,112.3197,30.0,1004.2,22.7,88,24.26940061096839,44.56699999999997
Q6497,2025-06-03 16:00:00,孟家溪,荆州市,公安县,29.8575,112.0914,40.0,1004.3,23.4,87,25.032599262561806,46.91450000000008
Q6498,2025-06-03 16:00:00,麻豪口,荆州市,公安县,29.9631,112.3392,40.0,1004.2,24.7,80,24.88927835215252,44.84050000000003
Q6499,2025-06-03 16:00:00,夹竹园,荆州市,公安县,29.99,112.1083,37.0,1004.1,23.4,87,25.032599262561806,44.82600000000011
Q6500,2025-06-03 16:00:00,甘厂,荆州市,公安县,29.7447,112.0739,36.9,1004.4,23.1,85,24.01747364543386,48.42699999999997
Q6502,2025-06-03 16:00:00,斑竹垱,荆州市,公安县,30.0544,112.0081,39.5,1004.0,23.9,95,28.1709512173358,53.12499999999999
Q6503,2025-06-03 16:00:00,埠河,荆州市,公安县,30.2919,112.2406,44.0,1003.5,23.4,85,24.45713721054889,40.65449999999997
Q6577,2025-06-03 16:00:00,大垸,荆州市,石首市,29.8425,112.4731,35.7,1004.3,24.2,98,29.58933712031043,57.19000000000002
Q6651,2025-06-03 16:00:00,监利汪桥,荆州市,监利市,29.98,112.7044,26.1,1005.0,23.9,88,26.095196917111057,49.27000000000002
Q6656,2025-06-03 16:00:00,监利上车,荆州市,监利市,29.8086,113.0083,26.5,1005.0,24.0,90,26.849288743363317,56.501499999999936
Q6657,2025-06-03 16:00:00,监利周老嘴,荆州市,监利市,30.0322,112.9767,25.1,1004.7,23.5,89,25.76314428935245,46.39499999999998
Q6658,2025-06-03 16:00:00,监利朱河,荆州市,监利市,29.7317,113.1064,24.9,1005.1,23.3,87,24.8818012359029,43.18800000000001
Q6659,2025-06-03 16:00:00,监利福田,荆州市,监利市,29.9039,113.0831,24.7,1005.1,23.0,92,25.838433708009617,48.69799999999991
Q6660,2025-06-03 16:00:00,监利黄歇口,荆州市,监利市,30.0361,112.8011,26.1,1005.0,24.7,84,26.133742269760145,47.22899999999996
Q6661,2025-06-03 16:00:00,监利大垸,荆州市,监利市,29.8486,112.7075,24.2,1004.5,23.9,90,26.688269574318127,48.988000000000014
Q6662,2025-06-03 16:00:00,监利网市,荆州市,监利市,30.1097,113.1147,25.8,1005.0,23.5,92,26.631564883375567,53.03183333333335
Q6665,2025-06-03 16:00:00,监利分盐,荆州市,监利市,29.9844,113.0503,31.9,1004.8,24.2,83,25.060356948834343,39.64199999999999
Q6667,2025-06-03 16:00:00,监利柘木,荆州市,监利市,29.59,113.1403,26.4,1005.3,23.3,84,24.02380808983728,47.43850000000002
Q6668,2025-06-03 16:00:00,监利汴河,荆州市,监利市,29.8086,113.0872,25.1,1005.2,23.4,92,26.47125439259409,57.74949999999993
Q6670,2025-06-03 16:00:00,三洲,荆州市,监利市,29.545,112.9406,29.0,1005.1,22.5,99,26.973275327839566,53.26424166666661
Q6750,2025-06-03 16:00:00,曹市,荆州市,洪湖市,29.8625,113.5478,29.8,1005.0,24.1,90,27.011157960916112,54.86149999999996
Q6751,2025-06-03 16:00:00,黄家口,荆州市,洪湖市,30.0486,113.5617,20.0,1005.4,22.7,96,26.47570975742006,56.50299999999997
Q6753,2025-06-03 16:00:00,瞿家湾渡口,荆州市,洪湖市,29.9325,113.2267,30.0,1005.1,24.3,91,27.64121133783487,53.255500000000026
Q6754,2025-06-03 16:00:00,洪狮渔场,荆州市,洪湖市,29.9217,113.29,20.0,1005.3,24.5,89,27.359798096690863,51.9745
Q6755,2025-06-03 16:00:00,瞿家湾,荆州市,洪湖市,29.9614,113.1831,23.5,1005.0,23.4,98,28.19764054863284,51.44600000000004
Q6756,2025-06-03 16:00:00,八卦洲,荆州市,洪湖市,29.8175,113.4078,34.0,1005.5,23.8,100,29.475662961661182,51.04200000000005
Q6757,2025-06-03 16:00:00,螺山,荆州市,洪湖市,29.6706,113.3161,26.7,1005.2,23.3,82,23.451812659126865,43.2895
Q6758,2025-06-03 16:00:00,乌林,荆州市,洪湖市,29.9078,113.6072,30.0,1005.3,23.8,86,25.349070147028616,43.607
Q6759,2025-06-03 16:00:00,大沙,荆州市,洪湖市,30.0072,113.8642,30.0,1005.4,22.8,88,24.417152825921377,47.637499999999946
Q6760,2025-06-03 16:00:00,燕窝,荆州市,洪湖市,30.0958,113.9672,30.0,1005.0,23.3,90,25.73979438196851,50.126500000000014
Q6761,2025-06-03 16:00:00,汊河,荆州市,洪湖市,29.9578,113.4517,27.6,1005.3,24.9,83,26.133170235147407,35.503999999999984
Q6764,2025-06-03 16:00:00,大同湖,荆州市,洪湖市,30.0467,113.7133,23.7,1005.5,23.9,84,24.90905160269692,51.83799999999996
Q6767,2025-06-03 16:00:00,峰口,荆州市,洪湖市,30.1211,113.3494,25.3,1005.3,24.0,90,26.849288743363317,57.38649999999996
Q6769,2025-06-03 16:00:00,土地湖,荆州市,洪湖市,29.9361,113.3403,20.0,1005.3,23.7,91,26.66175253374815,50.0836666666666
Q6770,2025-06-03 16:00:00,袁新泵站,荆州市,洪湖市,29.7106,113.3156,20.0,1005.3,23.4,91,26.18352336658764,46.50199999999997
Q6771,2025-06-03 16:00:00,府场,荆州市,洪湖市,30.1222,113.1589,31.2,1005.0,23.8,92,27.11760992472829,59.606000000000016
Q6772,2025-06-03 16:00:00,洪湖龙口,荆州市,洪湖市,29.9878,113.7756,25.1,1005.3,24.1,83,24.91029011951153,45.35299999999997
Q6773,2025-06-03 16:00:00,洪湖经开区,荆州市,洪湖市,29.8489,113.4908,23.2,1005.2,23.7,82,24.024875909531296,42.53250000000005
Q6847,2025-06-03 16:00:00,江滩公园,荆州市,洪湖市,29.8033,113.4594,28.5,1004.4,22.3,92,24.76284207639641,38.25437500000009
Q6853,2025-06-03 16:00:00,纪南,荆州市,荆州区,30.4272,112.2525,33.0,1003.9,22.6,94,25.767143727492822,45.09179166666668
Q6856,2025-06-03 16:00:00,荆州中学,荆州市,荆州区,30.3653,112.2097,32.0,1004.4,24.0,80,23.86603443854517,41.39399999999994
Q6862,2025-06-03 16:00:00,乐居,荆州市,荆州区,30.3531,112.1147,38.6,1004.4,23.0,93,26.11928624831407,49.68116666666674
Q6863,2025-06-03 16:00:00,麋鹿,荆州市,石首市,29.7822,112.5547,35.4,1004.5,20.9,98,24.211071861865324,31.77099999999993
Q6901,2025-06-03 16:00:00,观音垱,荆州市,沙市区,30.3797,112.4003,28.0,1004.3,23.8,92,27.11760992472829,47.987000000000016
Q6951,2025-06-03 16:00:00,秦市,荆州市,江陵县,29.9672,112.6025,30.3,1004.9,23.7,97,28.419670283226047,56.449500000000064
Q6953,2025-06-03 16:00:00,沙岗,荆州市,江陵县,30.0603,112.6308,30.0,1004.7,23.9,86,25.502124259903987,45.2115
Q6954,2025-06-03 16:00:00,熊河,荆州市,江陵县,30.1106,112.44,30.1,1004.6,24.3,84,25.51496431184757,48.75800000000001
Q6957,2025-06-03 16:00:00,三湖,荆州市,江陵县,30.1967,112.5561,26.0,1005.0,23.5,91,26.34209135203453,50.69800000000001
Q6958,2025-06-03 16:00:00,郝穴,荆州市,江陵县,29.9919,112.4553,31.3,1004.5,24.7,78,24.267046393348707,44.92700000000003
Q6960,2025-06-03 16:00:00,江北农场,荆州市,江陵县,30.1814,112.3494,30.0,1004.6,22.5,99,26.973275327839566,57.38600000000003
Q7030,2025-06-03 16:00:00,悟峰山,孝感市,大悟县,31.7775,114.1636,92.4,997.2,20.3,97,23.09326147866186,36.49550000000007
Q7038,2025-06-03 16:00:00,新城,孝感市,大悟县,31.4925,114.2794,120.0,992.7,21.4,93,23.692484252867278,45.29405000000004
Q7087,2025-06-03 16:00:00,河口茶园,孝感市,大悟县,31.3186,114.3764,56.4,999.8,20.2,97,22.950866895060063,38.68999999999996
Q7092,2025-06-03 16:00:00,大悟城关,孝感市,大悟县,31.5711,114.1214,74.9,998.2,23.4,83,23.881675158535977,39.793999999999976
Q7138,2025-06-03 16:00:00,雷公,孝感市,安陆市,31.2953,113.515,101.0,996.2,21.7,95,24.650795549129334,60.94474999999994
Q7165,2025-06-03 16:00:00,接官,孝感市,安陆市,31.4175,113.7522,68.6,999.9,22.4,100,27.080493204289816,60.689000000000014
Q7166,2025-06-03 16:00:00,辛榨,孝感市,安陆市,31.1122,113.6156,45.9,1002.4,23.2,100,28.42735581934436,59.71349999999995
Q7167,2025-06-03 16:00:00,府河,孝感市,安陆市,31.2575,113.6686,36.4,1003.5,22.7,94,25.924132470807145,63.52666666666666
Q7218,2025-06-03 16:00:00,田店,孝感市,应城市,31.0317,113.4494,52.5,1001.9,23.0,94,26.40013878861852,42.3595
Q7266,2025-06-03 16:00:00,义和,孝感市,应城市,30.7686,113.4944,28.9,1004.4,24.1,87,26.11078602888557,42.51700000000002
Q7315,2025-06-03 16:00:00,城隍,孝感市,汉川市,30.6261,113.7594,24.9,1004.7,23.6,88,25.627823997734872,51.64350000000002
Q7316,2025-06-03 16:00:00,华严农场,孝感市,汉川市,30.6256,113.6964,24.1,1005.0,23.3,90,25.73979438196851,54.25249999999996
Q7317,2025-06-03 16:00:00,回龙,孝感市,汉川市,30.565,113.4961,24.3,1004.8,23.6,94,27.375175633944067,49.33650000000003
Q7318,2025-06-03 16:00:00,脉旺,孝感市,汉川市,30.5175,113.5933,23.9,1004.6,23.1,94,26.56050026671509,58.43949999999997
Q7350,2025-06-03 16:00:00,庙头,孝感市,汉川市,30.5944,113.7875,27.0,1004.7,22.9,90,25.124003813683775,45.7395
Q7354,2025-06-03 16:00:00,刘家隔,孝感市,汉川市,30.7539,113.8008,25.0,1005.1,22.0,97,25.635436570441115,62.11249999999995
Q7358,2025-06-03 16:00:00,麻河,孝感市,汉川市,30.775,113.6914,22.2,1005.2,23.2,95,27.00598802837714,53.98449999999999
Q7378,2025-06-03 16:00:00,南河,孝感市,汉川市,30.4967,113.7769,25.0,1004.3,23.5,92,26.631564883375567,52.10450000000006
Q7387,2025-06-03 16:00:00,新河,孝感市,汉川市,30.6956,113.9111,30.0,1004.9,22.4,92,24.91405374794663,36.61800000000001
Q7392,2025-06-03 16:00:00,西江,孝感市,汉川市,30.4806,113.6775,24.0,1004.7,23.4,89,25.60806131457472,44.26550000000003
Q7393,2025-06-03 16:00:00,韩集,孝感市,汉川市,30.6742,113.5964,28.0,1005.0,24.3,87,26.4262130372707,43.07650000000004
Q7426,2025-06-03 16:00:00,周巷,孝感市,孝昌县,31.2169,114.1108,105.8,995.8,21.2,94,23.655147954577227,56.75600000000004
Q7432,2025-06-03 16:00:00,丰和,孝感市,孝昌县,31.1422,114.1475,85.0,997.9,23.0,81,22.749055764660643,47.14850000000001
Q7442,2025-06-03 16:00:00,花西,孝感市,孝昌县,31.1939,113.8561,72.2,999.5,23.0,100,28.085254030445235,57.36600000000002
Q7461,2025-06-03 16:00:00,双峰山景区,孝感市,孝昌县,31.2011,114.1914,582.5,943.8,21.1,78,19.508526950073197,33.51399999999995
Q7538,2025-06-03 16:00:00,隔蒲潭,孝感市,云梦县,30.9461,113.7253,28.7,1004.6,23.5,86,24.894723695329333,44.62899999999998
Q7546,2025-06-03 16:00:00,倒店,孝感市,云梦县,31.1844,113.7389,58.9,1001.0,23.2,87,24.731799562829597,42.43099999999997
Q7554,2025-06-03 16:00:00,清明河,孝感市,云梦县,31.0272,113.6944,34.0,1004.2,23.1,87,24.582590672385248,49.22849999999997
Q7618,2025-06-03 16:00:00,杨店,孝感市,孝南区,31.025,114.1083,52.0,1002.7,22.6,98,26.86361792866273,54.77650000000005
Q7622,2025-06-03 16:00:00,陡岗,孝感市,孝南区,31.0397,113.8556,30.1,1003.6,24.1,82,24.61016614216801,49.81749999999995
Q7626,2025-06-03 16:00:00,肖港,孝感市,孝南区,31.0981,113.975,46.5,1002.0,23.1,98,27.690734320617864,61.63199999999993
Q7630,2025-06-03 16:00:00,毛陈,孝感市,孝南区,30.8239,113.9908,23.2,1005.1,23.3,95,27.16978295874454,52.16799999999992
Q7642,2025-06-03 16:00:00,新铺,孝感市,孝南区,30.9806,113.98,46.2,1002.4,22.4,89,24.101638951817936,57.30899999999999
Q7650,2025-06-03 16:00:00,卧龙,孝感市,孝南区,30.8961,113.9025,27.1,1004.9,24.2,83,25.060356948834343,55.41349999999996
Q7654,2025-06-03 16:00:00,闵集,孝感市,孝南区,30.8508,114.1303,46.2,1004.1,22.4,91,24.643248815903736,47.25954166666666
Q7658,2025-06-03 16:00:00,东山头,孝感市,孝南区,30.7981,114.0183,25.3,1005.2,22.6,89,24.39655097603044,52.65599999999999
Q7659,2025-06-03 16:00:00,朱湖,孝感市,孝南区,30.8081,113.9397,19.7,1005.3,22.8,93,25.80449105466691,57.82850000000001
Q7663,2025-06-03 16:00:00,郑家河,孝感市,市辖区,31.3603,113.2903,96.0,996.7,21.8,100,26.10737565137588,51.55825000000005
Q7701,2025-06-03 16:00:00,拖市,省直辖县级行政区划,天门市,30.7267,112.8314,40.0,1004.2,22.9,92,25.68231500954342,45.799
Q7704,2025-06-03 16:00:00,佛子山,省直辖县级行政区划,天门市,30.7503,113.0092,35.2,1003.9,23.3,95,27.16978295874454,56.26095238095244
Q7705,2025-06-03 16:00:00,汪场,省直辖县级行政区划,天门市,30.61,113.0192,26.7,1004.8,23.2,100,28.42735581934436,54.87000000000008
Q7708,2025-06-03 16:00:00,岳口,省直辖县级行政区划,天门市,30.5239,113.0894,38.0,1004.3,23.6,89,25.919049270436403,55.17899999999999
Q7709,2025-06-03 16:00:00,九真,省直辖县级行政区划,天门市,30.7694,113.2297,29.7,1004.5,23.4,93,26.758985418600552,50.3265
Q7712,2025-06-03 16:00:00,皂市,省直辖县级行政区划,天门市,30.8636,113.3256,39.0,1004.5,23.5,91,26.34209135203453,45.94550000000002
Q7713,2025-06-03 16:00:00,净潭,省直辖县级行政区划,天门市,30.6522,113.4097,30.0,1005.0,23.8,93,27.412366554344903,53.27933333333339
Q7716,2025-06-03 16:00:00,麻洋,省直辖县级行政区划,天门市,30.4411,113.2611,33.5,1004.6,23.3,92,26.311789812678928,44.64300000000003
Q7725,2025-06-03 16:00:00,石家河,省直辖县级行政区划,天门市,30.7561,113.0772,27.0,1004.7,23.6,96,27.95762617934713,63.54450000000006
Q7726,2025-06-03 16:00:00,沉湖,省直辖县级行政区划,天门市,30.5094,113.3708,24.6,1005.0,22.7,94,25.924132470807145,40.72204166666671
Q7727,2025-06-03 16:00:00,卢市,省直辖县级行政区划,天门市,30.6589,113.3403,25.7,1004.9,22.9,97,27.07809299919252,61.13600000000007
Q7729,2025-06-03 16:00:00,蒋湖,省直辖县级行政区划,天门市,30.6411,112.8431,31.2,1004.5,23.4,90,25.895792340581178,49.36949999999997
Q7799,2025-06-03 16:00:00,竟陵,省直辖县级行政区划,天门市,30.67,113.17,34.1,1004.5,24.5,77,23.67083655556401,38.05899999999995
Q7800,2025-06-03 16:00:00,高石碑,省直辖县级行政区划,潜江市,30.5497,112.6531,30.0,1004.1,22.9,95,26.51978180333288,38.82700000000001
Q7802,2025-06-03 16:00:00,浩口,省直辖县级行政区划,潜江市,30.375,112.6408,28.0,1004.7,23.3,95,27.16978295874454,62.12733333333328
Q7807,2025-06-03 16:00:00,白鹭湖,省直辖县级行政区划,潜江市,30.1111,112.7681,27.0,1005.1,25.0,87,27.55663609482938,54.56849999999998
Q7811,2025-06-03 16:00:00,后湖农场,省直辖县级行政区划,潜江市,30.3944,112.7186,29.0,1004.8,24.0,90,26.849288743363317,58.13500000000006
Q7814,2025-06-03 16:00:00,熊农,省直辖县级行政区划,潜江市,30.2667,112.7583,29.0,1004.8,24.0,100,29.832543048181464,58.61050000000003
Q7816,2025-06-03 16:00:00,园林,省直辖县级行政区划,潜江市,30.435,112.8725,32.0,1004.3,22.8,100,27.746764574910657,63.86416666666653
Q7817,2025-06-03 16:00:00,经济开发区,省直辖县级行政区划,潜江市,30.4786,112.87,30.0,1004.4,23.3,96,27.455780674099746,63.541083333333226
Q7818,2025-06-03 16:00:00,广华,省直辖县级行政区划,潜江市,30.4772,112.6597,28.0,1004.5,23.6,97,28.24885145204866,59.39199999999992
Q7819,2025-06-03 16:00:00,泰丰,省直辖县级行政区划,潜江市,30.4072,112.9053,32.0,1004.3,23.4,85,24.45713721054889,47.51899999999995
Q7820,2025-06-03 16:00:00,高场田关河,省直辖县级行政区划,潜江市,30.4033,112.6836,32.0,1004.5,23.9,90,26.688269574318127,61.56266666666671
