Station_Id_C,Datetime,Lat,Lon,Alti,City,Station_Name,Cnty,PRS,TEM,RHU,PWV,VAP
57249,2025-06-03 16:00:00,32.3244,109.6889,448.2,十堰市,竹溪,竹溪县,958.7,19.6,100.0,36.725000000000016,22.796459735098047
57251,2025-06-03 16:00:00,33.0033,110.4083,321.2,十堰市,郧西,郧西县,972.4,20.0,99.0,26.6,23.135776521723788
57253,2025-06-03 16:00:00,32.84,110.8669,244.8,十堰市,郧阳,郧阳区,979.7,20.8,83.0,35.18050000000007,20.379430080890668
57256,2025-06-03 16:00:00,32.6553,110.7728,290.2,十堰市,十堰,张湾区,975.2,22.2,80.0,29.4,21.402117715185245
57257,2025-06-03 16:00:00,32.2256,110.2261,308.4,十堰市,竹山,竹山县,974.4,20.7,83.0,33.9,20.254242787815762
57259,2025-06-03 16:00:00,32.0511,110.7475,429.5,十堰市,房县,房县,960.7,20.5,87.0,28.7,20.970029616877863
57260,2025-06-03 16:00:00,32.5417,111.4531,248.4,十堰市,丹江口,丹江口市,978.9,22.3,80.0,31.331,21.532906153388183
57264,2025-06-03 16:00:00,32.4261,111.0153,1017.5,十堰市,武当山,丹江口市,897.5,21.7,35.0,16.535500000000027,9.081872044416071
57265,2025-06-03 16:00:00,32.4319,111.7319,132.1,襄阳市,老河口,老河口市,991.9,23.2,79.0,35.90200000000001,22.45761109728204
57268,2025-06-03 16:00:00,32.2718,111.6211,124.2,襄阳市,谷城,谷城县,993.3,23.8,75.0,27.7,22.106747221245886
57278,2025-06-03 16:00:00,32.0031,112.0765,166.1,襄阳市,襄阳,襄城区,988.3,24.6,67.0,27.6,20.720411304777187
57279,2025-06-03 16:00:00,32.1614,112.7767,136.5,襄阳市,枣阳,枣阳市,991.6,22.6,96.0,26.2,26.315380828077775
57351,2025-06-03 16:00:00,30.8333,111.0167,231,宜昌市,坛子岭,夷陵区,982.8,21.4,88.0,54.9895,22.41869477690667
57352,2025-06-03 16:00:00,30.8092,111.0003,185.3,宜昌市,三斗坪,夷陵区,987.8,21.8,81.0,46.20450000000002,21.146974277614465
57353,2025-06-03 16:00:00,30.8378,111.0164,191.8,宜昌市,苏家坳,夷陵区,987.2,22.7,81.0,48.026499999999935,22.33888010782318
57354,2025-06-03 16:00:00,31.4558,110.2711,2948.1,省直辖县级行政区划,神农顶,神农架林区,715.0,7.1,36.0,6.016500000000001,3.6299878484650145
57355,2025-06-03 16:00:00,31.0483,110.35,337.5,恩施土家族苗族自治州,巴东,巴东县,971.4,21.0,97.0,47.19800000000003,24.111912126736073
57358,2025-06-03 16:00:00,30.8303,110.9639,295.5,宜昌市,秭归,秭归县,975.1,21.8,76.0,33.342000000000056,19.84160549504567
57359,2025-06-03 16:00:00,31.3453,110.7417,336.8,宜昌市,兴山,兴山县,971.6,20.9,84.0,35.14600000000006,20.752347310170276
57361,2025-06-03 16:00:00,31.8791,111.2583,331.8,襄阳市,保康,保康县,971.8,20.5,86.0,29.6,20.728994793695357
57362,2025-06-03 16:00:00,31.7484,110.6602,939,省直辖县级行政区划,神农架,神农架林区,906.4,16.6,66.0,21.6,12.459288448961207
57363,2025-06-03 16:00:00,31.7995,111.8388,159.9,襄阳市,南漳,南漳县,989.4,21.5,83.0,27.4,21.274905811490072
57367,2025-06-03 16:00:00,31.0836,110.9406,1910,宜昌市,大老岭,夷陵区,809.3,15.7,24.0,12.697999999999984,4.277749476600135
57368,2025-06-03 16:00:00,31.053,111.6318,146.2,宜昌市,远安,远安县,991.6,21.7,89.0,29.7,23.093903198658012
57370,2025-06-03 16:00:00,31.7353,112.2189,71.6,襄阳市,宜城,宜城市,999.5,22.5,83.0,26.1,22.61395810313822
57371,2025-06-03 16:00:00,31.9356,113.3081,121.9,随州市,随县,随县,993.5,21.9,94.0,35.926999999999964,24.69135673203089
57377,2025-06-03 16:00:00,30.9931,112.2123,191.9,荆门市,荆门,掇刀区,985.9,24.0,72.0,24.5,21.479430994690652
57378,2025-06-03 16:00:00,31.1724,112.5812,66.6,荆门市,钟祥,钟祥市,995.2,22.8,90.0,29.1,24.97208811741959
57381,2025-06-03 16:00:00,31.6194,113.3386,110.5,随州市,随州,曾都区,995.3,21.5,93.0,29.2,23.83814747552502
57385,2025-06-03 16:00:00,31.625,113.8206,120.4,随州市,广水,广水市,994.3,22.8,95.0,28.5,26.359426346165122
57386,2025-06-03 16:00:00,31.2519,113.9997,51.6,孝感市,孝昌,孝昌县,1001.4,22.8,84.0,43.83050000000003,23.307282242924952
57387,2025-06-03 16:00:00,30.9996,113.132,86.3,荆门市,京山,京山市,997.9,22.6,93.0,28.2,25.493025177200348
57388,2025-06-03 16:00:00,31.2642,113.6936,57.5,孝感市,安陆,安陆市,1001.3,24.7,76.0,31,23.644814434544895
57389,2025-06-03 16:00:00,31.0269,113.7486,32.2,孝感市,云梦,云梦县,1003.9,24.5,78.0,42.14199999999998,23.97825001732458
57395,2025-06-03 16:00:00,31.5883,114.1675,120,孝感市,大悟,大悟县,993.6,21.7,92.0,42.34000000000005,23.872349373893677
57398,2025-06-03 16:00:00,31.2803,114.6206,76.4,黄冈市,红安,红安县,999.5,22.5,83.0,29.9,22.61395810313822
57399,2025-06-03 16:00:00,31.1308,114.9547,74.3,黄冈市,麻城,麻城市,999.4,21.9,97.0,61.93372500000001,25.479378755393576
57439,2025-06-03 16:00:00,30.2911,108.9297,1127.5,恩施土家族苗族自治州,利川,利川市,887.3,15.6,77.0,30.5,13.636799150800996
57445,2025-06-03 16:00:00,30.6071,109.7201,610.3,恩施土家族苗族自治州,建始,建始县,941.9,19.5,75.0,32.6,16.9913613541024
57447,2025-06-03 16:00:00,30.2861,109.4707,458.7,恩施土家族苗族自治州,恩施,恩施市,958.5,21.9,86.0,40.2,22.589964669730385
57451,2025-06-03 16:00:00,30.8131,110.2539,1813.5,恩施土家族苗族自治州,绿葱坡,巴东县,819.0,15.3,36.0,13.60100000000001,6.254090473965558
57453,2025-06-03 16:00:00,30.762,111.4172,191.9,宜昌市,夷陵,夷陵区,986.8,22.5,79.0,30.6,21.524128796962884
57458,2025-06-03 16:00:00,30.1511,111.0683,243.2,宜昌市,五峰,五峰土家族自治县,980.9,20.8,75.0,25.414500000000007,18.415147663455418
57460,2025-06-03 16:00:00,30.8215,111.7841,95.6,宜昌市,当阳,当阳市,997.3,23.2,79.0,29.9,22.45761109728204
57461,2025-06-03 16:00:00,30.7019,111.2975,136.4,宜昌市,三峡,西陵区,978.4,22.7,-999.0,30.3,-275.5128546631525
57462,2025-06-03 16:00:00,30.8592,111.0831,139.9,宜昌市,夷陵三峡,夷陵区,992.8,21.6,92.0,48.45949999999998,23.72669646469615
57464,2025-06-03 16:00:00,30.4717,111.1817,180.7,宜昌市,长阳,长阳土家族自治县,987.9,21.7,77.0,31.4,19.98011849771536
57465,2025-06-03 16:00:00,30.3622,111.4319,120.1,宜昌市,宜都,宜都市,994.1,23.8,65.0,43.862000000000016,19.15918092507977
57466,2025-06-03 16:00:00,30.462,111.7464,67.3,宜昌市,枝江,枝江市,1000.3,23.4,84.0,32.8,24.16940618454243
57469,2025-06-03 16:00:00,30.1783,111.68,111.2,荆州市,松滋,松滋市,996.0,22.2,87.0,31.2,23.274803015263952
57475,2025-06-03 16:00:00,30.403,112.9014,34.5,省直辖县级行政区划,潜江,潜江市,1004.3,22.6,93.0,36.9,25.493025177200348
57476,2025-06-03 16:00:00,30.3505,112.1484,35.3,荆州市,荆州,荆州区,1004.1,23.0,94.0,35.7,26.40013878861852
57477,2025-06-03 16:00:00,30.0708,112.2159,40.1,荆州市,公安,公安县,1003.6,23.7,82.0,29.9,24.024875909531296
57481,2025-06-03 16:00:00,30.9561,113.5753,33.4,孝感市,应城,应城市,1004.2,24.0,83.0,29.2,24.761010729990613
57482,2025-06-03 16:00:00,30.9033,113.9461,26.4,孝感市,孝感,孝感市,1004.9,22.6,90.0,35,24.670669526322914
57483,2025-06-03 16:00:00,30.6697,113.135,35.4,省直辖县级行政区划,天门,天门市,1004.3,23.2,100.0,35.1,28.427355819344356
57484,2025-06-03 16:00:00,30.7359,112.5489,61.1,荆门市,沙洋,沙洋县,1001.5,22.9,90.0,31.7,25.124003813683778
57485,2025-06-03 16:00:00,30.2953,113.4829,27.1,省直辖县级行政区划,仙桃,仙桃市,1005.3,23.5,92.0,34.5,26.631564883375567
57486,2025-06-03 16:00:00,30.6556,113.8431,25,孝感市,汉川,汉川市,1004.6,23.5,96.0,43.4695,27.78945900873972
57489,2025-06-03 16:00:00,30.5236,114.0081,26.2,武汉市,蔡甸,蔡甸区,1005.2,22.8,100.0,30.5,27.746764574910657
57491,2025-06-03 16:00:00,30.871,114.3948,34.7,武汉市,黄陂,黄陂区,1004.1,22.4,94.0,28.2,25.455663612032428
57492,2025-06-03 16:00:00,30.8386,114.8386,44.7,武汉市,新洲,新洲区,1002.9,21.9,100.0,29.1,26.267400778756265
57493,2025-06-03 16:00:00,30.3429,114.3353,80.8,武汉市,江夏,江夏区,999.1,23.2,78.0,29.3,22.1733375390886
57494,2025-06-03 16:00:00,30.5978,114.0506,23.6,武汉市,武汉,东西湖区,1005.0,21.7,92.0,39.721666666666664,23.872349373893677
57495,2025-06-03 16:00:00,30.6675,115.0669,61.8,黄冈市,团风,团风县,1000.9,21.6,99.0,66.04300000000002,25.531988587009987
57496,2025-06-03 16:00:00,30.2572,114.6119,35.3,鄂州市,鄂州,梁子湖区,1003.7,22.5,100.0,49.190999999999974,27.2457326543834
57498,2025-06-03 16:00:00,30.5147,114.9364,28.4,黄冈市,黄冈,黄州区,1004.8,22.4,88.0,31.6,23.83083401977504
57499,2025-06-03 16:00:00,30.0744,114.875,40.3,黄石市,大冶,大冶市,1003.5,22.5,75.0,44.28699999999998,20.43429949078755
57540,2025-06-03 16:00:00,29.6847,109.1436,779.9,恩施土家族苗族自治州,咸丰,咸丰县,923.7,19.2,100.0,37.5,22.235817183830736
57541,2025-06-03 16:00:00,29.995,109.4783,602.6,恩施土家族苗族自治州,宣恩,宣恩县,942.7,19.9,92.0,35.7,21.367042480224427
57543,2025-06-03 16:00:00,29.8839,110.025,541.2,恩施土家族苗族自治州,鹤峰,鹤峰县,949.3,19.9,90.0,36.5,20.902541556741287
57545,2025-06-03 16:00:00,29.5281,109.4211,506.4,恩施土家族苗族自治州,来凤,来凤县,952.8,21.0,91.0,43.6,22.62045364466993
57571,2025-06-03 16:00:00,29.6594,112.4122,41.2,荆州市,石首,石首市,1003.7,22.9,97.0,35.3,27.078092999192517
57573,2025-06-03 16:00:00,29.8753,112.9044,26.2,荆州市,监利,监利市,1004.9,24.5,86.0,50.74900000000002,26.43755771140915
57581,2025-06-03 16:00:00,29.8122,113.4422,28.4,荆州市,洪湖,洪湖市,1004.9,24.5,80.0,34.1,24.593076940845727
57582,2025-06-03 16:00:00,29.7242,113.8758,51.1,咸宁市,赤壁,赤壁市,1002.9,23.0,73.0,33,20.50223544222502
57583,2025-06-03 16:00:00,29.9259,113.9595,65.6,咸宁市,嘉鱼,嘉鱼县,1000.9,22.6,81.0,29.9,22.203602573690628
57586,2025-06-03 16:00:00,29.5746,114.0339,138.9,咸宁市,崇阳国家基本气象站,崇阳县,992.9,21.6,91.0,33.8,23.468797590079888
57589,2025-06-03 16:00:00,29.274,113.8787,149.7,咸宁市,通城,通城县,991.6,20.1,91.0,36.2,21.398362257694004
57590,2025-06-03 16:00:00,29.8517,114.3672,102.8,咸宁市,咸宁,市辖区,997.1,20.3,100.0,32.6,23.807486060476144
57595,2025-06-03 16:00:00,29.6111,114.4578,103.6,咸宁市,通山,通山县,996.9,20.5,87.0,31.8,20.970029616877863
57596,2025-06-03 16:00:00,29.6347,114.2053,751.6,咸宁市,金沙本底站,崇阳县,925.0,19.0,76.0,29.961500000000004,16.689647795650092
58401,2025-06-03 16:00:00,30.7467,115.3956,127.1,黄冈市,罗田,罗田县,993.9,20.8,87.0,28.7,21.36157128960829
58402,2025-06-03 16:00:00,30.7295,115.6676,126.2,黄冈市,英山,英山县,994.1,21.7,84.0,31.9,21.796492906598573
58404,2025-06-03 16:00:00,30.4717,115.2175,69.9,黄冈市,浠水,浠水县,1000.3,22.4,86.0,30.9,23.28922415568924
58407,2025-06-03 16:00:00,30.2385,115.0275,35.4,黄石市,黄石,黄石港区,1004.2,21.7,77.0,31.5,19.98011849771536
58408,2025-06-03 16:00:00,30.23,115.4358,75.7,黄冈市,蕲春,蕲春县,999.9,20.8,91.0,30.7,22.343712498325914
58409,2025-06-03 16:00:00,30.0978,115.9314,32,黄冈市,黄梅,黄梅县,1004.2,21.6,93.0,43.70400000000002,23.984595339312413
58500,2025-06-03 16:00:00,29.8961,115.2163,60.7,黄石市,阳新,阳新县,1001.9,21.4,83.0,31.6,21.14490530094606
58501,2025-06-03 16:00:00,29.925,115.6264,28.1,黄冈市,武穴,武穴市,1005.3,22.2,89.0,32.2,23.809855958143583
Q0004,2025-06-03 16:00:00,30.2789,108.8711,1082.2,恩施土家族苗族自治州,沪渝K1464,利川市,889.4,15.7,83.0,26.28550000000001,14.79388360657547
Q0005,2025-06-03 16:00:00,30.2444,109.1197,1131.4,恩施土家族苗族自治州,沪渝K1439,利川市,885.4,16.5,98.0,29.294416666666603,18.38282360973586
Q0007,2025-06-03 16:00:00,30.2389,109.3664,706.7,恩施土家族苗族自治州,沪渝K1412,恩施市,929.5,19.2,72.0,34.99849999999999,16.00978837235813
Q0008,2025-06-03 16:00:00,30.2439,109.4128,545.1,恩施土家族苗族自治州,沪渝K1407,巴东县,946.1,20.0,76.0,35.296500000000044,17.76079813788897
Q0010,2025-06-03 16:00:00,30.4114,109.5864,729.9,恩施土家族苗族自治州,沪渝K1375,恩施市,926.5,18.5,99.0,42.50500000000004,21.070934009328244
Q0011,2025-06-03 16:00:00,30.455,109.6258,624.1,恩施土家族苗族自治州,沪渝K1369,恩施市,937.4,19.3,99.0,47.606999999999964,22.15108245090736
Q0013,2025-06-03 16:00:00,30.4628,109.7828,780.1,恩施土家族苗族自治州,沪渝K1351,恩施市,920.3,17.6,79.0,30.579499999999967,15.888818045719901
Q0014,2025-06-03 16:00:00,30.4997,109.8508,903.4,恩施土家族苗族自治州,沪渝K1343,恩施市,907.8,17.3,74.0,25.077000000000034,14.60373074519817
Q0015,2025-06-03 16:00:00,30.55,109.8914,879.8,恩施土家族苗族自治州,沪渝K1336,建始县,910.0,17.3,84.0,31.19050000000002,16.57720787292765
Q0017,2025-06-03 16:00:00,30.6506,110.0908,794.9,恩施土家族苗族自治州,沪渝K1313,巴东县,919.1,17.4,73.0,25.34600000000002,14.497769659575624
Q0019,2025-06-03 16:00:00,30.6308,110.1639,865.2,恩施土家族苗族自治州,沪渝K1305,巴东县,911.6,17.8,66.0,26.45799999999999,13.442690593359515
Q0021,2025-06-03 16:00:00,30.6119,110.3097,1104.2,恩施土家族苗族自治州,沪渝K1291,巴东县,886.8,15.6,96.0,33.7225,17.00172361658306
Q0022,2025-06-03 16:00:00,30.6217,110.3864,923,恩施土家族苗族自治州,沪渝k1283,恩施市,900.5,18.3,68.0,25.667500000000004,14.292525667422474
Q0026,2025-06-03 16:00:00,30.6247,110.6047,597.8,宜昌市,沪渝K1262,长阳土家族自治县,939.9,17.2,68.0,25.481000000000005,13.334989108892032
Q0028,2025-06-03 16:00:00,30.5711,111.4003,54.9,宜昌市,沪渝K1179,市辖区,999.3,21.6,94.0,48.29499999999997,24.242494213928673
Q0030,2025-06-03 16:00:00,30.5589,111.1281,241.9,宜昌市,沪渝K1208,长阳土家族自治县,981.7,21.0,79.0,31.79600000000006,19.63753668053763
Q0032,2025-06-03 16:00:00,30.3922,112.195,25.4,荆州市,沪渝K1097,荆州区,1003.7,23.9,82.0,44.01999999999995,24.315978945489846
Q0033,2025-06-03 16:00:00,30.3353,112.4733,25.4,荆州市,沪渝K1069,荆州区,1004.5,24.7,93.0,56.58499999999993,28.933786084377303
Q0034,2025-06-03 16:00:00,30.3383,112.5164,24.4,省直辖县级行政区划,沪渝K1065,潜江市,1004.1,24.4,97.0,62.2224999999999,29.64094096872595
Q0037,2025-06-03 16:00:00,30.4533,113.8225,17,武汉市,沪渝K933,蔡甸区,1004.5,23.2,85.0,43.22249999999998,24.1632524464427
Q0039,2025-06-03 16:00:00,30.3486,113.5853,15.2,省直辖县级行政区划,沪渝k959,仙桃市,1004.5,24.0,84.0,42.87249999999997,25.059336160472427
Q0040,2025-06-03 16:00:00,30.3631,113.3619,9,省直辖县级行政区划,沪渝K982,仙桃市,1005.1,24.5,84.0,49.69500000000004,25.82273078788801
Q0047,2025-06-03 16:00:00,30.2406,115.1297,19.8,黄冈市,黄黄785,浠水县,1005.9,22.5,87.0,39.43649999999998,23.70378740931356
Q0049,2025-06-03 16:00:00,30.1353,115.33,21.4,黄冈市,黄黄K761,蕲春县,1005.5,23.5,84.0,51.41325000000003,24.315776632647257
Q0050,2025-06-03 16:00:00,30.0289,115.4664,41.4,黄冈市,黄黄K742,武穴市,1003.6,20.9,93.0,48.708499999999965,22.97581309340281
Q0051,2025-06-03 16:00:00,30.0039,115.5917,38,黄冈市,黄黄K730,武穴市,1004.4,20.9,94.0,48.44250000000002,23.222864847095313
Q0052,2025-06-03 16:00:00,30.0161,115.6708,42.5,黄冈市,黄黄K722,武穴市,1003.1,21.9,78.0,35.39150000000004,20.488572607429887
Q0053,2025-06-03 16:00:00,30.0278,115.7514,22.2,黄冈市,黄黄K714,武穴市,1005.6,22.2,93.0,50.80200000000004,24.879961843902844
Q0054,2025-06-03 16:00:00,30.0278,115.8164,23.1,黄冈市,黄黄K708,黄梅县,1005.9,21.9,99.0,52.218291666666666,26.004726770968702
Q0055,2025-06-03 16:00:00,30.0333,115.8986,25.2,黄冈市,黄黄K700,黄梅县,1005.3,22.3,90.0,44.984999999999935,24.224519422561702
Q0056,2025-06-03 16:00:00,30.1047,116.0217,45.9,黄冈市,黄黄K685,黄梅县,1003.2,21.4,99.0,61.21550000000012,25.221031624020004
Q0058,2025-06-03 16:00:00,30.1703,114.9136,25,黄石市,大广K2491,市辖区,1004.2,22.7,86.0,46.977999999999966,23.71782332435547
Q0061,2025-06-03 16:00:00,29.9158,114.8833,57.7,黄石市,大广K2520,大冶市,1001.4,20.5,86.0,40.00350000000001,20.728994793695357
Q0064,2025-06-03 16:00:00,29.6617,114.9464,23.5,黄石市,大广K2552,阳新县,1005.3,19.9,86.0,40.152666666666754,19.973539709775004
Q0065,2025-06-03 16:00:00,29.6053,114.9322,37.1,黄石市,大广K2560,阳新县,1002.8,18.6,96.0,45.10249999999997,20.560845483806265
Q0066,2025-06-03 16:00:00,29.4306,114.8339,281.9,咸宁市,大广K2583,通山县,974.5,21.3,54.0,21.948999999999998,13.672801217280302
Q0067,2025-06-03 16:00:00,29.3742,113.8803,81,咸宁市,杭瑞K731,崇阳县,997.4,20.8,97.0,51.08750000000003,23.816924311402342
Q0069,2025-06-03 16:00:00,29.5817,114.3203,81,咸宁市,杭瑞K679,通山县,994.7,19.4,93.0,46.37249999999998,20.938584202629794
Q0070,2025-06-03 16:00:00,29.6758,114.6372,141.1,咸宁市,杭瑞K646,通山县,991.4,17.8,97.0,40.44400000000001,19.756681629634436
Q0071,2025-06-03 16:00:00,29.7172,114.6692,128.1,咸宁市,杭瑞K640,通山县,992.9,18.6,99.0,47.83091666666665,21.20337190517521
Q0072,2025-06-03 16:00:00,29.7147,114.8767,167.3,黄石市,杭瑞K620,阳新县,989.3,18.8,95.0,45.51650000000007,20.602949828421576
Q0074,2025-06-03 16:00:00,29.7067,115.2367,54.2,黄石市,杭瑞K583,阳新县,1001.2,18.6,99.0,45.372999999999976,21.20337190517521
Q0079,2025-06-03 16:00:00,33.08,110.3,444.3,十堰市,福银K1447,郧西县,958.3,18.7,90.0,28.57649999999996,19.396854766952963
Q0080,2025-06-03 16:00:00,32.95,110.5,395.1,十堰市,福银K1421,郧西县,962.9,19.3,86.0,28.526000000000018,19.24235445230336
Q0081,2025-06-03 16:00:00,32.86,110.65,275.8,十堰市,福银K1405,郧西县,974.6,19.9,71.0,33.91049999999996,16.48978278365146
Q0082,2025-06-03 16:00:00,32.82,110.7,205.1,十堰市,福银K1398,郧西县,982.6,21.9,84.0,41.13099999999996,22.064616654155262
Q0083,2025-06-03 16:00:00,32.51,111.14,162.4,十堰市,福银K1338,丹江口市,987.8,21.4,90.0,44.58349999999999,22.92821056729091
Q0087,2025-06-03 16:00:00,32.28,111.66,73.4,襄阳市,福银K1277,谷城县,997.4,23.0,86.0,39.02350000000003,24.1533184661829
Q0089,2025-06-03 16:00:00,32.19,112.1,76.5,襄阳市,福银K1234,市辖区,997.5,23.3,66.0,38.58349999999996,18.875849213443576
Q0093,2025-06-03 16:00:00,31.67,113.26,101,随州市,福银K1103,市辖区,995.7,21.4,90.0,40.178999999999995,22.92821056729091
Q0094,2025-06-03 16:00:00,31.6,113.33,83,随州市,福银K1093,市辖区,998.2,22.2,87.0,38.99450000000004,23.274803015263952
Q0095,2025-06-03 16:00:00,31.48,113.43,110,随州市,福银K1076,市辖区,995.2,20.6,98.0,39.74050000000003,23.767633682833413
Q0096,2025-06-03 16:00:00,31.39,113.51,97.7,孝感市,福银K1064,安陆市,997.4,21.8,92.0,59.72537500000002,24.01878559926581
Q0100,2025-06-03 16:00:00,30.98,114.05,29.2,孝感市,福银K993,市辖区,1003.8,23.1,91.0,43.315,25.712824726288016
Q0103,2025-06-03 16:00:00,31.54,112.28,56.7,荆门市,襄荆K1620,钟祥市,999.8,23.7,5.0,6.161499999999997,1.46493145789825
Q0104,2025-06-03 16:00:00,31.42,112.34,68.6,荆门市,襄荆K1634,钟祥市,999.1,22.2,87.0,38.694499999999955,23.274803015263952
Q0106,2025-06-03 16:00:00,30.99,112.27,51.3,荆门市,襄荆K1685,市辖区,1000.2,22.4,94.0,48.36399999999999,25.455663612032428
Q0107,2025-06-03 16:00:00,30.82,112.24,75.1,荆门市,襄荆K1704,市辖区,998.4,23.5,86.0,42.403999999999925,24.894723695329333
Q0108,2025-06-03 16:00:00,30.7,112.22,50.4,荆门市,襄荆K1715交通气象站,沙洋县,1001.4,23.6,5.0,8.2065,1.4561263635076633
Q0109,2025-06-03 16:00:00,30.45,112.21,42.3,荆门市,襄荆K1745,沙洋县,1003.4,24.6,82.0,47.06500000000002,25.35930935808551
Q0600,2025-06-03 16:00:00,29.8361,113.5272,26,荆州市,洪湖石码头,洪湖市,1004.5,23.2,90.0,50.19884999999997,25.584620237409922
Q0603,2025-06-03 16:00:00,29.7378,112.4081,20,荆州市,石首海事码头,石首市,1004.0,22.4,99.0,54.73599999999995,26.809688272246916
Q0604,2025-06-03 16:00:00,30.0744,112.215,11,荆州市,公安航道码头,公安县,1003.5,23.1,88.0,38.579499999999996,24.865149185860936
Q0605,2025-06-03 16:00:00,30.03,112.4025,50,荆州市,江陵航道码头,江陵县,1003.5,23.5,81.0,38.05499999999999,23.447356038624143
Q0606,2025-06-03 16:00:00,30.3206,112.2025,15,荆州市,杨林矶海事码头,市辖区,1003.4,22.9,91.0,47.223499999999966,25.4031594116136
Q0607,2025-06-03 16:00:00,30.6586,114.5494,40,武汉市,阳逻海事水上搜救中心,新洲区,1004.6,23.5,90.0,46.66650000000004,26.052617820693488
Q0608,2025-06-03 16:00:00,30.3672,114.1486,0,武汉市,金口航道码头,江夏区,1004.8,23.3,84.0,44.982000000000035,24.023808089837278
Q0609,2025-06-03 16:00:00,30.2064,113.9283,20,咸宁市,嘉鱼簰洲湾海事站房,嘉鱼县,1004.8,22.7,93.0,49.653500000000015,25.648343827500685
Q0611,2025-06-03 16:00:00,31.0047,110.6128,194.5,宜昌市,秭归泄滩小学,秭归县,985.8,21.6,93.0,44.40149999999997,23.984595339312413
Q0612,2025-06-03 16:00:00,30.5539,111.39,40,宜昌市,长江航道宜昌综合码头,宜都市,1002.1,22.4,85.0,42.007999999999974,23.01841922364634
Q0613,2025-06-03 16:00:00,30.4106,111.5064,60,宜昌市,宜昌海事局孙家河执法队,宜都市,1002.7,22.6,84.0,42.02799999999998,23.025958224568054
Q0614,2025-06-03 16:00:00,30.3075,111.6236,40,宜昌市,松滋河口,宜都市,1002.7,23.4,72.0,36.39950000000006,20.716633872464943
Q0615,2025-06-03 16:00:00,30.3725,111.64,50,宜昌市,枝江姚港,枝江市,1003.0,22.0,94.0,53.33800000000001,24.84258801671613
Q0616,2025-06-03 16:00:00,30.4125,111.8875,40,宜昌市,枝江七星台,枝江市,1003.2,23.1,86.0,45.64149999999998,24.30003215890955
Q0617,2025-06-03 16:00:00,29.7708,113.0303,40,荆州市,监利何王庙,监利市,1004.0,23.5,86.0,46.66450000000002,24.894723695329333
Q0618,2025-06-03 16:00:00,29.6517,112.9492,30,荆州市,监利三洲,监利市,1004.2,21.5,2.0,2.7985000000000038,0.5126483328069896
Q0619,2025-06-03 16:00:00,29.9542,113.8303,30,荆州市,洪湖龙口汽渡码头,洪湖市,1004.4,22.9,92.0,51.487500000000026,25.68231500954342
Q0701,2025-06-03 16:00:00,30.6869,114.5175,4,武汉市,水口白灯船,新洲区,1004.3,23.1,80.0,39.512499999999925,22.6046810780554
Q0702,2025-06-03 16:00:00,30.5583,114.6317,4,武汉市,牧鹅洲白灯船,新洲区,1004.5,23.6,81.0,46.95300000000003,23.589247088824145
Q0704,2025-06-03 16:00:00,30.3142,112.2003,8,荆州市,沙市河段航道整治一期工程提示标,沙市区,1002.6,22.9,100.0,58.38999999999996,27.915559792981977
Q0705,2025-06-03 16:00:00,30.0753,112.3128,7,荆州市,公安大桥进口白泵船,公安县,1002.6,22.6,99.0,64.63888571428562,27.13773647895521
Q0707,2025-06-03 16:00:00,29.7636,112.6675,6,荆州市,桃花洲中提示标,洪湖市,1003.2,21.9,100.0,57.96549999999985,26.267400778756265
Q0725,2025-06-03 16:00:00,30.6411,114.3525,4,武汉市,天兴洲航道整治建筑物上提示标,江岸区,1004.0,24.0,85.0,42.7049999999999,25.35766159095424
Q0729,2025-06-03 16:00:00,30.5308,114.8308,4,黄冈市,黄冈大桥#1红浮,市辖区,1004.1,23.5,89.0,46.57149999999998,25.76314428935245
Q0737,2025-06-03 16:00:00,30.1289,115.2844,3,黄冈市,李家洲#3红浮,市辖区,1004.7,22.6,88.0,56.59493452380956,24.122432425737962
Q1000,2025-06-03 16:00:00,30.5944,114.3017,28.8,武汉市,江滩,江岸区,1004.9,23.5,78.0,42.20250000000006,22.578935444601026
Q1001,2025-06-03 16:00:00,30.9978,114.8886,62,武汉市,潘塘,新洲区,1000.1,21.9,86.0,40.84800000000001,22.589964669730385
Q1002,2025-06-03 16:00:00,30.9278,114.7925,28,武汉市,三店,新洲区,1004.7,22.6,91.0,47.910999999999994,24.944788076615396
Q1003,2025-06-03 16:00:00,30.8803,114.6789,24.6,武汉市,李集,新洲区,1005.0,22.1,97.0,57.26400000000006,25.79233162466418
Q1004,2025-06-03 16:00:00,30.8169,114.8717,27,武汉市,旧街,新洲区,1004.7,20.8,92.0,38.836499999999994,22.58924780050532
Q1005,2025-06-03 16:00:00,30.7997,114.8161,40,武汉市,辛冲,新洲区,1003.6,22.2,89.0,42.74449999999991,23.809855958143583
Q1006,2025-06-03 16:00:00,30.8086,114.73,37,武汉市,汪集,新洲区,1003.5,22.8,83.0,39.07950000000001,23.029814597175847
Q1007,2025-06-03 16:00:00,30.8736,114.6136,28.8,武汉市,仓埠,江岸区,1002.7,22.5,83.0,34.12199999999995,22.61395810313822
Q1008,2025-06-03 16:00:00,30.9403,114.7225,67,武汉市,凤凰,新洲区,1001.4,20.9,96.0,41.10249999999996,23.716968354480315
Q1010,2025-06-03 16:00:00,30.5064,114.3839,40.8,武汉市,化工,洪山区,1003.9,23.3,81.0,46.18549999999996,23.165814943771665
Q1011,2025-06-03 16:00:00,30.7475,114.0272,26,武汉市,五一大队,东西湖区,1005.5,22.5,96.0,55.02199999999997,26.155903348208064
Q1013,2025-06-03 16:00:00,30.4836,114.3192,31,武汉市,湖北省农科院,洪山区,1004.9,22.5,85.0,43.58999999999998,23.15887275622589
Q1014,2025-06-03 16:00:00,30.5325,114.5006,41,武汉市,花山工作基地,市辖区,1003.1,22.4,66.0,31.362500000000033,17.87312551483128
Q1016,2025-06-03 16:00:00,30.5333,114.5058,29,武汉市,湖北省预备役师,洪山区,1004.3,20.9,81.0,45.947000000000024,20.01119204909277
Q1017,2025-06-03 16:00:00,30.6381,114.3803,22,武汉市,和平公园,青山区,1004.9,22.0,90.0,42.77783333333333,23.78545661174949
Q1018,2025-06-03 16:00:00,30.3322,114.0706,19,武汉市,纱帽,汉南区,1005.1,23.2,88.0,50.14649999999999,25.016073121023034
Q1019,2025-06-03 16:00:00,30.2669,113.8478,25,武汉市,湘口,汉南区,1005.2,22.3,94.0,42.6795,25.30116473023111
Q1020,2025-06-03 16:00:00,30.3078,113.9783,27,武汉市,邓南,汉南区,1004.8,22.2,97.0,44.88199999999998,25.950067729662102
Q1021,2025-06-03 16:00:00,30.3461,113.9131,24,武汉市,东荆,汉南区,1005.1,22.8,92.0,50.962499999999984,25.527023408917806
Q1022,2025-06-03 16:00:00,30.6703,114.1803,32,武汉市,气象预警中心,东西湖区,1005.2,22.6,94.0,53.00249999999997,25.767143727492822
Q1023,2025-06-03 16:00:00,30.4614,114.2383,23.2,武汉市,建和分校,洪山区,1005.3,23.3,86.0,41.6545,24.59580352054769
Q1024,2025-06-03 16:00:00,30.6242,114.1408,26,武汉市,实验小学,东西湖区,1005.4,24.2,73.0,40.24150000000003,22.04103683451695
Q1025,2025-06-03 16:00:00,30.6014,114.4875,25,武汉市,白玉公园,青山区,1005.4,21.5,95.0,44.39575000000004,24.35079580833201
Q1026,2025-06-03 16:00:00,30.455,114.1294,28,武汉市,沌阳,汉南区,1005.3,22.2,100.0,47.05925000000003,26.75264714398155
Q1027,2025-06-03 16:00:00,30.5183,114.3594,43.1,武汉市,华师,洪山区,1003.1,23.2,79.0,43.69649999999997,22.45761109728204
Q1028,2025-06-03 16:00:00,30.6731,114.2292,24,武汉市,常青路,东西湖区,1005.3,22.8,93.0,55.51450000000008,25.80449105466691
Q1029,2025-06-03 16:00:00,30.5644,114.4858,26.8,武汉市,光谷二十七小学,洪山区,1004.9,23.1,82.0,50.87950000000001,23.16979810500678
Q1030,2025-06-03 16:00:00,30.6772,114.2828,35,武汉市,材保所,东西湖区,1005.3,22.9,85.0,53.1901666666666,23.728225824034677
Q1031,2025-06-03 16:00:00,30.4789,114.4464,35,武汉市,湖北省第二师范,洪山区,1003.9,22.0,84.0,42.962500000000055,22.19975950429952
Q1032,2025-06-03 16:00:00,30.6644,114.3136,26,武汉市,百步亭社区,江岸区,1005.4,22.6,83.0,36.24199999999998,22.75183967427558
Q1033,2025-06-03 16:00:00,30.5133,114.3114,19,武汉市,南湖社区,武昌区,1005.4,22.7,84.0,48.617,23.166246037742553
Q1036,2025-06-03 16:00:00,30.5517,114.4369,23,武汉市,东湖落雁景区,市辖区,1005.4,22.8,89.0,37.35900000000001,24.694620471670486
Q1038,2025-06-03 16:00:00,30.6708,114.41,25,武汉市,天兴洲,洪山区,1004.8,21.4,87.0,37.790999999999976,22.163936881714548
Q1039,2025-06-03 16:00:00,30.5031,114.4803,45.3,武汉市,光谷二十一小学,洪山区,1003.2,22.9,66.0,40.986999999999995,18.424269463368105
Q1040,2025-06-03 16:00:00,30.7594,114.6317,24,武汉市,五云,江岸区,1003.6,21.9,94.0,43.585999999999984,24.69135673203089
Q1041,2025-06-03 16:00:00,30.6386,114.5739,11.5,武汉市,鄢家湖,江岸区,1005.2,20.9,96.0,49.66650000000001,23.716968354480315
Q1042,2025-06-03 16:00:00,30.8764,114.4739,32.5,武汉市,席家岗,江岸区,1003.9,21.2,95.0,41.792,23.906798464732304
Q1043,2025-06-03 16:00:00,30.8822,114.5217,39.2,武汉市,六指中心福利院,江岸区,1003.7,22.2,91.0,47.960999999999984,24.344908901023214
Q1044,2025-06-03 16:00:00,30.8683,114.5803,42.3,武汉市,青华,江岸区,1003.5,21.3,92.0,54.43899999999999,23.29440207388496
Q1045,2025-06-03 16:00:00,30.7972,114.4647,31.3,武汉市,大咀,江岸区,1003.5,22.9,89.0,50.853500000000004,24.84484821575396
Q1052,2025-06-03 16:00:00,30.5447,114.42,23.3,武汉市,武汉植物园,洪山区,1005.3,21.8,85.0,49.00749999999999,22.191269303669497
Q1054,2025-06-03 16:00:00,30.5814,114.3311,23,武汉市,湖大,武昌区,1005.2,23.6,77.0,40.705000000000005,22.424345998018012
Q1057,2025-06-03 16:00:00,30.6369,114.5061,33,武汉市,林业站,洪山区,1005.5,20.8,93.0,50.677,22.834783102684725
Q1061,2025-06-03 16:00:00,30.6411,114.4039,33.5,武汉市,青山,青山区,1004.4,22.9,77.0,37.08549999999994,21.494981040596123
Q1071,2025-06-03 16:00:00,30.51,114.4581,35,武汉市,士官学校,洪山区,1004.7,21.2,92.0,54.92550000000002,23.151846934267077
Q1072,2025-06-03 16:00:00,30.6664,114.335,27,武汉市,堤角公园,江岸区,1004.9,21.9,88.0,42.75624999999998,23.115312685305515
Q1073,2025-06-03 16:00:00,30.6272,114.2394,25,武汉市,湖北省移动公司,江汉区,1005.2,23.0,83.0,31.733000000000025,23.310760845269545
Q1081,2025-06-03 16:00:00,30.255,114.0589,22.1,武汉市,汉南,汉南区,1005.3,22.7,88.0,42.12649999999998,24.26940061096839
Q1082,2025-06-03 16:00:00,30.4769,114.1631,18.1,武汉市,沌口,汉南区,1005.0,22.8,91.0,46.11049999999998,25.2495557631687
Q1083,2025-06-03 16:00:00,30.4156,114.1306,21.6,武汉市,春笋,汉南区,1005.4,22.3,90.0,43.446999999999925,24.224519422561702
Q1084,2025-06-03 16:00:00,30.3267,114.0014,23.3,武汉市,恒大农业,汉南区,1005.2,22.2,95.0,45.16000000000001,25.415014786782475
Q1085,2025-06-03 16:00:00,30.2131,113.8472,22.6,武汉市,武湖湿地,汉南区,1005.5,22.3,91.0,46.60950000000009,24.493680749479058
Q1086,2025-06-03 16:00:00,30.22,113.8256,21.3,武汉市,喜鹊湖,汉南区,1005.6,22.4,95.0,56.75500000000004,25.726468544075324
Q1087,2025-06-03 16:00:00,30.4258,114.1092,33.7,武汉市,龙灵山,汉南区,1004.1,21.9,83.0,43.54850000000004,21.8019426463677
Q1088,2025-06-03 16:00:00,30.4586,114.0606,29,武汉市,武汉西,汉南区,1004.5,22.3,89.0,37.475333333333374,23.95535809564435
Q1101,2025-06-03 16:00:00,30.8781,114.9839,83,武汉市,道观河,新洲区,997.7,21.6,81.0,48.55150000000004,20.889808843917262
Q1102,2025-06-03 16:00:00,30.6969,114.5339,25,武汉市,阳逻,江岸区,1005.3,22.6,91.0,39.189,24.944788076615396
Q1103,2025-06-03 16:00:00,30.6675,114.7861,18.7,武汉市,涨渡湖,新洲区,1005.8,22.5,89.0,41.45149999999997,24.248702062401225
Q1104,2025-06-03 16:00:00,30.5964,114.6472,23,武汉市,双柳,新洲区,1005.3,22.4,86.0,39.64550000000001,23.28922415568924
Q1105,2025-06-03 16:00:00,30.8894,115.0589,344.5,武汉市,将军山,新洲区,969.2,20.0,79.0,38.90800000000001,18.4618822749109
Q1106,2025-06-03 16:00:00,30.9481,114.9694,73,武汉市,徐古,新洲区,999.5,21.7,81.0,52.96900000000001,21.01804673136291
Q1107,2025-06-03 16:00:00,30.8731,114.7681,25,武汉市,徐治湾,新洲区,1004.7,22.1,93.0,41.1835,24.72873032055432
Q1108,2025-06-03 16:00:00,30.9156,114.6519,39.3,武汉市,方院,新洲区,1003.5,21.0,96.0,47.176,23.863335713058383
Q1109,2025-06-03 16:00:00,30.7858,114.5475,31.6,武汉市,杨裴,江岸区,1004.1,22.2,90.0,46.829499999999996,24.077382429583395
Q1111,2025-06-03 16:00:00,30.975,114.7111,51.1,武汉市,陈家田,新洲区,1002.1,20.4,96.0,41.05649999999997,22.996879772241517
Q1112,2025-06-03 16:00:00,30.8286,114.9725,196.4,武汉市,大雾山,新洲区,985.6,23.6,51.0,28.92550000000001,14.852488907778163
Q1113,2025-06-03 16:00:00,30.8742,114.8856,30.1,武汉市,王寨,新洲区,1004.4,21.6,89.0,38.664499999999954,22.95299984084736
Q1114,2025-06-03 16:00:00,30.9244,114.6972,55.4,武汉市,春光,新洲区,1001.6,21.5,82.0,38.88450000000001,21.018581645086574
Q1115,2025-06-03 16:00:00,30.9389,114.9081,36,武汉市,易河,新洲区,1003.7,21.0,97.0,49.63299999999995,24.111912126736073
Q1116,2025-06-03 16:00:00,30.9575,114.87,60,武汉市,李岗,新洲区,1001.0,21.6,92.0,37.42949999999997,23.72669646469615
Q1117,2025-06-03 16:00:00,30.9631,114.7978,28,武汉市,徐寨,新洲区,1004.7,22.4,92.0,46.804500000000004,24.91405374794663
Q1118,2025-06-03 16:00:00,30.6256,114.7536,22.2,武汉市,陈路,新洲区,1005.5,22.4,91.0,42.981500000000004,24.643248815903736
Q1119,2025-06-03 16:00:00,30.6903,114.705,26.5,武汉市,滨湖,新洲区,1004.8,21.9,82.0,37.1564999999999,21.539268638580133
Q1120,2025-06-03 16:00:00,30.5981,114.6917,22.5,武汉市,航天新城,新洲区,1005.4,22.4,88.0,39.77850000000004,23.83083401977504
Q1121,2025-06-03 16:00:00,30.7686,114.6692,20.6,武汉市,大泊,新洲区,1005.4,22.3,94.0,46.27949999999996,25.30116473023111
Q1122,2025-06-03 16:00:00,30.7528,114.7064,23.9,武汉市,冯铺,新洲区,1005.1,23.0,93.0,46.436500000000024,26.11928624831407
Q1123,2025-06-03 16:00:00,30.8286,114.6825,23.6,武汉市,人胜,新洲区,1005.1,22.7,93.0,53.33499999999998,25.648343827500685
Q1124,2025-06-03 16:00:00,30.7658,114.815,35.4,武汉市,杨铺,新洲区,1003.8,23.1,92.0,49.26650000000001,25.995383239763708
Q1125,2025-06-03 16:00:00,30.7722,114.8658,39.5,武汉市,朱岗,新洲区,1003.4,21.4,86.0,46.23910833333335,21.909178986522424
Q1126,2025-06-03 16:00:00,30.6581,114.6303,22,武汉市,毛集,新洲区,1003.9,21.6,82.0,38.16750000000002,21.14770771853352
Q1128,2025-06-03 16:00:00,30.7972,114.6519,13.8,武汉市,王瓦,新洲区,1005.2,21.8,94.0,42.661,24.54093311229333
Q1129,2025-06-03 16:00:00,30.73,114.7775,20.2,武汉市,四道沟,新洲区,1005.5,21.3,95.0,40.04850000000005,24.054002141511642
Q1130,2025-06-03 16:00:00,30.8692,115.0061,92.7,武汉市,道观河水库,新洲区,997.4,20.5,84.0,44.08250000000004,20.24692514733035
Q1131,2025-06-03 16:00:00,30.9228,115.0169,109.7,武汉市,大屋冲,新洲区,995.3,20.2,77.0,38.64299999999999,18.21872939092397
Q1132,2025-06-03 16:00:00,30.9228,114.7528,34,武汉市,凤凰镇中心小学,新洲区,1002.4,23.5,81.0,45.82950000000001,23.447356038624143
Q1133,2025-06-03 16:00:00,30.8536,114.9625,31,武汉市,旧街利河小学,新洲区,1002.9,20.9,84.0,35.260999999999996,20.752347310170276
Q1134,2025-06-03 16:00:00,30.6467,114.8336,15,武汉市,双柳汉昕小学,新洲区,1005.7,22.3,85.0,41.59300000000004,22.87871278797494
Q1135,2025-06-03 16:00:00,30.8819,114.8447,32,武汉市,刘六,新洲区,1003.0,22.0,92.0,41.200499999999955,24.314022314232812
Q1136,2025-06-03 16:00:00,30.6756,114.7642,28.8,武汉市,涨渡湖湿地森林公园,新洲区,1005.7,22.7,95.0,52.96050000000002,26.199921114113604
Q1191,2025-06-03 16:00:00,30.8192,114.6042,35.7,武汉市,紫薇都市田园,江岸区,1003.7,21.8,87.0,46.0835,22.71341681669702
Q1199,2025-06-03 16:00:00,30.8331,114.7997,26.4,武汉市,邾城,新洲区,1004.7,22.2,86.0,40.003499999999974,23.007276543824133
Q1201,2025-06-03 16:00:00,31.2047,114.3831,48.5,武汉市,姚家集,黄陂区,1002.9,21.3,97.0,50.53249999999997,24.560402186596097
Q1202,2025-06-03 16:00:00,30.9883,114.5211,88,武汉市,蔡家榨,黄陂区,998.2,22.5,87.0,51.06000000000003,23.70378740931356
Q1203,2025-06-03 16:00:00,30.9947,114.2333,37.5,武汉市,李家集,黄陂区,1002.4,21.7,98.0,57.91124999999999,25.429241724365003
Q1204,2025-06-03 16:00:00,30.8131,114.2119,35,武汉市,天河机场,黄陂区,1003.5,23.9,83.0,45.19650000000002,24.612515274093383
Q1207,2025-06-03 16:00:00,31.2856,114.3106,67,武汉市,蔡店,黄陂区,1000.4,21.8,95.0,49.84169999999999,24.802006868807087
Q1208,2025-06-03 16:00:00,30.8853,114.2261,41,武汉市,祁家湾,黄陂区,1003.5,23.1,86.0,47.454999999999984,24.30003215890955
Q1209,2025-06-03 16:00:00,30.8003,114.2903,38,武汉市,横店,黄陂区,1002.7,24.1,78.0,42.862499999999955,23.409670232793964
Q1210,2025-06-03 16:00:00,30.7506,114.3008,30,武汉市,盘龙城,黄陂区,1003.2,23.3,81.0,39.73599999999997,23.165814943771665
Q1212,2025-06-03 16:00:00,31.0553,114.4678,49,武汉市,夏家寺水库,黄陂区,1001.5,22.2,90.0,42.257999999999974,24.077382429583395
Q1213,2025-06-03 16:00:00,31.3047,114.2033,537,武汉市,刘家山,黄陂区,949.2,21.8,76.0,36.98349999999996,19.84160549504567
Q1214,2025-06-03 16:00:00,30.7583,114.4194,23,武汉市,三里桥,江岸区,1005.6,21.6,95.0,41.99900000000002,24.500393088544936
Q1215,2025-06-03 16:00:00,30.9933,114.3361,48,武汉市,罗汉寺,黄陂区,1002.6,21.7,96.0,48.41850000000005,24.910277607541225
Q1216,2025-06-03 16:00:00,31.1075,114.3617,49,武汉市,长轩岭,黄陂区,1003.0,22.2,89.0,44.53600000000003,23.809855958143583
Q1217,2025-06-03 16:00:00,30.7003,114.5036,21,武汉市,现代农展中心,江岸区,1005.4,22.0,92.0,47.36533333333331,24.314022314232812
Q1218,2025-06-03 16:00:00,31.2347,114.23,100.2,武汉市,源泉,黄陂区,995.1,20.0,96.0,65.28699999999989,22.434692384701854
Q1219,2025-06-03 16:00:00,31.0919,114.2014,105.3,武汉市,矿巴水库,黄陂区,997.7,21.8,89.0,51.17899999999999,23.235564329724536
Q1220,2025-06-03 16:00:00,30.7003,114.4181,29,武汉市,武湖,江岸区,1005.0,23.4,84.0,45.75650000000009,24.16940618454243
Q1221,2025-06-03 16:00:00,30.7122,114.3606,17.3,武汉市,滠口,黄陂区,1004.3,23.1,86.0,46.248500000000014,24.30003215890955
Q1222,2025-06-03 16:00:00,30.7164,114.4722,28,武汉市,农科院北区,江岸区,1005.1,22.1,87.0,44.48958333333329,23.133328364389527
Q1224,2025-06-03 16:00:00,31.2561,114.3842,50.2,武汉市,崇杰,黄陂区,1002.5,21.6,95.0,52.599,24.500393088544936
Q1225,2025-06-03 16:00:00,31.1831,114.3153,65.1,武汉市,梅店水库,黄陂区,1000.6,21.7,92.0,53.629499999999936,23.872349373893677
Q1226,2025-06-03 16:00:00,31.2664,114.2336,106.9,武汉市,道士冲,黄陂区,995.6,20.3,95.0,50.186000000000014,22.617111757452335
Q1227,2025-06-03 16:00:00,31.2417,114.2836,87.3,武汉市,姚家老屋,黄陂区,997.7,21.1,90.0,35.48199999999993,22.50983878854599
Q1228,2025-06-03 16:00:00,30.8536,114.1789,22,武汉市,双墩,黄陂区,1003.7,23.6,87.0,44.36199999999994,25.33659872503334
Q1229,2025-06-03 16:00:00,30.9553,114.1625,21.6,武汉市,红旗,黄陂区,1003.6,22.2,95.0,37.010999999999925,25.415014786782475
Q1230,2025-06-03 16:00:00,31.1272,114.4814,46.7,武汉市,同兴集,黄陂区,1001.1,21.2,94.0,52.18049999999996,23.655147954577227
Q1231,2025-06-03 16:00:00,31.1839,114.4325,61.2,武汉市,磨盘,黄陂区,999.4,21.5,91.0,44.329000000000015,23.325499142718034
Q1232,2025-06-03 16:00:00,31.1419,114.4219,73.8,武汉市,吊箭楼,黄陂区,997.9,22.9,81.0,36.04049999999998,22.611603432315402
Q1233,2025-06-03 16:00:00,31.035,114.3906,29,武汉市,卧虎,黄陂区,1003.0,21.4,94.0,45.051000000000016,23.947242148059395
Q1234,2025-06-03 16:00:00,31.0972,114.315,48.5,武汉市,院基寺水库,黄陂区,1000.8,21.7,95.0,57.40849999999997,24.650795549129338
Q1235,2025-06-03 16:00:00,31.0725,114.2422,86.4,武汉市,彭家冲,黄陂区,998.9,21.3,91.0,53.727500000000006,23.041202051342733
Q1236,2025-06-03 16:00:00,30.9511,114.4708,49,武汉市,红十月水库,黄陂区,1000.7,22.5,91.0,47.490499999999976,24.793616715488895
Q1237,2025-06-03 16:00:00,31.0414,114.3053,60.4,武汉市,北新,黄陂区,999.3,22.8,87.0,37.573999999999984,24.139685180172272
Q1238,2025-06-03 16:00:00,31.3386,114.2825,96,武汉市,余家冲水库,黄陂区,995.1,21.7,94.0,52.404833333333414,24.39131349071745
Q1239,2025-06-03 16:00:00,31.0269,114.1628,34,武汉市,官家砦,黄陂区,1002.5,22.7,90.0,52.99450000000006,24.820977897581308
Q1243,2025-06-03 16:00:00,30.9133,114.4825,21,武汉市,定正,黄陂区,1003.5,21.4,95.0,50.10200000000002,24.202000043251516
Q1244,2025-06-03 16:00:00,31.1486,114.3,62.7,武汉市,黄陂石门,黄陂区,999.7,20.5,96.0,62.39300000000002,23.1393430255204
Q1245,2025-06-03 16:00:00,31.25,114.3386,27.9,武汉市,仁和,黄陂区,1002.4,21.1,94.0,42.52349999999997,23.510276068036926
Q1246,2025-06-03 16:00:00,31.1961,114.4222,55.1,武汉市,帽子村,黄陂区,999.9,21.8,94.0,58.042999999999964,24.54093311229333
Q1247,2025-06-03 16:00:00,30.9967,114.2653,53,武汉市,白庙集,黄陂区,1002.5,22.6,91.0,34.4275,24.944788076615396
Q1248,2025-06-03 16:00:00,30.9969,114.4553,28.8,武汉市,白龙寺,黄陂区,1004.2,22.2,93.0,42.60250000000005,24.879961843902844
Q1250,2025-06-03 16:00:00,30.7614,114.1772,14.3,武汉市,童家湖,黄陂区,1004.9,23.2,88.0,45.139500000000034,25.016073121023034
Q1251,2025-06-03 16:00:00,30.9539,114.6003,55.1,武汉市,艾馆,黄陂区,999.8,22.9,84.0,51.51099999999996,23.44907022610486
Q1252,2025-06-03 16:00:00,30.8608,114.2969,43.9,武汉市,全华,黄陂区,1001.4,23.8,86.0,52.58749999999996,25.349070147028616
Q1253,2025-06-03 16:00:00,30.9294,114.3856,35.8,武汉市,下店,黄陂区,1002.4,23.1,93.0,46.1915,26.2779417532394
Q1254,2025-06-03 16:00:00,30.9661,114.2142,32.9,武汉市,黄陂郑店,黄陂区,1002.0,22.2,95.0,45.57249999999997,25.415014786782475
Q1255,2025-06-03 16:00:00,31.2994,114.4211,65.4,武汉市,茶庙,黄陂区,998.9,22.2,88.0,37.63199999999998,23.542329486703768
Q1270,2025-06-03 16:00:00,31.1797,114.2817,337.8,武汉市,木兰天池,黄陂区,971.5,20.8,85.0,45.89450000000002,20.870500685249475
Q1271,2025-06-03 16:00:00,31.1264,114.2086,122,武汉市,云雾山,黄陂区,994.4,20.7,99.0,59.26550000000001,24.158675132454945
Q1301,2025-06-03 16:00:00,30.3508,114.4364,20.5,武汉市,老屋汤,江夏区,1005.5,21.8,95.0,47.93600000000003,24.802006868807087
Q1302,2025-06-03 16:00:00,30.1533,114.2303,42,武汉市,安山,江夏区,1003.2,22.3,91.0,47.22449999999996,24.493680749479058
Q1303,2025-06-03 16:00:00,30.3481,114.1275,27.6,武汉市,金口,江夏区,1005.0,22.2,100.0,50.01250000000002,26.75264714398155
Q1304,2025-06-03 16:00:00,30.285,114.2281,32.6,武汉市,郑店,江夏区,1004.8,21.6,94.0,48.78449999999996,24.242494213928673
Q1305,2025-06-03 16:00:00,30.1131,114.1917,24,武汉市,法泗,江夏区,1005.1,24.3,90.0,44.156499999999994,27.337461762693824
Q1306,2025-06-03 16:00:00,30.3058,114.4239,38.2,武汉市,五里界,江夏区,1003.7,21.5,95.0,52.79049999999994,24.35079580833201
Q1307,2025-06-03 16:00:00,30.0333,114.3808,40,武汉市,山坡,江夏区,1002.9,20.7,92.0,47.45799999999996,22.450485981675303
Q1308,2025-06-03 16:00:00,30.0231,114.4622,40.8,武汉市,湖泗,江夏区,1003.4,20.8,94.0,52.876,23.08031840486413
Q1309,2025-06-03 16:00:00,30.1494,114.5,32.3,武汉市,舒安,江夏区,1003.8,21.2,91.0,46.06900000000007,22.900196424112
Q1310,2025-06-03 16:00:00,30.2106,114.3286,35,武汉市,乌龙泉,江夏区,1003.7,21.9,93.0,50.517500000000034,24.428682724243327
Q1311,2025-06-03 16:00:00,30.4372,114.3781,19.7,武汉市,庙山,江夏区,1005.4,22.1,91.0,44.65799999999997,24.19692966849939
Q1313,2025-06-03 16:00:00,30.2603,114.4494,22.8,武汉市,梁子湖,江夏区,1005.5,23.0,95.0,44.127000000000045,26.68099132892297
Q1314,2025-06-03 16:00:00,30.3864,114.38,22,武汉市,庙山天玺湾,江夏区,1005.6,22.8,88.0,35.761500000000055,24.417152825921377
Q1316,2025-06-03 16:00:00,30.3872,114.3056,26,武汉市,中央大公园,江夏区,1005.4,22.4,95.0,39.34649999999995,25.726468544075324
Q1317,2025-06-03 16:00:00,30.3178,114.2592,28,武汉市,郑店海吉星,江夏区,1005.3,21.1,95.0,55.507000000000055,23.760385387909658
Q1318,2025-06-03 16:00:00,30.3278,114.3869,27,武汉市,五里界锦绣,江夏区,1003.8,21.0,96.0,59.2705,23.863335713058383
Q1319,2025-06-03 16:00:00,30.1294,114.4775,35,武汉市,舒安未来家园,江夏区,1005.3,22.2,89.0,48.93950000000001,23.809855958143583
Q1320,2025-06-03 16:00:00,30.005,114.5111,55,武汉市,湖泗祝祠,江夏区,1002.9,20.9,95.0,50.52899999999999,23.469916600787812
Q1321,2025-06-03 16:00:00,30.0417,114.5383,49,武汉市,舒安嗣孟,江夏区,1003.5,20.8,98.0,53.75550000000004,24.06245961358175
Q1322,2025-06-03 16:00:00,30.2406,114.3142,66,武汉市,乌龙泉茗泉谷,江夏区,1001.8,21.6,92.0,52.468500000000056,23.72669646469615
Q1323,2025-06-03 16:00:00,30.0956,114.3458,24,武汉市,山坡光星,江夏区,1005.7,20.5,99.0,44.7255000000001,23.862447495067915
Q1324,2025-06-03 16:00:00,30.2308,114.4347,24,武汉市,乌龙泉杨湖,江夏区,1005.6,20.9,95.0,52.79050000000004,23.469916600787812
Q1325,2025-06-03 16:00:00,30.2164,114.0742,24,武汉市,金口南岸,江夏区,1005.7,23.1,91.0,42.063499999999934,25.712824726288016
Q1326,2025-06-03 16:00:00,30.2019,114.1539,21,武汉市,金水花篮棚,江夏区,1005.7,23.6,90.0,38.55599999999994,26.210274543137935
Q1327,2025-06-03 16:00:00,30.2031,114.1856,23,武汉市,法泗花莲湖,江夏区,1005.6,23.5,93.0,41.72150000000007,26.921038414716605
Q1328,2025-06-03 16:00:00,30.3664,114.3228,23,武汉市,东湖路学校,江夏区,1005.4,24.0,79.0,39.64050000000002,23.567709008063353
Q1329,2025-06-03 16:00:00,30.2903,114.0978,21.1,武汉市,金口长江,江夏区,1005.4,22.0,96.0,42.891999999999996,25.371153719199455
Q1330,2025-06-03 16:00:00,30.2444,114.1503,23.7,武汉市,马蹄口,江夏区,1005.4,22.9,92.0,41.008999999999915,25.68231500954342
Q1331,2025-06-03 16:00:00,30.2861,114.1775,43.3,武汉市,三门口,江夏区,1003.0,21.7,85.0,38.559500000000064,22.05597496501046
Q1332,2025-06-03 16:00:00,30.1914,114.4686,20.9,武汉市,塘口,江夏区,1005.6,22.4,97.0,40.643499999999925,26.26807840816112
Q1333,2025-06-03 16:00:00,30.1481,114.36,34.1,武汉市,三合,江夏区,1004.1,21.7,95.0,52.15799999999996,24.650795549129338
Q1334,2025-06-03 16:00:00,30.1872,114.3167,41,武汉市,乌龙泉五星,江夏区,1003.3,21.1,96.0,51.5216666666667,24.01049470778239
Q1335,2025-06-03 16:00:00,30.0183,114.25,21.7,武汉市,邓家洲,江夏区,1005.5,23.1,83.0,43.03099999999999,23.452356618482476
Q1336,2025-06-03 16:00:00,30.0481,114.3033,35.5,武汉市,前途,江夏区,1004.0,20.8,96.0,50.79450000000007,23.571389009222937
Q1337,2025-06-03 16:00:00,30.2183,114.2303,28.3,武汉市,涂洲,江夏区,1004.7,21.6,95.0,51.73349999999994,24.500393088544936
Q1338,2025-06-03 16:00:00,30.1039,114.2444,31.2,武汉市,合心,江夏区,1004.5,20.7,96.0,54.724999999999994,23.426594067835097
Q1339,2025-06-03 16:00:00,30.1778,114.3586,32.5,武汉市,沿湖,江夏区,1004.3,20.8,95.0,53.78100000000004,23.32585370704353
Q1340,2025-06-03 16:00:00,30.2194,114.3758,21.5,武汉市,长岭,江夏区,1005.5,21.1,98.0,54.36349999999994,24.510713347527858
Q1341,2025-06-03 16:00:00,30.1742,114.5003,39.8,武汉市,祝庙,江夏区,1003.4,21.7,94.0,48.777,24.39131349071745
Q1342,2025-06-03 16:00:00,30.0381,114.4119,39.1,武汉市,陈六,江夏区,1003.6,20.7,96.0,53.14724999999992,23.426594067835097
Q1343,2025-06-03 16:00:00,30.3275,114.1272,27.9,武汉市,金口花园,江夏区,1004.8,22.5,94.0,48.278999999999925,25.610988695120394
Q1344,2025-06-03 16:00:00,30.1744,114.2619,26.9,武汉市,安山青春,江夏区,1004.9,21.0,97.0,58.55749999999996,24.111912126736073
Q1345,2025-06-03 16:00:00,30.1472,114.3175,41.3,武汉市,安山英雄,江夏区,1003.3,20.8,95.0,53.02300000000007,23.32585370704353
Q1346,2025-06-03 16:00:00,30.0914,114.3069,40.7,武汉市,周李家,江夏区,1003.4,21.6,88.0,51.72166666666668,22.6951009662311
Q1347,2025-06-03 16:00:00,30.2844,114.3825,35.2,武汉市,狮子山,江夏区,1003.8,21.3,95.0,51.36100000000005,24.054002141511642
Q1348,2025-06-03 16:00:00,30.3039,114.1303,26,武汉市,凉亭,江夏区,1005.3,23.0,88.0,38.765999999999956,24.715023546791805
Q1349,2025-06-03 16:00:00,30.3728,114.1886,24.9,武汉市,金港,江夏区,1005.2,21.9,91.0,47.279500000000006,23.903334708668204
Q1350,2025-06-03 16:00:00,30.0536,114.2386,22.2,武汉市,山坡东方红,江夏区,1005.5,22.2,93.0,45.83849999999998,24.879961843902844
Q1351,2025-06-03 16:00:00,30.1067,114.4064,42.6,武汉市,新生,江夏区,1003.3,21.9,85.0,35.04779999999998,22.327290661942826
Q1352,2025-06-03 16:00:00,30.0669,114.4333,38.5,武汉市,官堤,江夏区,1003.7,20.8,94.0,53.213,23.08031840486413
Q1353,2025-06-03 16:00:00,30.3608,114.2928,262,武汉市,八分山,江夏区,978.2,23.7,63.0,35.69349999999995,18.45813636951795
Q1354,2025-06-03 16:00:00,30.4092,114.3656,20.7,武汉市,普生园,江夏区,1004.2,23.6,79.0,42.593999999999966,23.006796543421075
Q1401,2025-06-03 16:00:00,30.7736,114.0089,20.9,武汉市,东山,东西湖区,1005.5,22.4,84.0,46.76649999999999,22.747614291603444
Q1402,2025-06-03 16:00:00,30.7692,114.1272,33.6,武汉市,柏泉,东西湖区,1004.5,22.3,88.0,37.77183333333336,23.686196768727
Q1403,2025-06-03 16:00:00,30.7053,114.0806,21,武汉市,郁金香公园,东西湖区,1005.6,21.6,96.0,40.46150000000002,24.7582919631612
Q1404,2025-06-03 16:00:00,30.6506,114.0136,13,武汉市,走马岭,东西湖区,1005.0,23.1,86.0,41.38799999999999,24.30003215890955
Q1405,2025-06-03 16:00:00,30.7461,113.9286,31.3,武汉市,辛安渡,东西湖区,1005.2,22.0,95.0,59.53962500000002,25.106870867957795
Q1406,2025-06-03 16:00:00,30.6808,114.1228,23,武汉市,径河,东西湖区,1004.9,23.4,89.0,50.25249999999998,25.60806131457472
Q1407,2025-06-03 16:00:00,30.6642,114.2636,16,武汉市,将军路,东西湖区,1004.9,22.6,90.0,44.95183333333336,24.670669526322914
Q1408,2025-06-03 16:00:00,30.7228,114.145,25,武汉市,杜公湖,东西湖区,1005.3,23.7,89.0,49.047999999999945,26.07577995058885
Q1410,2025-06-03 16:00:00,30.6897,113.9931,22,武汉市,新沟,东西湖区,1005.3,21.6,93.0,36.70049999999999,23.984595339312413
Q1411,2025-06-03 16:00:00,30.6919,114.1892,32,武汉市,塔尔头,东西湖区,1005.2,22.4,95.0,46.213499999999996,25.726468544075324
Q1412,2025-06-03 16:00:00,30.6422,114.1814,23,武汉市,金银湖,东西湖区,1005.2,23.2,84.0,45.786,23.87897888824926
Q1413,2025-06-03 16:00:00,30.7642,113.9464,32,武汉市,红星合作社,东西湖区,1005.4,21.7,97.0,53.88650000000009,25.169759665953112
Q1501,2025-06-03 16:00:00,30.3908,113.7656,21,武汉市,成功闸,蔡甸区,1005.0,23.6,87.0,49.224500000000006,25.33659872503334
Q1502,2025-06-03 16:00:00,30.5081,114.0531,30,武汉市,大集,蔡甸区,1004.4,23.4,83.0,43.74600000000002,23.881675158535977
Q1503,2025-06-03 16:00:00,30.5236,113.8964,41.3,武汉市,索河,蔡甸区,1003.4,22.1,93.0,46.384499999999996,24.72873032055432
Q1504,2025-06-03 16:00:00,30.3917,113.9786,35,武汉市,桐湖农场,蔡甸区,1005.2,23.1,88.0,48.76000000000001,24.865149185860936
Q1506,2025-06-03 16:00:00,30.3169,113.7728,27,武汉市,消泗,蔡甸区,1005.4,22.5,92.0,42.72849999999998,25.066074042032728
Q1507,2025-06-03 16:00:00,30.4617,113.9281,48.6,武汉市,永安,蔡甸区,1002.5,22.8,83.0,40.86850000000005,23.029814597175847
Q1509,2025-06-03 16:00:00,30.4297,114.0436,31.3,武汉市,奓山,蔡甸区,1004.1,23.3,86.0,46.902499999999954,24.59580352054769
Q1510,2025-06-03 16:00:00,30.4525,113.8792,26.5,武汉市,侏儒,蔡甸区,1005.0,22.5,94.0,51.943999999999996,25.610988695120394
Q1512,2025-06-03 16:00:00,30.3242,113.8619,25,武汉市,沉湖湿地,蔡甸区,1004.8,22.6,93.0,45.7245,25.493025177200348
Q1513,2025-06-03 16:00:00,30.4078,114.0333,37.2,武汉市,千子山,蔡甸区,1003.6,23.3,86.0,46.407999999999944,24.59580352054769
Q1514,2025-06-03 16:00:00,30.4839,113.9544,122,武汉市,九真山,蔡甸区,994.0,20.9,98.0,52.938999999999986,24.211071861865324
Q1515,2025-06-03 16:00:00,30.4467,114.0142,27.3,武汉市,绿茵园,蔡甸区,1004.7,23.2,90.0,47.70949999999999,25.584620237409922
Q1516,2025-06-03 16:00:00,30.4086,113.8017,21.5,武汉市,时光农场,蔡甸区,1005.3,22.7,98.0,55.981500000000004,27.02728704403298
Q1517,2025-06-03 16:00:00,30.4275,113.9525,22.7,武汉市,农耕园,蔡甸区,1005.3,21.8,98.0,45.53200000000001,25.585228138348366
Q1518,2025-06-03 16:00:00,30.4956,114.0656,32.4,武汉市,花博汇,蔡甸区,1005.5,21.4,92.0,36.265,23.437726357675153
Q1519,2025-06-03 16:00:00,30.5394,113.9619,32,武汉市,鸽翅岭,蔡甸区,1004.1,21.4,93.0,39.39350000000001,23.692484252867274
Q1520,2025-06-03 16:00:00,30.4989,113.9781,22.3,武汉市,景秀大地,蔡甸区,1005.3,21.5,94.0,39.245499999999986,24.094471641928514
Q1521,2025-06-03 16:00:00,30.4289,113.7733,23.2,武汉市,七沟,蔡甸区,1005.1,23.0,92.0,53.775499999999965,25.838433708009617
Q1522,2025-06-03 16:00:00,30.5133,113.8858,27.1,武汉市,香草花田,蔡甸区,1004.7,21.1,96.0,33.888500000000015,24.01049470778239
Q1523,2025-06-03 16:00:00,30.54,113.9247,22.2,武汉市,金龙水寨,蔡甸区,1005.2,22.3,88.0,36.78800000000002,23.686196768727
Q1524,2025-06-03 16:00:00,30.6244,113.9264,24.8,武汉市,谢八家,蔡甸区,1004.8,22.7,92.0,47.9115,25.372555184194226
Q1525,2025-06-03 16:00:00,30.5567,113.9353,23.3,武汉市,蔡甸野生动物王国,蔡甸区,1005.1,22.4,95.0,46.92750000000001,25.726468544075324
Q1526,2025-06-03 16:00:00,30.5292,114.0256,21.5,武汉市,长江大学,蔡甸区,1005.4,23.4,92.0,37.53200000000003,26.471254392594094
Q1527,2025-06-03 16:00:00,30.6311,113.9797,26.1,武汉市,蔡甸汉江堤防,蔡甸区,1004.7,23.0,87.0,39.47199999999996,24.434171006487354
Q1528,2025-06-03 16:00:00,30.5306,114.0786,24.3,武汉市,后官湖湿地公园,蔡甸区,1005.1,22.8,94.0,56.71449999999991,26.081958700416017
Q1529,2025-06-03 16:00:00,30.3156,113.8164,23.3,武汉市,张家大湖,蔡甸区,1005.3,22.9,96.0,54.99375000000002,26.798937401262695
Q1599,2025-06-03 16:00:00,30.5664,114.0289,17.8,武汉市,孙家畈,蔡甸区,1005.0,22.4,88.0,35.45500000000002,23.83083401977504
Q1701,2025-06-03 16:00:00,30.4017,114.4189,30,武汉市,藏龙岛,江夏区,1004.8,21.7,96.0,49.3395,24.910277607541225
Q1702,2025-06-03 16:00:00,30.5039,114.4608,40,武汉市,东湖高新射击场,洪山区,1004.0,21.0,84.0,33.89900000000001,20.880418748926086
Q1703,2025-06-03 16:00:00,30.5972,114.3886,30,武汉市,武汉欢乐谷,洪山区,1005.3,23.4,81.0,44.18750000000004,23.30621310652306
Q1704,2025-06-03 16:00:00,30.57,114.39,30,武汉市,东湖湖心亭,武昌区,1005.3,23.5,90.0,38.66699999999995,26.052617820693488
Q1706,2025-06-03 16:00:00,30.6508,114.3919,30,武汉市,青山沙排中心,青山区,1004.8,23.2,100.0,56.286499999999926,28.427355819344356
Q1707,2025-06-03 16:00:00,30.5,114.5006,50,武汉市,驿山高尔夫,洪山区,1001.3,21.8,65.0,24.55399999999999,16.969794173394323
Q1708,2025-06-03 16:00:00,30.5094,114.4117,40,武汉市,华科,武昌区,1004.0,22.9,75.0,41.22666666666666,20.936669844736482
Q1709,2025-06-03 16:00:00,30.4739,114.4547,40,武汉市,省奥体中心,市辖区,1002.8,23.5,79.0,44.86400000000001,22.868408975942064
Q1710,2025-06-03 16:00:00,30.5489,114.3281,30,武汉市,洪山体育馆,武昌区,1003.8,24.0,74.0,35.75950000000001,22.07608185565428
Q1711,2025-06-03 16:00:00,30.5219,114.3725,30,武汉市,武汉体育学院,洪山区,1005.0,23.9,72.0,42.10500000000002,21.3506156594545
Q1712,2025-06-03 16:00:00,30.5383,114.3511,30,武汉市,武大,武昌区,1005.1,23.3,76.0,43.73300000000008,21.735826366995635
Q1713,2025-06-03 16:00:00,30.4508,114.4231,30,武汉市,武汉软件职院,市辖区,1004.1,23.6,95.0,42.962999999999994,27.6664009066456
Q1714,2025-06-03 16:00:00,30.5058,114.325,30,武汉市,武汉理工大学,洪山区,1005.4,24.4,75.0,41.06900000000003,22.918253326334497
Q1715,2025-06-03 16:00:00,30.4414,114.3086,20,武汉市,武汉城市职院,洪山区,1005.6,23.5,98.0,47.887499999999925,28.368406071421802
Q1716,2025-06-03 16:00:00,30.5061,114.1683,30,武汉市,武汉体育中心,汉南区,1005.4,23.8,81.0,44.500499999999974,23.875286998945562
Q1717,2025-06-03 16:00:00,30.4664,114.08,30,武汉市,武汉商学院,汉南区,1005.3,22.5,100.0,53.84200000000001,27.2457326543834
Q1718,2025-06-03 16:00:00,30.5208,114.1497,30,武汉市,江汉大学,汉南区,1005.3,23.3,90.0,50.33149999999996,25.73979438196851
Q1720,2025-06-03 16:00:00,30.6472,114.2831,30,武汉市,全民健身中心,江岸区,1005.6,23.7,80.0,47.76649999999997,23.438903326372
Q1721,2025-06-03 16:00:00,30.6028,114.2636,30,武汉市,汉口文体中心,江汉区,1005.5,24.0,91.0,47.29000000000002,27.147614173845135
Q1722,2025-06-03 16:00:00,30.5017,114.2308,30,武汉市,汉阳沙排中心,汉阳区,1004.8,23.1,92.0,49.10849999999998,25.995383239763708
Q1723,2025-06-03 16:00:00,30.3978,114.1156,40,武汉市,军山,汉南区,1003.3,22.8,100.0,50.51250000000001,27.746764574910657
Q1724,2025-06-03 16:00:00,30.4764,113.9647,60,武汉市,蔡甸国防园,蔡甸区,1002.0,21.1,94.0,46.310999999999986,23.510276068036926
Q1725,2025-06-03 16:00:00,31.1183,114.4642,50,武汉市,海工大木兰校区,黄陂区,1002.2,22.4,100.0,55.62999999999999,27.080493204289816
Q1726,2025-06-03 16:00:00,30.6378,114.1269,20,武汉市,体育中心,东西湖区,1004.5,23.6,77.0,39.72850000000003,22.424345998018012
Q1727,2025-06-03 16:00:00,30.5425,114.3689,30,武汉市,东湖帆船基地,武昌区,1005.6,22.5,86.0,47.841499999999975,23.431330082769723
Q1728,2025-06-03 16:00:00,30.4408,114.2756,20,武汉市,雷神山,江夏区,1005.5,24.0,88.0,37.94649999999994,26.252637882399686
Q1729,2025-06-03 16:00:00,30.1603,114.1839,47,武汉市,桂子米业,江夏区,1003.1,23.0,91.0,45.57399999999996,25.557581167705166
Q1730,2025-06-03 16:00:00,30.1494,114.4292,40,武汉市,天子山教育基地,江夏区,1004.0,21.3,99.0,50.09649999999996,25.066802231680555
Q1745,2025-06-03 16:00:00,30.5631,114.07,22.1,武汉市,中法生态城,蔡甸区,1005.0,23.0,87.0,39.257999999999974,24.434171006487354
Q1752,2025-06-03 16:00:00,30.6517,114.2239,35,武汉市,马池路,东西湖区,1005.2,24.1,89.0,48.17233333333327,26.711033983572598
Q1753,2025-06-03 16:00:00,30.4872,114.4561,50,武汉市,高新大道,市辖区,1002.1,21.5,78.0,36.24024999999999,19.993284979472598
Q1754,2025-06-03 16:00:00,30.6575,114.4003,60,武汉市,天兴洲大桥,洪山区,1000.0,25.6,62.0,39.65199999999997,20.352409317456356
Q1755,2025-06-03 16:00:00,30.5811,114.2161,35,武汉市,知音桥,硚口区,1004.1,24.6,78.0,42.47099999999996,24.122269877203294
Q1756,2025-06-03 16:00:00,30.5656,114.2783,15,武汉市,晴川桥,硚口区,1003.4,25.1,73.0,46.13849999999995,23.26059508243501
Q1759,2025-06-03 16:00:00,30.6036,114.3217,20,武汉市,长江二桥,江岸区,1001.6,25.2,64.0,35.66816666666661,20.51478733009884
Q1760,2025-06-03 16:00:00,30.6294,114.3394,25,武汉市,二七长江大桥,江岸区,1001.0,25.7,58.0,35.60850000000006,19.152770554230383
Q1761,2025-06-03 16:00:00,30.5069,114.2625,30,武汉市,杨泗港长江大桥,汉阳区,1000.6,25.2,66.0,35.636,21.155874434164428
Q1762,2025-06-03 16:00:00,30.5339,114.2764,40,武汉市,鹦鹉洲大桥,汉阳区,1001.5,25.2,69.0,38.618499999999976,22.11750509026281
Q1763,2025-06-03 16:00:00,30.5872,114.1797,25,武汉市,古田桥,硚口区,1003.3,24.9,74.0,31.570499999999956,23.29945298073383
Q1764,2025-06-03 16:00:00,30.5644,114.2483,35,武汉市,月湖桥,硚口区,1003.8,24.5,74.0,43.26949999999999,22.74859617028229
Q1765,2025-06-03 16:00:00,30.5286,114.3831,11,武汉市,八一路延长线,市辖区,1004.4,23.7,72.0,39.72300000000005,21.095012993734798
Q1766,2025-06-03 16:00:00,30.6058,114.43,20,武汉市,青化立交,洪山区,1003.8,23.8,68.0,32.39200000000001,20.04345081392961
Q1767,2025-06-03 16:00:00,30.6017,114.41,22,武汉市,欢乐大道,市辖区,1004.1,24.6,70.0,36.48450000000002,21.64819091543885
Q1768,2025-06-03 16:00:00,30.6386,114.2514,26,武汉市,姑嫂树立交,东西湖区,1003.5,25.3,68.0,36.580999999999975,21.92719685272226
Q1769,2025-06-03 16:00:00,30.5097,114.3594,18,武汉市,楚康路出口,洪山区,1003.8,24.8,74.0,39.905499999999904,23.160655602199974
Q1770,2025-06-03 16:00:00,30.6083,114.2083,22,武汉市,长丰大道,硚口区,1004.0,24.4,71.0,38.79049999999996,21.695946482263327
Q1771,2025-06-03 16:00:00,30.4992,114.4108,27,武汉市,雄楚大道光谷大道入口,洪山区,1001.8,25.3,57.0,30.43049999999996,18.380150303017185
Q1772,2025-06-03 16:00:00,30.505,114.2844,22,武汉市,白沙洲大道高架,洪山区,1004.4,24.7,75.0,38.94949999999997,23.333698455142983
Q1773,2025-06-03 16:00:00,30.4556,114.3156,6,武汉市,野芷湖立交线,洪山区,1005.5,23.6,90.0,37.08699999999995,26.210274543137935
Q1774,2025-06-03 16:00:00,30.46,114.3883,7,武汉市,庙山立交,江夏区,1003.8,22.5,91.0,48.995000000000054,24.793616715488895
Q1775,2025-06-03 16:00:00,30.5186,114.1814,17,武汉市,汪家咀立交,汉阳区,1003.7,24.9,85.0,46.348833333333324,26.762885180572642
Q1776,2025-06-03 16:00:00,30.5147,114.2403,21,武汉市,四新北路,汉阳区,1004.2,24.3,77.0,42.24500000000006,23.388717285860274
Q1778,2025-06-03 16:00:00,30.5103,114.4556,8,武汉市,老武黄立交,市辖区,1003.1,21.9,79.0,33.59924999999997,20.751246615217447
Q1779,2025-06-03 16:00:00,30.4628,114.2886,13,武汉市,青菱立交,洪山区,1004.6,24.2,87.0,44.95562500000002,26.2680849945613
Q1780,2025-06-03 16:00:00,30.4244,114.3781,25,武汉市,汤逊湖大桥,江夏区,1005.5,24.8,82.0,43.21,25.664510261897266
Q2004,2025-06-03 16:00:00,32.6525,110.7253,336.4,十堰市,红卫,张湾区,969.5,20.8,87.0,29.390500000000028,21.36157128960829
Q2022,2025-06-03 16:00:00,32.4628,110.7172,643.8,十堰市,小川,茅箭区,937.2,16.3,92.0,35.91400000000002,17.038888816506592
Q2023,2025-06-03 16:00:00,32.6861,110.5586,186.4,十堰市,黄龙,张湾区,986.0,21.5,89.0,44.42000000000001,22.81285080991104
Q2031,2025-06-03 16:00:00,32.4253,111.0228,851,十堰市,紫霄宫,丹江口市,914.5,19.0,66.0,29.178,14.493641506748764
Q2032,2025-06-03 16:00:00,32.4308,111.0567,588,十堰市,八仙观,丹江口市,944.7,22.0,63.0,28.040000000000024,16.649819628224645
Q2033,2025-06-03 16:00:00,32.4489,111.0708,558,十堰市,太子坡,丹江口市,946.1,21.5,74.0,36.502499999999934,18.967988313858616
Q2034,2025-06-03 16:00:00,32.4978,111.0942,396,十堰市,元和观,丹江口市,962.3,23.1,59.0,28.811000000000035,16.670952295065856
Q2050,2025-06-03 16:00:00,32.6017,110.7742,310,十堰市,火车站小学,茅箭区,973.3,22.1,65.0,26.938,17.28352119178528
Q2204,2025-06-03 16:00:00,32.7708,111.1592,253.1,十堰市,习家店,丹江口市,978.5,19.3,91.0,41.700500000000005,20.361095990227977
Q2205,2025-06-03 16:00:00,32.7553,111.3811,297,十堰市,石鼓,丹江口市,973.5,24.5,63.0,32.58400000000006,19.367048090916008
Q2206,2025-06-03 16:00:00,32.4447,111.2453,186,十堰市,丁家营,丹江口市,986.6,19.7,96.0,44.447000000000024,22.021002278855697
Q2236,2025-06-03 16:00:00,32.5219,111.0364,179.1,十堰市,蒿口新村,丹江口市,987.1,21.5,85.0,40.033499999999975,21.78755414429706
Q2261,2025-06-03 16:00:00,32.3306,111.1797,503.1,十堰市,马鞍山,丹江口市,951.9,18.3,87.0,24.430000000000014,18.286025486261106
Q2266,2025-06-03 16:00:00,32.5486,111.5125,133.4,十堰市,大坝街道,丹江口市,992.0,22.8,89.0,46.68899999999996,24.694620471670486
Q2309,2025-06-03 16:00:00,32.7992,110.8847,212.2,十堰市,茶店,郧阳区,983.5,21.2,87.0,38.875500000000045,21.893594383491692
Q2324,2025-06-03 16:00:00,32.8525,111.0044,221,十堰市,安阳,郧阳区,981.4,20.7,87.0,40.3925,21.23035087397556
Q2326,2025-06-03 16:00:00,32.8278,110.3708,193.5,十堰市,五峰,郧阳区,986.4,20.7,86.0,33.82083333333333,20.986323852435607
Q2334,2025-06-03 16:00:00,33.0756,110.735,834.7,十堰市,塘上,郧阳区,916.0,13.7,89.0,25.459499999999995,13.942328258254884
Q2350,2025-06-03 16:00:00,32.8653,110.6186,244.8,十堰市,韩家沟,郧阳区,981.0,19.2,87.0,30.885500000000015,19.345160949932744
Q2353,2025-06-03 16:00:00,32.5125,110.4669,537.4,十堰市,毛河,郧阳区,948.4,19.6,89.0,32.88999999999998,20.288849164237263
Q2401,2025-06-03 16:00:00,33.0742,110.0211,273.4,十堰市,上津,郧西县,978.0,19.7,83.0,38.683499999999945,19.038991553593988
Q2402,2025-06-03 16:00:00,33.0053,110.2311,374.2,十堰市,马安,郧西县,966.7,17.5,93.0,40.17499999999991,18.586833876561847
Q2403,2025-06-03 16:00:00,33.0589,110.3233,364.3,十堰市,土门,郧西县,967.3,19.6,87.0,33.811,19.8329199695353
Q2405,2025-06-03 16:00:00,32.9978,110.0711,264.9,十堰市,六郎,郧西县,975.8,20.1,79.0,31.153499999999987,18.57660020173435
Q2409,2025-06-03 16:00:00,33.1683,110.5619,838.1,十堰市,三官,郧西县,915.9,13.0,94.0,25.932000000000006,14.068442995492164
Q2411,2025-06-03 16:00:00,33.2025,109.9003,794,十堰市,槐树,郧西县,921.1,18.5,65.0,24.598500000000016,13.83445162228622
Q2423,2025-06-03 16:00:00,32.9303,110.5283,273,十堰市,河夹,郧西县,974.7,19.1,86.0,32.18349999999996,19.00390366705638
Q2424,2025-06-03 16:00:00,33.1942,109.575,890.6,十堰市,湖北口,郧西县,911.1,14.8,88.0,25.69050000000001,14.80361368907238
Q2433,2025-06-03 16:00:00,33.1864,109.75,640,十堰市,包耳场,郧西县,937.9,16.3,94.0,29.25899999999995,17.409299442952385
Q2502,2025-06-03 16:00:00,32.2775,110.6972,669.3,十堰市,土城,房县,934.5,17.7,96.0,40.064499999999995,19.43012816856887
Q2503,2025-06-03 16:00:00,32.1378,111.0931,843.6,十堰市,沙河,房县,915.6,19.3,76.0,22.52650000000001,17.004871376454133
Q2504,2025-06-03 16:00:00,32.2108,110.9142,711.4,十堰市,卧牛观,房县,929.8,17.5,92.0,34.802800000000055,18.386975447781616
Q2505,2025-06-03 16:00:00,32.0058,110.4417,624.2,十堰市,门古寺,房县,939.6,18.8,93.0,41.56449999999996,20.16920351624428
Q2507,2025-06-03 16:00:00,32.0336,110.6253,495.7,十堰市,军店,房县,953.1,19.6,85.0,49.06350000000001,19.376990774833338
Q2509,2025-06-03 16:00:00,32.0064,110.28,795.4,十堰市,中坝,房县,920.4,18.4,85.0,52.52566666666669,17.978120878669028
Q2524,2025-06-03 16:00:00,31.9419,110.9697,415,十堰市,三里坪,房县,962.1,19.5,95.0,40.88850000000001,21.52239104852971
Q2528,2025-06-03 16:00:00,32.0997,110.7728,464.5,十堰市,白鹤,房县,956.6,19.3,90.0,35.341999999999956,20.137347682643053
Q2530,2025-06-03 16:00:00,32.1044,110.5331,563.7,十堰市,汪家河,房县,945.9,18.6,85.0,38.98700000000003,18.20491527212013
Q2532,2025-06-03 16:00:00,32.3347,110.3903,265,十堰市,对寺河,房县,980.0,20.2,89.0,40.491000000000014,21.058011893405624
Q2546,2025-06-03 16:00:00,31.9833,110.7353,737,十堰市,南潭,房县,927.2,17.0,96.0,36.15300000000004,18.588826161454165
Q2548,2025-06-03 16:00:00,32.2303,110.7133,592.3,十堰市,白鸡,房县,942.7,17.8,93.0,37.88700000000001,18.941973108824772
Q2559,2025-06-03 16:00:00,31.8842,110.7753,1359,十堰市,东蒿,房县,862.9,13.0,94.0,26.94300000000002,14.068442995492164
Q2605,2025-06-03 16:00:00,31.7169,110.0508,523.7,十堰市,柳林,竹山县,952.0,18.9,91.0,41.54199999999994,19.85921676359638
Q2623,2025-06-03 16:00:00,32.4331,109.82,580.3,十堰市,秦古,竹山县,944.2,19.8,88.0,44.32899999999995,20.31163638575722
Q2624,2025-06-03 16:00:00,32.3533,109.9286,513.9,十堰市,擂鼓,竹山县,951.4,19.3,96.0,41.57350000000004,21.47983752815259
Q2626,2025-06-03 16:00:00,32.2786,110.0842,508.8,十堰市,溢水,竹山县,951.8,20.4,87.0,43.240500000000026,20.840922293593877
Q2628,2025-06-03 16:00:00,32.1117,110.2306,361,十堰市,深河,竹山县,968.8,19.4,93.0,45.8965,20.938584202629794
Q2655,2025-06-03 16:00:00,32.23,110.1844,273.8,十堰市,潘口,竹山县,977.9,20.0,93.0,41.172500000000085,21.73360824767992
Q2676,2025-06-03 16:00:00,32.2256,110.2261,307,十堰市,北大街,竹山县,974.3,21.1,91.0,46.67850000000004,22.759948108418726
Q2701,2025-06-03 16:00:00,32.3569,109.6453,563.6,十堰市,龙坝,竹溪县,945.7,19.1,86.0,39.49044999999997,19.00390366705638
Q2721,2025-06-03 16:00:00,32.0428,109.6986,849.5,十堰市,泉溪,竹溪县,915.7,16.7,100.0,53.761999999999986,18.99810753623445
Q2745,2025-06-03 16:00:00,32.1683,109.5989,655.4,十堰市,界牌沟,竹溪县,937.6,18.3,88.0,50.07899999999992,18.496209687252612
Q2748,2025-06-03 16:00:00,31.9983,109.7814,498.9,十堰市,天宝,竹溪县,952.0,18.3,97.0,41.578500000000005,20.38786749617617
Q2757,2025-06-03 16:00:00,31.8119,109.7686,1063.6,十堰市,高子河,竹溪县,894.4,14.8,100.0,55.77076666666667,16.822288283036794
Q2903,2025-06-03 16:00:00,31.5953,110.8861,716.7,省直辖县级行政区划,新华,神农架林区,930.2,17.5,89.0,35.20900000000004,17.787400161440907
Q2906,2025-06-03 16:00:00,31.5622,110.5533,1398.1,省直辖县级行政区划,徐家庄,神农架林区,859.8,12.3,94.0,27.245500000000007,13.437250255491552
Q2910,2025-06-03 16:00:00,31.4828,110.3786,1245,省直辖县级行政区划,木鱼,神农架林区,873.4,14.7,78.0,22.414499999999997,13.037005857417727
Q2912,2025-06-03 16:00:00,31.6119,110.3383,2597.4,省直辖县级行政区划,神农架机场,神农架林区,745.9,9.8,33.0,7.566999999999997,3.9957503344495953
Q2916,2025-06-03 16:00:00,31.4089,110.1781,1026.6,省直辖县级行政区划,板桥,神农架林区,897.6,15.0,97.0,31.113999999999947,16.52927970181082
Q2923,2025-06-03 16:00:00,31.5508,110.3911,2285,省直辖县级行政区划,牛场坪,神农架林区,773.9,9.6,65.0,9.777499999999991,7.765481325211939
Q2925,2025-06-03 16:00:00,31.4083,110.5553,699.8,省直辖县级行政区划,九冲,神农架林区,931.8,17.0,83.0,26.031999999999954,16.071589285423915
Q2933,2025-06-03 16:00:00,31.4958,109.9953,1752,省直辖县级行政区划,大九湖,神农架林区,825.3,10.8,95.0,21.29200000000001,12.297515496350252
Q2940,2025-06-03 16:00:00,31.3992,110.475,819.5,省直辖县级行政区划,红花,神农架林区,919.2,16.1,89.0,27.780999999999946,16.274296374396346
Q2950,2025-06-03 16:00:00,31.7328,110.8061,498,省直辖县级行政区划,阳日,神农架林区,953.7,18.2,84.0,34.38099999999995,17.544943301823256
Q2957,2025-06-03 16:00:00,31.5144,110.3881,1569,省直辖县级行政区划,青天袍,神农架林区,844.5,14.6,59.0,18.799999999999972,9.797861255704712
Q3005,2025-06-03 16:00:00,31.9889,112.0322,107.3,襄阳市,隆中,襄城区,995.0,20.9,94.0,36.97250000000004,23.222864847095313
Q3008,2025-06-03 16:00:00,32.0283,112.1664,68.6,襄阳市,襄阳老站,襄城区,999.6,22.9,72.0,39.42150000000002,20.099203050947022
Q3012,2025-06-03 16:00:00,32.1517,112.2992,70.1,襄阳市,刘集小学,襄州区,999.3,22.9,77.0,45.99350000000001,21.494981040596123
Q3100,2025-06-03 16:00:00,32.0631,112.2203,69.7,襄阳市,东津,襄州区,999.2,22.5,90.0,42.94549999999997,24.52115938894506
Q3101,2025-06-03 16:00:00,32.2967,112.3483,79,襄阳市,朱集,襄州区,998.8,21.3,84.0,38.29099999999995,21.268801893547135
Q3103,2025-06-03 16:00:00,31.9919,112.3706,93,襄阳市,峪山,襄州区,997.6,22.1,77.0,40.830499999999965,20.474325104114868
Q3104,2025-06-03 16:00:00,32.2089,111.9589,86,襄阳市,龙王,襄州区,996.1,22.8,80.0,49.08199999999999,22.197411659928527
Q3106,2025-06-03 16:00:00,31.9858,112.4556,84.6,襄阳市,黄龙,襄州区,995.2,22.3,75.0,38.78250000000006,20.187099518801418
Q3107,2025-06-03 16:00:00,32.3633,111.9611,110.7,襄阳市,石桥,襄州区,994.6,23.2,74.0,35.011499999999955,21.036243306314823
Q3108,2025-06-03 16:00:00,32.2664,112.4508,114.6,襄阳市,程河,襄州区,995.4,23.7,69.0,32.113500000000016,20.216054118995846
Q3109,2025-06-03 16:00:00,32.1878,112.1847,108.3,襄阳市,伙牌,襄州区,995.0,23.0,69.0,41.08299999999999,19.37882528100721
Q3112,2025-06-03 16:00:00,32.0886,112.1903,65.4,襄阳市,张湾,襄州区,999.7,24.0,76.0,38.00900000000004,22.67273271661791
Q3113,2025-06-03 16:00:00,32.3253,112.1328,142.2,襄阳市,黄集,襄州区,991.3,23.9,65.0,31.179166666666706,19.27486135922976
Q3202,2025-06-03 16:00:00,31.9703,112.75,167.5,襄阳市,枣阳吴店,枣阳市,988.3,23.7,64.0,23.298000000000012,18.751122661097597
Q3203,2025-06-03 16:00:00,32.2017,112.5589,131,襄阳市,七方,枣阳市,992.3,23.6,69.0,33.87149999999999,20.09454381640575
Q3206,2025-06-03 16:00:00,32.3414,112.9942,241.1,襄阳市,枣阳新市,枣阳市,980.1,21.3,70.0,26.26150000000002,17.724001577955946
Q3207,2025-06-03 16:00:00,32.12,112.8781,156,襄阳市,刘升榆树,枣阳市,989.2,22.0,92.0,52.172499999999935,24.314022314232812
Q3212,2025-06-03 16:00:00,32.0417,112.5906,72,襄阳市,琚湾,枣阳市,997.3,22.1,85.0,46.70549999999997,22.60152771233459
Q3217,2025-06-03 16:00:00,32.3253,112.8719,177.3,襄阳市,姚棚水库,枣阳市,987.3,21.6,87.0,50.68,22.437202091614836
Q3218,2025-06-03 16:00:00,31.8503,112.8028,140,襄阳市,唐店,枣阳市,991.3,22.0,99.0,50.93150000000001,26.16400227292444
Q3237,2025-06-03 16:00:00,31.9519,112.9217,115,襄阳市,王城,枣阳市,994.2,21.3,91.0,51.650999999999925,23.041202051342733
Q3240,2025-06-03 16:00:00,32.1411,112.7553,125.5,襄阳市,北城,枣阳市,993.2,24.1,67.0,35.82399999999999,20.108306482015326
Q3305,2025-06-03 16:00:00,32.4536,111.7536,153.1,襄阳市,老河口半店,老河口市,989.2,22.0,89.0,42.832999999999984,23.52117376050783
Q3309,2025-06-03 16:00:00,32.3367,111.7022,90,襄阳市,方营,老河口市,997.2,21.3,100.0,45.81899999999998,25.320002254222782
Q3311,2025-06-03 16:00:00,32.3472,111.6742,80.3,襄阳市,老河口黄营,老河口市,997.6,21.5,99.0,50.53550000000003,25.376092473945988
Q3314,2025-06-03 16:00:00,32.4319,111.8458,148.3,襄阳市,农垦示范园,老河口市,990.5,23.4,77.0,40.46349999999996,22.15528900249723
Q3315,2025-06-03 16:00:00,32.5408,111.6622,163.3,襄阳市,老河口黑虎山水库,老河口市,988.4,21.7,86.0,34.93949999999993,22.315457023422347
Q3317,2025-06-03 16:00:00,32.5203,111.7786,145.2,襄阳市,古城水库,老河口市,990.5,22.2,86.0,35.97899999999997,23.007276543824133
Q3318,2025-06-03 16:00:00,32.4217,111.6878,84.4,襄阳市,老河口西关,老河口市,996.4,22.0,89.0,39.12499999999997,23.52117376050783
Q3321,2025-06-03 16:00:00,32.38,111.67,90,襄阳市,老河口老站,老河口市,997.0,23.0,93.0,42.21549999999992,26.11928624831407
Q3326,2025-06-03 16:00:00,32.2931,111.7247,89,襄阳市,白鹤岗,老河口市,997.2,22.9,99.0,56.48699999999989,27.636404195052158
Q3401,2025-06-03 16:00:00,32.2931,111.3314,180,襄阳市,五山,谷城县,987.8,19.5,91.0,34.51900000000002,20.61618510964425
Q3404,2025-06-03 16:00:00,32.1678,111.4981,146.4,襄阳市,谷城南河,谷城县,990.7,22.4,77.0,29.962499999999995,20.85197976730316
Q3405,2025-06-03 16:00:00,31.9917,111.4303,518,襄阳市,赵湾,谷城县,950.9,18.4,81.0,24.161000000000023,17.13209166084931
Q3409,2025-06-03 16:00:00,32.1725,111.4061,701.7,襄阳市,薤山,谷城县,930.0,23.9,47.0,21.502000000000002,13.937207444366132
Q3413,2025-06-03 16:00:00,32.0483,111.8314,158,襄阳市,茨河,谷城县,988.9,22.4,72.0,35.55499999999999,19.497955107088668
Q3414,2025-06-03 16:00:00,32.2692,111.6333,86.6,襄阳市,谷城城关,谷城县,997.7,24.1,0.0,6.176500000000001,0.0
Q3420,2025-06-03 16:00:00,32.1342,111.3078,247.7,襄阳市,紫金,谷城县,977.2,21.0,84.0,44.738499999999966,20.880418748926086
Q3501,2025-06-03 16:00:00,31.9906,111.1233,275,襄阳市,寺坪,保康县,977.8,20.5,100.0,47.13200000000002,24.103482318250418
Q3516,2025-06-03 16:00:00,31.5581,111.3953,660,襄阳市,两峪,保康县,934.6,17.8,87.0,30.091000000000022,17.71991032761027
Q3517,2025-06-03 16:00:00,31.6419,111.1967,796,襄阳市,歇马毛家岭,保康县,919.7,19.7,71.0,26.254000000000033,16.286366268737027
Q3520,2025-06-03 16:00:00,31.4017,111.2936,997,襄阳市,保康天宝寨,保康县,899.7,18.2,66.0,24.333000000000023,13.785312594289701
Q3525,2025-06-03 16:00:00,31.4942,111.3539,292,襄阳市,马良产业园,保康县,976.2,19.6,100.0,40.71599999999995,22.796459735098047
Q3545,2025-06-03 16:00:00,31.8447,110.8022,1576,襄阳市,尧治河,保康县,841.6,16.5,58.0,23.922500000000003,10.879630299639588
Q3555,2025-06-03 16:00:00,31.68,111.0128,1064,襄阳市,团结,保康县,890.2,18.3,57.0,18.106999999999992,11.980499456515895
Q3606,2025-06-03 16:00:00,31.6647,111.9922,120,襄阳市,武镇,南漳县,993.9,21.5,100.0,54.59700000000008,25.632416640349483
Q3608,2025-06-03 16:00:00,31.3292,111.8253,183,襄阳市,东巩,南漳县,983.3,19.8,99.0,44.154500000000006,22.85059093397687
Q3617,2025-06-03 16:00:00,31.6231,111.6778,820,襄阳市,薛坪,南漳县,918.2,16.4,91.0,26.613999999999987,16.961421616459614
Q3618,2025-06-03 16:00:00,31.7775,111.5617,254,襄阳市,长坪,南漳县,981.6,19.1,94.0,35.789499999999954,20.771708659340696
Q3623,2025-06-03 16:00:00,31.5489,111.8342,343.2,襄阳市,南漳大坪,南漳县,968.9,19.8,100.0,53.14550000000001,23.081404983815023
Q3632,2025-06-03 16:00:00,31.9058,111.6194,271.6,襄阳市,赵店,南漳县,977.1,18.6,91.0,32.965000000000025,19.489968114858023
Q3641,2025-06-03 16:00:00,31.4556,111.6847,342,襄阳市,漫云,南漳县,969.0,19.5,94.0,33.610000000000014,21.295839563808343
Q3748,2025-06-03 16:00:00,31.6356,112.5942,141,襄阳市,高楼,宜城市,991.7,22.1,86.0,40.901000000000025,22.867428038362057
Q3750,2025-06-03 16:00:00,31.5681,112.2661,55,襄阳市,孔湾,宜城市,1001.2,23.6,76.0,37.28650000000004,22.13312072531648
Q3751,2025-06-03 16:00:00,31.7467,112.4303,89,襄阳市,二库,宜城市,996.9,22.1,98.0,54.260000000000055,26.05823195069165
Q3752,2025-06-03 16:00:00,31.4622,111.9878,177.5,襄阳市,小南河,宜城市,987.1,21.5,77.0,38.85850000000004,19.736960813069103
Q3760,2025-06-03 16:00:00,31.4853,112.0169,159,襄阳市,刘猴,宜城市,989.8,21.9,83.0,27.362000000000027,21.8019426463677
Q3770,2025-06-03 16:00:00,31.7736,112.0389,94,襄阳市,谭湾,宜城市,996.1,23.0,86.0,43.39799999999998,24.1533184661829
Q3782,2025-06-03 16:00:00,31.8692,112.2653,86,襄阳市,联合,宜城市,997.4,20.1,94.0,36.02549999999994,22.103802771683913
Q3792,2025-06-03 16:00:00,31.5683,112.455,62,襄阳市,流水,宜城市,1001.0,21.9,95.0,41.8039999999999,24.954030739818453
Q3802,2025-06-03 16:00:00,32.0808,113.5014,145.6,随州市,殷店,随县,991.0,19.6,94.0,32.82950000000001,21.428672150992163
Q3803,2025-06-03 16:00:00,31.6611,112.9072,154.4,随州市,洪山,随县,990.3,21.1,92.0,48.595499999999994,23.01005742829146
Q3804,2025-06-03 16:00:00,31.5336,113.2278,120,随州市,柳林,随县,993.9,21.1,95.0,44.38000000000001,23.760385387909658
Q3805,2025-06-03 16:00:00,32.0003,113.105,127.7,随州市,唐镇,随县,993.5,21.3,96.0,59.46353333333338,24.30720216405387
Q3807,2025-06-03 16:00:00,31.8839,113.3125,92,随州市,厉山,随县,997.7,23.2,91.0,55.09924999999998,25.86889379560337
Q3809,2025-06-03 16:00:00,32.3436,113.6333,153.8,随州市,淮河,随县,989.6,18.5,90.0,42.81150000000002,19.155394553934766
Q3812,2025-06-03 16:00:00,31.8386,113.5169,115,随州市,万店,曾都区,994.2,23.3,85.0,39.19649999999994,24.309805805192482
Q3815,2025-06-03 16:00:00,31.8106,113.0514,115.3,随州市,澴潭,随县,994.5,22.0,88.0,35.532499999999985,23.25689090926617
Q3820,2025-06-03 16:00:00,32.1531,113.0822,215.4,随州市,吴山,随县,983.2,20.9,88.0,50.38699999999998,21.74055432494029
Q3823,2025-06-03 16:00:00,31.7278,113.2831,64.1,随州市,南郊,曾都区,1000.3,21.4,95.0,44.06699999999998,24.202000043251516
Q3829,2025-06-03 16:00:00,31.61,113.4317,85,随州市,大堰坡,曾都区,998.7,21.7,96.0,37.30249999999995,24.910277607541225
Q3830,2025-06-03 16:00:00,31.53,112.9711,228.2,随州市,长岗,随县,981.8,19.2,85.0,36.84399999999996,18.900444606256126
Q3831,2025-06-03 16:00:00,31.7164,113.3869,96.2,随州市,雷达站,曾都区,996.8,23.6,82.0,48.11799999999996,23.880472361525673
Q3832,2025-06-03 16:00:00,31.4911,113.5678,65.8,随州市,府河,曾都区,1000.3,22.1,95.0,45.25836666666667,25.26053097260925
Q3836,2025-06-03 16:00:00,32.3561,113.1931,215.4,随州市,新城,随县,983.3,18.0,95.0,41.905000000000015,19.59454847370259
Q3844,2025-06-03 16:00:00,31.5131,113.0106,274.3,随州市,东庄畈,随县,976.8,19.0,77.0,29.327500000000004,16.909248424540223
Q3845,2025-06-03 16:00:00,31.6922,113.3744,78.4,随州市,城南新区,曾都区,998.6,22.3,88.0,46.236,23.686196768727
Q3847,2025-06-03 16:00:00,31.4867,112.9781,1042,随州市,金顶,随县,894.2,21.1,25.0,12.270999999999994,6.252732996818331
Q3852,2025-06-03 16:00:00,31.9353,113.3081,122.2,随州市,王家河,随县,993.8,21.7,100.0,54.370833333333415,25.948205841188777
Q3853,2025-06-03 16:00:00,31.4347,113.2972,175.7,随州市,银杏谷,曾都区,987.7,20.2,95.0,43.2585,22.477653144646453
Q3854,2025-06-03 16:00:00,31.4703,112.9844,467.3,随州市,自在谷,随县,955.8,17.3,78.0,32.034999999999975,15.393121596289964
Q3855,2025-06-03 16:00:00,31.4778,112.9647,981.1,随州市,状元台,随县,900.9,19.2,37.0,13.362000000000007,8.227252358017372
Q3856,2025-06-03 16:00:00,31.7839,113.3958,105.4,随州市,北郊,曾都区,995.7,22.4,93.0,45.56249999999994,25.184858679989528
Q3857,2025-06-03 16:00:00,31.7206,113.3617,64.5,随州市,西城,曾都区,1000.2,23.1,84.0,46.77250000000001,23.734915131958168
Q3901,2025-06-03 16:00:00,31.7872,113.6322,109.6,随州市,余店,广水市,995.2,21.3,96.0,40.913,24.30720216405387
Q3902,2025-06-03 16:00:00,31.4711,113.5781,47.3,随州市,长岭,广水市,1002.2,22.2,95.0,50.618399999999994,25.415014786782475
Q3909,2025-06-03 16:00:00,31.7264,113.8322,120,随州市,蔡河,广水市,994.5,22.6,91.0,50.36900000000004,24.944788076615396
Q3911,2025-06-03 16:00:00,31.4608,113.9217,46.4,随州市,太平,广水市,1000.7,23.0,89.0,49.76800000000002,24.99587608709626
Q3913,2025-06-03 16:00:00,31.7358,114.0353,100,随州市,武胜关,广水市,995.8,20.7,95.0,53.74199999999999,23.182567046295148
Q3918,2025-06-03 16:00:00,31.62,113.82,93.3,随州市,应山,广水市,997.2,23.3,89.0,55.365500000000004,25.453796666613307
Q3924,2025-06-03 16:00:00,32.0019,113.7164,203.6,随州市,尹家湾,广水市,984.8,18.5,96.0,41.259999999999955,20.432420857530417
Q4000,2025-06-03 16:00:00,30.7433,111.2694,67.8,宜昌市,葛洲坝,西陵区,1000.3,22.0,85.0,42.90899999999997,22.46404235554118
Q4001,2025-06-03 16:00:00,30.6589,111.3303,56.3,宜昌市,王家河公园,伍家岗区,1002.0,24.1,79.0,36.04350000000001,23.709794210137474
Q4002,2025-06-03 16:00:00,30.7186,111.3436,160,宜昌市,窑湾,西陵区,988.4,23.1,80.0,48.17799999999998,22.6046810780554
Q4003,2025-06-03 16:00:00,30.5061,111.4444,42.6,宜昌市,猇亭,猇亭区,1002.5,22.3,88.0,44.02849999999996,23.686196768727
Q4005,2025-06-03 16:00:00,30.6931,111.0022,615,宜昌市,土城,点军区,939.5,18.1,75.0,25.833000000000013,15.566983897318032
Q4015,2025-06-03 16:00:00,30.7067,111.2972,116.6,宜昌市,白龙岗公园,西陵区,993.3,23.2,79.0,45.180499999999974,22.45761109728204
Q4019,2025-06-03 16:00:00,30.6183,111.3422,87,宜昌市,艾家小学,点军区,998.0,22.7,80.0,45.36099999999995,22.06309146451672
Q4022,2025-06-03 16:00:00,30.5697,111.3964,78.5,宜昌市,猇亭古战场,猇亭区,999.0,21.9,88.0,40.76999999999998,23.115312685305515
Q4023,2025-06-03 16:00:00,30.6519,111.205,100,宜昌市,长岭,点军区,996.7,21.9,90.0,44.125999999999976,23.640660700880638
Q4025,2025-06-03 16:00:00,30.7389,111.2333,98.8,宜昌市,鸣翠谷,点军区,996.7,21.8,85.0,39.64649999999999,22.191269303669497
Q4026,2025-06-03 16:00:00,30.7417,111.3144,86.3,宜昌市,沙河公园,西陵区,998.3,23.1,80.0,45.282999999999994,22.6046810780554
Q4032,2025-06-03 16:00:00,30.7086,111.2361,78.9,宜昌市,宜昌一中,点军区,999.0,22.5,88.0,48.59299999999998,23.976244735857392
Q4033,2025-06-03 16:00:00,30.6853,111.3367,84.3,宜昌市,水井湾,伍家岗区,998.5,21.5,92.0,47.9795,23.581823309121525
Q4034,2025-06-03 16:00:00,30.6161,111.4,62.5,宜昌市,龙盘湖,伍家岗区,1000.8,20.8,96.0,50.27550000000004,23.571389009222937
Q4035,2025-06-03 16:00:00,30.6478,111.3658,88.6,宜昌市,碧桂园公园,伍家岗区,997.8,23.3,83.0,44.022999999999996,23.737810374482073
Q4036,2025-06-03 16:00:00,30.6967,111.3817,113,宜昌市,夷陵中学,夷陵区,995.2,21.9,92.0,33.851000000000006,24.166008716455764
Q4037,2025-06-03 16:00:00,30.7214,111.1625,389.1,宜昌市,李家咀,点军区,964.3,20.5,86.0,38.72050000000004,20.728994793695357
Q4105,2025-06-03 16:00:00,30.8789,110.9697,215,宜昌市,太平溪,夷陵区,984.2,22.4,74.0,44.953500000000076,20.03956497117446
Q4109,2025-06-03 16:00:00,31.2667,111.15,1162,宜昌市,樟村坪林场,夷陵区,884.2,14.6,82.0,28.241000000000014,13.61736649097943
Q4111,2025-06-03 16:00:00,30.6117,111.5211,109.2,宜昌市,鸦鹊岭,夷陵区,995.5,23.1,82.0,34.43350000000002,23.16979810500678
Q4112,2025-06-03 16:00:00,30.9667,110.9878,990,宜昌市,王家垭,夷陵区,900.7,20.4,46.0,20.96499999999996,11.019338224199062
Q4113,2025-06-03 16:00:00,30.9228,110.9672,855,宜昌市,古村坪,夷陵区,914.2,19.9,70.0,30.43050000000001,16.25753232190989
Q4115,2025-06-03 16:00:00,30.96,111.5114,1251.8,宜昌市,百里荒,夷陵区,872.9,19.5,38.0,13.448500000000008,8.608956419411884
Q4120,2025-06-03 16:00:00,31.1456,111.0747,1068.2,宜昌市,秀水,夷陵区,892.0,17.1,81.0,31.398000000000014,15.784045258016425
Q4127,2025-06-03 16:00:00,31.0511,111.4406,402,宜昌市,十字沟,夷陵区,963.1,20.3,77.0,32.05750000000001,18.33176426656663
Q4131,2025-06-03 16:00:00,31.0117,111.3114,945,宜昌市,二户坪,夷陵区,906.1,18.7,67.0,21.37850000000002,14.439880770953872
Q4140,2025-06-03 16:00:00,30.9325,111.3158,169.1,宜昌市,三峡大瀑布,夷陵区,987.1,19.8,99.0,47.738499999999995,22.85059093397687
Q4146,2025-06-03 16:00:00,30.9192,111.0428,403,宜昌市,沙坪,夷陵区,963.3,21.2,79.0,40.540999999999976,19.880390302251072
Q4148,2025-06-03 16:00:00,31.0078,110.9369,705.9,宜昌市,黄金河,夷陵区,930.2,19.5,59.0,27.762500000000028,13.366537598560555
Q4150,2025-06-03 16:00:00,31.4353,111.2158,1098.9,宜昌市,古村,夷陵区,889.1,14.9,85.0,30.320500000000035,14.391419791620514
Q4153,2025-06-03 16:00:00,31.2117,111.2406,1073.1,宜昌市,马卧泥,夷陵区,891.6,18.3,64.0,25.36800000000001,13.451788863456445
Q4154,2025-06-03 16:00:00,30.7428,111.5075,108.8,宜昌市,青龙,夷陵区,995.7,21.2,88.0,33.61449999999998,22.145244893646765
Q4201,2025-06-03 16:00:00,30.3053,110.4817,705.3,宜昌市,傅家堰,五峰土家族自治县,929.8,19.0,68.0,21.67750000000002,14.932842764529031
Q4202,2025-06-03 16:00:00,30.1778,110.8722,1004.1,宜昌市,长乐坪,五峰土家族自治县,899.5,15.6,73.0,26.80642500000002,12.928394000110035
Q4203,2025-06-03 16:00:00,30.0528,110.4344,1139.2,宜昌市,湾潭,五峰土家族自治县,884.0,14.5,75.0,22.744999999999994,12.374691449389875
Q4204,2025-06-03 16:00:00,30.1022,111.2453,591.9,宜昌市,仁和坪,五峰土家族自治县,942.6,17.4,79.0,28.392500000000005,15.689367165842114
Q4205,2025-06-03 16:00:00,30.2381,110.3611,1830.5,宜昌市,牛庄,五峰土家族自治县,816.8,14.6,29.0,11.792499999999993,4.815897905346383
Q4206,2025-06-03 16:00:00,30.2056,110.445,506.8,宜昌市,采花,五峰土家族自治县,953.2,18.6,84.0,31.94000000000001,17.99073979833048
Q4207,2025-06-03 16:00:00,30.1831,111.075,255.1,宜昌市,渔关,五峰土家族自治县,979.4,21.1,71.0,28.488499999999995,17.75776171096406
Q4208,2025-06-03 16:00:00,30.0797,110.9669,853.1,宜昌市,清水湾,五峰土家族自治县,914.1,16.1,78.0,24.944499999999994,14.262866485426011
Q4209,2025-06-03 16:00:00,30.0789,110.6214,952.7,宜昌市,后河,五峰土家族自治县,905.5,14.3,88.0,27.318000000000012,14.332994718626136
Q4210,2025-06-03 16:00:00,30.2494,110.6283,564.8,宜昌市,水浕司,五峰土家族自治县,946.4,18.8,78.0,35.295999999999985,16.916106174914557
Q4213,2025-06-03 16:00:00,30.14,110.5681,2213.7,宜昌市,北风垭,五峰土家族自治县,780.7,12.0,25.0,8.449499999999997,3.5038481760627325
Q4214,2025-06-03 16:00:00,30.2553,111.02,737.6,宜昌市,涨水坪,五峰土家族自治县,927.3,16.4,88.0,29.801500000000015,16.402253870862044
Q4215,2025-06-03 16:00:00,30.2011,110.9022,1031,宜昌市,三教庙,五峰土家族自治县,895.7,14.4,86.0,27.467499999999983,14.098185894908065
Q4218,2025-06-03 16:00:00,30.3589,110.4706,1157.3,宜昌市,大龙坪,五峰土家族自治县,884.1,14.2,82.0,28.61000000000001,13.269526528358528
Q4238,2025-06-03 16:00:00,30.1997,110.4069,1174.1,宜昌市,万里,五峰土家族自治县,881.9,16.6,54.0,18.37500000000002,10.193963276422807
Q4249,2025-06-03 16:00:00,30.2219,110.8947,1259,宜昌市,柴埠溪,五峰土家族自治县,873.6,15.5,53.0,16.86000000000001,9.326378862579075
Q4252,2025-06-03 16:00:00,30.2056,110.665,619.4,宜昌市,万马池,五峰土家族自治县,940.7,18.1,78.0,31.563500000000012,16.189663253210753
Q4309,2025-06-03 16:00:00,30.5808,111.6733,125.7,宜昌市,胡家畈,枝江市,993.0,22.6,91.0,58.963500000000046,24.944788076615396
Q4321,2025-06-03 16:00:00,30.3967,111.5886,68,宜昌市,雅畈,枝江市,1000.2,22.6,84.0,41.08850000000003,23.025958224568054
Q4323,2025-06-03 16:00:00,30.43,111.7592,44.5,宜昌市,马家店,枝江市,1002.9,23.8,78.0,37.246499999999955,22.991017110095722
Q4325,2025-06-03 16:00:00,30.4386,111.4522,55.9,宜昌市,万福垴,枝江市,1001.5,22.3,89.0,46.834500000000034,23.95535809564435
Q4326,2025-06-03 16:00:00,30.3369,111.5311,57,宜昌市,田家河,枝江市,1001.6,22.1,100.0,54.18750000000001,26.59003260274658
Q4327,2025-06-03 16:00:00,30.4011,111.6131,87.7,宜昌市,姚家港工业园,枝江市,997.9,25.0,66.0,39.3945,20.90503427883608
Q4401,2025-06-03 16:00:00,30.63,110.5428,506,宜昌市,社坪,长阳土家族自治县,952.6,17.2,91.0,28.282500000000024,17.84535307219375
Q4403,2025-06-03 16:00:00,30.4286,110.4992,380,宜昌市,渔峡口,长阳土家族自治县,967.8,20.1,82.0,31.179500000000008,19.28204071572426
Q4404,2025-06-03 16:00:00,30.6069,111.0583,167,宜昌市,高家堰,长阳土家族自治县,989.4,20.4,85.0,41.29133333333331,20.361820631672177
Q4406,2025-06-03 16:00:00,30.3353,111.0731,631,宜昌市,大堰,长阳土家族自治县,938.3,17.8,89.0,25.598999999999997,18.1272645880151
Q4411,2025-06-03 16:00:00,30.3692,110.9569,473,宜昌市,横山,长阳土家族自治县,955.3,19.7,77.0,30.961,17.662678911165507
Q4415,2025-06-03 16:00:00,30.4944,110.7997,1546.9,宜昌市,火烧坪,长阳土家族自治县,844.5,14.1,43.0,13.745000000000003,6.913455191880678
Q4425,2025-06-03 16:00:00,30.6219,110.4972,490,宜昌市,榔坪,长阳土家族自治县,956.6,17.4,92.0,26.717500000000005,18.271161762752843
Q4437,2025-06-03 16:00:00,30.6211,110.8139,1055,宜昌市,中岭,长阳土家族自治县,893.9,16.9,77.0,21.667499999999997,14.815515881948524
Q4441,2025-06-03 16:00:00,30.5814,111.0614,680,宜昌市,龙池山,长阳土家族自治县,932.3,20.7,58.0,23.792500000000004,14.153567249317037
Q4443,2025-06-03 16:00:00,30.4703,111.1336,190.3,宜昌市,清江画廊,长阳土家族自治县,986.8,21.6,74.0,28.915999999999983,19.08451672160342
Q4446,2025-06-03 16:00:00,30.3936,111.1128,220,宜昌市,三洞水,长阳土家族自治县,985.2,21.0,84.0,30.988500000000055,20.880418748926086
Q4447,2025-06-03 16:00:00,30.4117,110.97,290,宜昌市,都镇湾,长阳土家族自治县,977.4,20.7,86.0,34.746000000000066,20.986323852435607
Q4453,2025-06-03 16:00:00,30.3731,110.7244,283.3,宜昌市,崩尖子,长阳土家族自治县,977.4,18.4,89.0,31.31550000000003,18.824150096488747
Q4510,2025-06-03 16:00:00,30.1967,111.4717,199.8,宜昌市,九道河,宜都市,985.6,22.3,71.0,23.284999999999986,19.110454211132012
Q4519,2025-06-03 16:00:00,30.3839,111.4547,74.1,宜昌市,陆城,宜都市,999.6,24.3,64.0,32.34499999999996,19.43997280902672
Q4604,2025-06-03 16:00:00,30.5725,111.9686,74,宜昌市,草埠湖,当阳市,1001.5,23.1,85.0,42.768499999999996,24.01747364543386
Q4606,2025-06-03 16:00:00,30.7075,111.675,158.6,宜昌市,王店,当阳市,989.5,21.8,93.0,56.03699999999997,24.27985935577957
Q4610,2025-06-03 16:00:00,31.0844,111.9219,102.3,宜昌市,红旗岗,当阳市,993.9,21.6,87.0,48.478499999999976,22.437202091614836
Q4611,2025-06-03 16:00:00,30.9275,111.9269,58,宜昌市,淯溪光明,当阳市,1001.6,21.5,95.0,46.07300000000002,24.35079580833201
Q4612,2025-06-03 16:00:00,30.9167,111.685,96,宜昌市,向家草坝,当阳市,997.1,20.9,93.0,54.55949999999997,22.97581309340281
Q4614,2025-06-03 16:00:00,30.8369,111.7611,70,宜昌市,长坂雄风,当阳市,1000.0,23.0,76.0,39.46550000000008,21.34479306313838
Q4701,2025-06-03 16:00:00,31.1906,111.4081,553.8,宜昌市,嫘祖,远安县,946.5,18.4,93.0,34.45949999999998,19.670179314308466
Q4708,2025-06-03 16:00:00,31.1481,111.6794,179.8,宜昌市,茅坪场,远安县,987.0,20.1,87.0,39.31149999999999,20.457774905707453
Q4709,2025-06-03 16:00:00,31.2208,111.5594,152.4,宜昌市,洋坪,远安县,991.1,20.9,94.0,42.100999999999985,23.222864847095313
Q4710,2025-06-03 16:00:00,31.1881,111.7553,391.9,宜昌市,晓坪水库,远安县,963.8,18.4,92.0,33.96650000000002,19.458672009853537
Q4718,2025-06-03 16:00:00,31.2361,111.5361,186,宜昌市,芭芒店,远安县,984.9,21.1,84.0,36.25450000000003,21.00918286930959
Q4729,2025-06-03 16:00:00,30.9167,111.5608,723.5,宜昌市,龙凤,远安县,925.2,20.2,26.0,10.711000000000015,6.151778755376925
Q4801,2025-06-03 16:00:00,31.2092,110.53,992.5,宜昌市,高桥,兴山县,899.8,17.3,68.0,24.776000000000003,13.419644468560483
Q4802,2025-06-03 16:00:00,31.2261,110.7697,286,宜昌市,昭君,兴山县,977.4,20.4,88.0,32.37700000000004,21.080473124554725
Q4804,2025-06-03 16:00:00,31.1192,110.7786,266,宜昌市,峡口,兴山县,980.5,21.3,91.0,40.249499999999976,23.041202051342733
Q4806,2025-06-03 16:00:00,31.5008,111.0083,1281,宜昌市,榛子,兴山县,870.7,14.8,80.0,25.73849999999999,13.457830626429438
Q4808,2025-06-03 16:00:00,31.1778,111.0017,644.1,宜昌市,南对河,兴山县,937.9,17.9,95.0,39.88349999999996,19.471598796751774
Q4818,2025-06-03 16:00:00,31.5183,110.8078,498.7,宜昌市,观音河,兴山县,956.7,18.8,92.0,36.24399999999995,19.95233036015563
Q4837,2025-06-03 16:00:00,31.4728,110.9975,1301.6,宜昌市,和平,兴山县,869.6,14.4,92.0,29.72650000000005,15.081780259669095
Q4901,2025-06-03 16:00:00,31.0306,110.6972,190.3,宜昌市,彭家坡,秭归县,986.6,21.5,88.0,36.43349999999996,22.556526643507546
Q4902,2025-06-03 16:00:00,30.9564,110.7569,351,宜昌市,郭家坝,秭归县,970.4,20.8,85.0,40.732500000000016,20.870500685249475
Q4903,2025-06-03 16:00:00,30.8722,110.5756,620.5,宜昌市,两河口,秭归县,940.0,19.4,86.0,28.79550000000002,19.362561735765183
Q4905,2025-06-03 16:00:00,30.7458,110.7553,421.8,宜昌市,杨林桥,秭归县,962.7,18.8,85.0,26.810000000000016,18.434218267535094
Q4909,2025-06-03 16:00:00,30.9614,110.6022,420,宜昌市,沙镇溪,秭归县,962.4,20.4,89.0,36.26650000000002,21.320023955515573
Q4911,2025-06-03 16:00:00,30.8442,110.7836,499,宜昌市,九畹溪,秭归县,954.0,17.9,93.0,38.83899999999998,19.061670401030685
Q4918,2025-06-03 16:00:00,30.8361,110.9464,547.7,宜昌市,金缸城,秭归县,947.1,19.8,88.0,38.96950000000001,20.31163638575722
Q4920,2025-06-03 16:00:00,30.9039,110.7792,918,宜昌市,烟墩堡,秭归县,908.1,17.1,100.0,40.49749999999999,19.48647562718077
Q4921,2025-06-03 16:00:00,30.7814,110.7939,271.1,宜昌市,芝兰,秭归县,979.0,19.8,90.0,43.45600000000003,20.77326448543352
Q4932,2025-06-03 16:00:00,30.9803,110.8039,1385,宜昌市,九岭头,秭归县,860.5,15.2,100.0,39.61149999999987,17.261187233819143
Q4941,2025-06-03 16:00:00,30.9881,110.4783,753,宜昌市,高潮,秭归县,927.2,18.7,90.0,34.66600000000001,19.396854766952963
Q4945,2025-06-03 16:00:00,30.7944,110.4961,1330,宜昌市,七甲,秭归县,866.2,17.2,76.0,22.242499999999996,14.903811356996975
Q4950,2025-06-03 16:00:00,30.8117,110.3497,985,宜昌市,雁落坪,秭归县,900.9,16.9,86.0,26.46600000000001,16.547199556461987
Q4957,2025-06-03 16:00:00,30.6814,110.7139,1085,宜昌市,三台寺,秭归县,892.0,16.5,56.0,18.439999999999998,10.504470634134778
Q4962,2025-06-03 16:00:00,30.9811,110.7606,209.2,宜昌市,吴家沟,秭归县,983.5,22.2,77.0,42.13250000000003,20.599538300865795
Q5102,2025-06-03 16:00:00,30.4808,109.5828,638.9,恩施土家族苗族自治州,白杨坪,恩施市,938.5,17.9,96.0,37.518499999999996,19.67656299461232
Q5106,2025-06-03 16:00:00,30.2978,109.6278,1054.7,恩施土家族苗族自治州,三岔,恩施市,894.6,17.5,94.0,44.0725,18.786692305342083
Q5109,2025-06-03 16:00:00,30.1222,109.3956,599.8,恩施土家族苗族自治州,芭蕉,恩施市,942.4,19.5,87.0,39.98749999999999,19.709979170758785
Q5116,2025-06-03 16:00:00,30.0906,109.1692,881,恩施土家族苗族自治州,金龙坝,恩施市,914.0,17.3,93.0,35.487500000000004,18.353337287884187
Q5122,2025-06-03 16:00:00,30.3303,109.4231,1113,恩施土家族苗族自治州,望城坡,恩施市,888.6,15.8,81.0,27.07150000000001,14.530125457883939
Q5133,2025-06-03 16:00:00,30.3539,109.6558,1312.4,恩施土家族苗族自治州,小卫家山,恩施市,868.8,17.5,66.0,29.132500000000007,13.190656299495505
Q5135,2025-06-03 16:00:00,30.3583,109.8217,1567,恩施土家族苗族自治州,神堂,恩施市,843.1,16.6,43.0,16.91400000000001,8.117415201595938
Q5150,2025-06-03 16:00:00,30.4167,109.1628,1615,恩施土家族苗族自治州,大峡谷顶,恩施市,836.5,13.1,67.0,15.145499999999991,10.093273749836793
Q5153,2025-06-03 16:00:00,30.3733,109.3019,946,恩施土家族苗族自治州,马者滑坡点,恩施市,907.1,18.5,63.0,28.74699999999998,13.408776187754336
Q5206,2025-06-03 16:00:00,30.3353,109.1053,1025.3,恩施土家族苗族自治州,宜影古镇,利川市,899.0,15.8,85.0,31.493666666666627,15.247662517532525
Q5207,2025-06-03 16:00:00,30.2233,109.0339,1088.3,恩施土家族苗族自治州,元堡,利川市,889.7,15.3,95.0,31.567499999999992,16.503849861853556
Q5208,2025-06-03 16:00:00,30.0775,108.8592,1469.7,恩施土家族苗族自治州,黄泥塘,利川市,857.7,14.0,83.0,19.306499999999993,13.25829643866741
Q5209,2025-06-03 16:00:00,29.9294,108.7097,474,恩施土家族苗族自治州,龙桥,利川市,956.6,19.0,95.0,39.53199999999998,20.862059744562615
Q5210,2025-06-03 16:00:00,30.2089,108.7014,1479.9,恩施土家族苗族自治州,福宝山,利川市,850.9,14.1,95.0,28.852999999999994,15.273912633224755
Q5211,2025-06-03 16:00:00,30.4353,108.5392,676,恩施土家族苗族自治州,建南,利川市,934.7,18.7,90.0,37.044999999999966,19.396854766952963
Q5214,2025-06-03 16:00:00,30.43,108.7925,1129,恩施土家族苗族自治州,南坪,利川市,887.1,16.0,86.0,26.512499999999978,15.625605250679984
Q5222,2025-06-03 16:00:00,30.2664,108.805,1092.5,恩施土家族苗族自治州,凉雾,利川市,889.4,16.2,88.0,33.00000000000001,16.194463570353392
Q5226,2025-06-03 16:00:00,30.3353,109.1494,986.8,恩施土家族苗族自治州,利川团堡,利川市,901.5,16.2,88.0,30.829999999999988,16.194463570353392
Q5241,2025-06-03 16:00:00,30.0786,108.6025,1074,恩施土家族苗族自治州,小河,利川市,893.9,16.2,94.0,38.23000000000008,17.298631541059304
Q5249,2025-06-03 16:00:00,30.4533,108.6578,1558.5,恩施土家族苗族自治州,铁峰,利川市,843.1,15.5,49.0,14.288500000000013,8.622501212573107
Q5250,2025-06-03 16:00:00,30.4922,108.7469,1406,恩施土家族苗族自治州,药材,利川市,856.6,14.5,65.0,18.331,10.724732589471227
Q5301,2025-06-03 16:00:00,29.9539,109.0781,788.1,恩施土家族苗族自治州,黄金洞,咸丰县,921.6,17.5,97.0,45.806499999999936,19.386267591682785
Q5307,2025-06-03 16:00:00,29.6125,108.9175,468,恩施土家族苗族自治州,朝阳寺,咸丰县,957.6,20.2,95.0,40.90400000000008,22.477653144646453
Q5309,2025-06-03 16:00:00,29.3997,108.9803,1268.8,恩施土家族苗族自治州,坪坝营,咸丰县,872.7,14.9,96.0,32.58030000000002,16.253838823477285
Q5310,2025-06-03 16:00:00,29.7658,108.8233,723.6,恩施土家族苗族自治州,茅坝,咸丰县,929.8,17.4,95.0,42.828499999999956,18.86696051588609
Q5326,2025-06-03 16:00:00,29.8839,108.9089,832,恩施土家族苗族自治州,李子溪,咸丰县,918.6,17.8,97.0,45.18899999999999,19.756681629634436
Q5327,2025-06-03 16:00:00,29.9194,108.9083,847,恩施土家族苗族自治州,中心场,咸丰县,916.8,17.3,97.0,38.69800000000001,19.14272813897598
Q5330,2025-06-03 16:00:00,29.8736,108.8114,869,恩施土家族苗族自治州,八家台,咸丰县,912.1,17.8,95.0,35.86374999999999,19.349327369229602
Q5338,2025-06-03 16:00:00,29.8175,109.0397,872.4,恩施土家族苗族自治州,柏杨坪,咸丰县,911.1,17.2,93.0,34.55350000000001,18.237558634219983
Q5409,2025-06-03 16:00:00,29.4669,109.4019,458,恩施土家族苗族自治州,翔凤,来凤县,958.0,21.3,93.0,48.95149999999998,23.547602096427187
Q5421,2025-06-03 16:00:00,29.3261,109.2883,602,恩施土家族苗族自治州,兴隆坳,来凤县,940.1,19.7,95.0,50.87150000000004,21.79161683845095
Q5422,2025-06-03 16:00:00,29.4094,109.3228,512,恩施土家族苗族自治州,沙坝水库,来凤县,951.5,20.2,92.0,44.08049999999997,21.76783251902604
Q5508,2025-06-03 16:00:00,29.6986,109.5653,589,恩施土家族苗族自治州,沙道,宣恩县,943.3,20.1,91.0,38.10050000000005,21.398362257694004
Q5509,2025-06-03 16:00:00,30.0575,109.8269,1681,恩施土家族苗族自治州,椿木营,宣恩县,831.6,11.6,89.0,29.423999999999968,12.148636042174527
Q5515,2025-06-03 16:00:00,30.1294,109.6347,664.8,恩施土家族苗族自治州,中间河,宣恩县,935.4,19.6,96.0,45.931500000000014,21.884601345694126
Q5516,2025-06-03 16:00:00,30.0081,109.5883,490.9,恩施土家族苗族自治州,长潭北,宣恩县,954.3,19.3,95.0,37.619,21.256089220567667
Q5517,2025-06-03 16:00:00,29.96,109.3461,1134.7,恩施土家族苗族自治州,荆竹坪,宣恩县,885.9,16.7,95.0,32.51000000000003,18.048202159422726
Q5530,2025-06-03 16:00:00,29.9867,109.3608,743.4,恩施土家族苗族自治州,洗草坝,宣恩县,927.2,17.2,98.0,34.49199999999999,19.218072539285572
Q5532,2025-06-03 16:00:00,29.8356,109.6717,655.8,恩施土家族苗族自治州,金盆村,宣恩县,936.8,18.9,94.0,43.77550000000002,20.513916217341315
Q5539,2025-06-03 16:00:00,29.9019,109.26,1180.2,恩施土家族苗族自治州,竹园,宣恩县,881.8,15.9,91.0,33.84949999999998,16.428724021591947
Q5543,2025-06-03 16:00:00,29.6717,109.6153,582.9,恩施土家族苗族自治州,彭家寨,宣恩县,943.5,19.1,94.0,41.412500000000016,20.771708659340696
Q5601,2025-06-03 16:00:00,29.7383,110.3472,467,恩施土家族苗族自治州,江坪河,鹤峰县,956.3,20.3,86.0,44.087999999999965,20.474438012009482
Q5603,2025-06-03 16:00:00,30.0658,110.2706,1382,恩施土家族苗族自治州,蛤蟆颈,鹤峰县,859.5,12.9,85.0,28.027499999999986,12.638508494416774
Q5605,2025-06-03 16:00:00,30.0139,110.2697,1300,恩施土家族苗族自治州,清湖,鹤峰县,867.4,14.3,80.0,26.532999999999962,13.029995198751033
Q5610,2025-06-03 16:00:00,29.8969,110.3406,1142,恩施土家族苗族自治州,五里,鹤峰县,886.1,15.3,91.0,27.172499999999992,15.808950920301829
Q5620,2025-06-03 16:00:00,29.8628,109.8564,1175,恩施土家族苗族自治州,堰塘,鹤峰县,881.9,16.0,94.0,34.05749999999998,17.079149925161843
Q5621,2025-06-03 16:00:00,30.0564,110.0675,1011.3,恩施土家族苗族自治州,云蒙,鹤峰县,898.6,15.0,93.0,27.272,15.84765992029285
Q5626,2025-06-03 16:00:00,30.1083,110.1294,1215.7,恩施土家族苗族自治州,龚家垭,鹤峰县,877.7,17.0,64.0,22.026500000000013,12.392550774302778
Q5628,2025-06-03 16:00:00,29.7681,110.5636,509,恩施土家族苗族自治州,马家,鹤峰县,950.4,17.9,90.0,39.15650000000001,18.44677780744905
Q5629,2025-06-03 16:00:00,29.8014,110.6133,673.7,恩施土家族苗族自治州,细杉,鹤峰县,933.8,16.6,87.0,28.382500000000036,16.42360750090341
Q5630,2025-06-03 16:00:00,29.7203,110.2667,912.3,恩施土家族苗族自治州,堰垭,鹤峰县,908.7,18.5,90.0,36.950499999999934,19.155394553934766
Q5632,2025-06-03 16:00:00,29.9206,110.4636,1194,恩施土家族苗族自治州,上六峰,鹤峰县,880.0,13.8,93.0,27.35050000000003,14.663980817527861
Q5633,2025-06-03 16:00:00,29.9917,110.4858,1137,恩施土家族苗族自治州,中坪,鹤峰县,883.6,14.0,86.0,28.425500000000028,13.737511972595147
Q5634,2025-06-03 16:00:00,29.9133,110.2561,606.5,恩施土家族苗族自治州,水泉,鹤峰县,941.4,19.3,96.0,47.51299999999994,21.47983752815259
Q5706,2025-06-03 16:00:00,31.1572,110.4386,741,恩施土家族苗族自治州,溪丘湾,巴东县,926.2,17.7,100.0,36.98499999999999,20.23971684225924
Q5707,2025-06-03 16:00:00,30.6875,110.1708,1411,恩施土家族苗族自治州,大支坪,巴东县,857.9,16.4,40.0,20.12749999999998,7.455569941300929
Q5708,2025-06-03 16:00:00,30.8936,110.3064,1166,恩施土家族苗族自治州,朱砂土,巴东县,880.9,16.9,71.0,26.597000000000026,13.661060098939549
Q5709,2025-06-03 16:00:00,30.6925,110.2486,1570.6,恩施土家族苗族自治州,玉米塘,巴东县,840.3,16.2,31.0,11.357000000000014,5.704867848647217
Q5710,2025-06-03 16:00:00,31.2233,110.2003,942.7,恩施土家族苗族自治州,茅山岭,巴东县,903.8,18.3,98.0,44.462250000000004,20.59805169716768
Q5712,2025-06-03 16:00:00,30.9331,110.2219,1150.3,恩施土家族苗族自治州,税家,巴东县,884.4,16.2,72.0,28.11799999999999,13.250015648470956
Q5720,2025-06-03 16:00:00,31.1225,110.4797,735,恩施土家族苗族自治州,高家坡,巴东县,927.4,18.7,77.0,30.24599999999996,16.59508685617087
Q5730,2025-06-03 16:00:00,30.7125,110.4111,1234,恩施土家族苗族自治州,麻沙坪,巴东县,874.5,15.9,68.0,25.269499999999976,12.276409158991786
Q5732,2025-06-03 16:00:00,30.6672,110.2142,1261.9,恩施土家族苗族自治州,庙坪,巴东县,871.9,16.1,74.0,28.300500000000014,13.531437434891343
Q5736,2025-06-03 16:00:00,30.4069,110.1308,950,恩施土家族苗族自治州,倒卜龙,巴东县,904.2,17.9,83.0,33.452499999999915,17.012028422425235
Q5751,2025-06-03 16:00:00,30.8117,110.2419,1663,恩施土家族苗族自治州,绿葱坡滑雪场,巴东县,832.0,13.4,68.0,17.828000000000007,10.446483076770072
Q5802,2025-06-03 16:00:00,30.8097,109.8839,1364.3,恩施土家族苗族自治州,茅田,建始县,862.4,13.0,84.0,29.65249999999999,12.571800123631295
Q5804,2025-06-03 16:00:00,30.5989,110.0597,1239.1,恩施土家族苗族自治州,高坪,建始县,872.2,18.1,54.0,23.009500000000006,11.208228406068985
Q5819,2025-06-03 16:00:00,30.8222,109.9811,1731.3,恩施土家族苗族自治州,封竹,建始县,826.2,13.0,69.0,16.574999999999992,10.326835815839992
Q5823,2025-06-03 16:00:00,30.6128,110.0208,777.3,恩施土家族苗族自治州,石垭子,建始县,922.7,17.5,93.0,37.475000000000016,18.586833876561847
Q5824,2025-06-03 16:00:00,30.5825,109.9603,917,恩施土家族苗族自治州,落水洞,建始县,906.8,17.1,93.0,34.647999999999996,18.122422333278116
Q5827,2025-06-03 16:00:00,30.5347,109.9972,1227.8,恩施土家族苗族自治州,冷竹,建始县,875.3,13.6,94.0,27.669000000000015,14.630100706280787
Q5829,2025-06-03 16:00:00,30.3572,110.0744,754.5,恩施土家族苗族自治州,粟谷坝,建始县,924.1,17.3,87.0,32.955499999999944,17.169251011246498
Q5831,2025-06-03 16:00:00,30.2125,109.9622,1551,恩施土家族苗族自治州,竹园坝,建始县,843.9,14.6,54.0,15.709500000000013,8.967534030644991
Q5836,2025-06-03 16:00:00,30.6983,110.0806,896.7,恩施土家族苗族自治州,野三河景区,建始县,911.3,16.8,72.0,26.295500000000015,13.765809440238245
Q6080,2025-06-03 16:00:00,30.975,112.2028,108.5,荆门市,掇刀,掇刀区,994.8,22.8,83.0,43.502500000000026,23.029814597175847
Q6082,2025-06-03 16:00:00,30.9114,112.2447,85,荆门市,麻城,掇刀区,998.0,22.2,94.0,45.99349999999998,25.14748831534266
Q6083,2025-06-03 16:00:00,30.7958,112.2522,82,荆门市,樊桥,掇刀区,998.7,22.9,95.0,41.778166666666564,26.519781803332876
Q6084,2025-06-03 16:00:00,30.9525,112.1789,106,荆门市,凤凰,掇刀区,995.6,23.4,86.0,42.669999999999916,24.744868236555345
Q6085,2025-06-03 16:00:00,30.8675,112.0964,97.5,荆门市,龙泉,掇刀区,996.8,22.6,93.0,46.18949999999995,25.493025177200348
Q6086,2025-06-03 16:00:00,31.0422,112.1217,190,荆门市,仙女,掇刀区,986.2,21.3,87.0,49.925999999999924,22.02840196117382
Q6111,2025-06-03 16:00:00,30.5242,112.3883,31.2,荆门市,后港,沙洋县,1004.5,23.7,88.0,44.1899999999999,25.782793659009197
Q6113,2025-06-03 16:00:00,30.7592,112.46,65,荆门市,高阳,沙洋县,1000.5,22.6,94.0,45.1668833333334,25.767143727492822
Q6114,2025-06-03 16:00:00,30.7297,112.2397,67,荆门市,五里,沙洋县,1000.4,23.5,95.0,43.78383333333325,27.49998547739868
Q6115,2025-06-03 16:00:00,30.6244,112.1758,56.2,荆门市,十里,沙洋县,1001.6,22.0,95.0,48.269000000000005,25.106870867957795
Q6117,2025-06-03 16:00:00,30.5508,112.275,36.5,荆门市,拾回桥,沙洋县,1004.0,23.6,94.0,44.83599999999999,27.375175633944067
Q6118,2025-06-03 16:00:00,30.7172,112.3717,71,荆门市,曾集,沙洋县,999.9,23.1,94.0,42.93166666666667,26.560500266715092
Q6122,2025-06-03 16:00:00,30.8122,112.2886,104,荆门市,雷集,掇刀区,995.9,23.0,93.0,40.973999999999904,26.11928624831407
Q6125,2025-06-03 16:00:00,30.8186,112.4253,60.1,荆门市,双堰,沙洋县,1001.1,23.0,95.0,51.029666666666756,26.68099132892297
Q6128,2025-06-03 16:00:00,30.4275,112.3442,40,荆门市,港口,沙洋县,1003.6,23.9,90.0,48.29999999999995,26.688269574318127
Q6129,2025-06-03 16:00:00,30.8017,112.6122,40,荆门市,姚集,沙洋县,1003.4,23.0,93.0,52.8315,26.11928624831407
Q6160,2025-06-03 16:00:00,31.2861,112.1533,98,荆门市,石桥驿,东宝区,996.2,20.5,90.0,34.67600000000004,21.693134086425374
Q6162,2025-06-03 16:00:00,31.3903,112.0286,129,荆门市,仙居,东宝区,992.5,21.1,82.0,41.627000000000045,20.50896422956412
Q6163,2025-06-03 16:00:00,31.1444,111.935,134,荆门市,马河,东宝区,992.6,19.4,94.0,50.077999999999946,21.163730269324738
Q6164,2025-06-03 16:00:00,31.2678,111.9847,231.2,荆门市,栗溪,东宝区,981.7,18.8,96.0,47.98300000000003,20.81982298451022
Q6167,2025-06-03 16:00:00,31.0697,111.925,129,荆门市,观音寺,东宝区,992.8,21.2,91.0,47.37299999999996,22.900196424112
Q6168,2025-06-03 16:00:00,31.0633,112.2033,110,荆门市,东宝,东宝区,995.0,23.1,73.0,32.485499999999995,20.62677148372555
Q6169,2025-06-03 16:00:00,31.2031,112.1422,112.5,荆门市,岩垱,东宝区,994.7,19.9,88.0,42.391000000000005,20.438040633258147
Q6170,2025-06-03 16:00:00,31.3072,112.1028,121,荆门市,象河,东宝区,993.6,20.3,85.0,46.00049999999998,20.23636315140472
Q6171,2025-06-03 16:00:00,31.0814,112.1022,246.3,荆门市,安河,东宝区,979.9,21.2,87.0,54.79440000000007,21.893594383491692
Q6172,2025-06-03 16:00:00,31.12,112.1464,355.3,荆门市,圣境山,东宝区,967.7,26.2,46.0,26.89350000000002,15.646965282212578
Q6173,2025-06-03 16:00:00,31.1497,112.2619,70.8,荆门市,东宝八角,东宝区,998.9,21.4,95.0,46.82300000000006,24.202000043251516
Q6174,2025-06-03 16:00:00,31.1786,112.0386,179.5,荆门市,文丰,东宝区,987.3,18.9,94.0,45.361499999999936,20.513916217341315
Q6175,2025-06-03 16:00:00,31.135,111.9811,156.5,荆门市,琵琶洲,东宝区,989.8,19.6,91.0,46.575000000000074,20.744778358939225
Q6176,2025-06-03 16:00:00,31.2347,111.9575,270.2,荆门市,铁坪,东宝区,977.1,19.7,87.0,41.06999999999997,19.956533315212976
Q6210,2025-06-03 16:00:00,31.4994,112.5936,124.4,荆门市,长寿,钟祥市,993.4,21.9,94.0,62.28599999999997,24.69135673203089
Q6213,2025-06-03 16:00:00,31.4353,112.8739,207.8,荆门市,客店,钟祥市,984.3,22.2,77.0,44.35499999999998,20.599538300865795
Q6217,2025-06-03 16:00:00,31.5064,112.72,136.9,荆门市,张集,钟祥市,992.1,21.2,94.0,48.76299999999995,23.655147954577227
Q6218,2025-06-03 16:00:00,31.2917,112.6356,56,荆门市,洋梓,钟祥市,1002.2,22.6,93.0,45.57900000000001,25.493025177200348
Q6219,2025-06-03 16:00:00,30.9944,112.5881,40,荆门市,柴湖,钟祥市,1003.2,23.1,91.0,43.91849999999995,25.712824726288016
Q6220,2025-06-03 16:00:00,31.2944,112.4272,47.9,荆门市,磷矿,钟祥市,1002.0,20.3,92.0,44.32750000000004,21.902887175638053
Q6223,2025-06-03 16:00:00,31.1669,112.6503,53,荆门市,九里,钟祥市,1002.5,22.6,92.0,45.14350000000001,25.21890662690787
Q6224,2025-06-03 16:00:00,31.1594,112.5319,54.6,荆门市,文集,钟祥市,1002.2,23.1,97.0,56.22150000000004,27.408175807142168
Q6235,2025-06-03 16:00:00,31.4969,112.5197,56,荆门市,洪山寺,钟祥市,1000.3,23.5,90.0,49.67249999999999,26.052617820693488
Q6236,2025-06-03 16:00:00,31.2022,112.4103,93,荆门市,北山,钟祥市,997.1,20.5,90.0,43.569,21.693134086425374
Q6237,2025-06-03 16:00:00,31.0467,112.4686,43,荆门市,陈坡,钟祥市,1002.0,23.4,95.0,52.98733333333338,27.334447470613465
Q6260,2025-06-03 16:00:00,31.3961,112.4883,59,荆门市,钟祥杨集,钟祥市,1001.8,22.0,91.0,45.62850000000006,24.049739462991152
Q6263,2025-06-03 16:00:00,31.2106,112.6344,65,荆门市,明显陵,钟祥市,1000.8,21.0,94.0,50.86774166666665,23.366182885703
Q6264,2025-06-03 16:00:00,31.1667,112.5667,65.8,荆门市,郢中,钟祥市,1000.5,24.0,86.0,51.78149999999999,25.655987021436054
Q6317,2025-06-03 16:00:00,31.1814,113.3008,77.2,荆门市,宋河,京山市,998.9,22.0,93.0,47.25750000000002,24.57830516547447
Q6319,2025-06-03 16:00:00,30.9697,113.2225,63,荆门市,永兴,京山市,999.9,23.2,90.0,42.17099999999998,25.584620237409922
Q6320,2025-06-03 16:00:00,30.8547,113.0992,49.6,荆门市,钱场,京山市,1002.2,23.5,89.0,46.849000000000025,25.76314428935245
Q6321,2025-06-03 16:00:00,30.8972,112.8411,34,荆门市,石龙,京山市,1003.2,23.2,92.0,52.83153333333339,26.15316735379681
Q6322,2025-06-03 16:00:00,30.7744,112.8278,33.9,荆门市,永漋,京山市,1004.0,23.4,89.0,46.164500000000004,25.60806131457472
Q6323,2025-06-03 16:00:00,31.2839,113.3547,73,荆门市,坪坝,京山市,999.1,21.3,95.0,41.434416666666664,24.054002141511642
Q6324,2025-06-03 16:00:00,30.8344,112.945,77,荆门市,屈家岭,市辖区,999.1,22.5,90.0,43.43900000000002,24.52115938894506
Q6333,2025-06-03 16:00:00,31.3436,113.1756,203.2,荆门市,三阳,京山市,984.6,20.7,97.0,46.049,23.670621089375047
Q6335,2025-06-03 16:00:00,31.2819,112.9369,174.2,荆门市,三台,京山市,987.8,19.5,96.0,43.642999999999965,21.74894253325107
Q6336,2025-06-03 16:00:00,31.2428,112.9794,208.9,荆门市,将军岭,京山市,984.5,19.8,96.0,46.18850000000004,22.15814878446242
Q6339,2025-06-03 16:00:00,30.9928,113.045,105,荆门市,空山洞,京山市,995.8,21.0,96.0,51.45049999999996,23.863335713058383
Q6343,2025-06-03 16:00:00,31.1531,113.2286,226.5,荆门市,四股泉,京山市,981.9,20.9,81.0,28.468666666666635,20.01119204909277
Q6344,2025-06-03 16:00:00,31.0558,113.4464,45,荆门市,马岭,京山市,1001.7,23.5,90.0,48.53699999999998,26.052617820693488
Q6349,2025-06-03 16:00:00,30.9269,113.0072,111,荆门市,中南山,京山市,995.3,22.8,90.0,47.34099999999996,24.97208811741959
Q6353,2025-06-03 16:00:00,31.1539,112.8736,115.4,荆门市,黄台,京山市,994.8,21.6,93.0,48.487000000000016,23.984595339312413
Q6358,2025-06-03 16:00:00,31.3367,113.0661,174,荆门市,绿林寨,京山市,989.2,19.6,82.0,41.805499999999995,18.693096982780396
Q6370,2025-06-03 16:00:00,30.9961,112.6831,38,荆门市,罗汉寺,市辖区,1003.3,22.9,98.0,58.40800000000007,27.35724859712234
Q6371,2025-06-03 16:00:00,30.9972,112.7556,57,荆门市,长滩办事处,市辖区,1001.6,22.4,96.0,50.57166666666667,25.99727347611822
Q6372,2025-06-03 16:00:00,30.9675,112.7822,89,荆门市,月宝山,市辖区,997.5,23.1,86.0,40.14900000000004,24.30003215890955
Q6373,2025-06-03 16:00:00,30.9711,112.8208,105,荆门市,牙谷山,市辖区,995.8,22.2,90.0,47.402000000000015,24.077382429583395
Q6374,2025-06-03 16:00:00,30.8964,112.7422,38.5,荆门市,刘台,市辖区,1003.6,23.0,94.0,51.36200000000005,26.40013878861852
Q6375,2025-06-03 16:00:00,30.8661,112.8697,73.3,荆门市,种业基地,市辖区,999.8,22.8,89.0,43.78699999999996,24.694620471670486
Q6376,2025-06-03 16:00:00,30.7656,112.8836,33.1,荆门市,蔡垱,市辖区,1004.1,23.4,93.0,54.74049999999998,26.758985418600552
Q6401,2025-06-03 16:00:00,29.9694,111.5644,100.3,荆州市,洈水,松滋市,997.8,23.3,74.0,31.675499999999985,21.163830936285223
Q6402,2025-06-03 16:00:00,30.1794,111.9433,38.4,荆州市,沙道观,松滋市,1003.3,23.6,92.0,56.794499999999964,26.792725088541
Q6403,2025-06-03 16:00:00,30.0286,111.8453,52.1,荆州市,纸厂河,松滋市,1003.1,22.7,92.0,57.74399999999998,25.372555184194226
Q6404,2025-06-03 16:00:00,30.1169,111.85,48.2,荆州市,南海,松滋市,1003.7,22.5,82.0,44.547749999999986,22.341500776594383
Q6406,2025-06-03 16:00:00,30.03,111.37,136,荆州市,卸甲坪,松滋市,994.4,21.1,83.0,32.18749999999998,20.75907354943686
Q6407,2025-06-03 16:00:00,30.0261,111.6894,43,荆州市,北干渠,松滋市,1001.9,22.4,82.0,41.195499999999974,22.206004427517644
Q6408,2025-06-03 16:00:00,30.0728,111.6294,164,荆州市,北河,松滋市,989.5,23.6,55.0,28.040499999999987,16.017389998584296
Q6409,2025-06-03 16:00:00,30.2792,111.6517,122,荆州市,陈店,松滋市,993.3,22.4,84.0,42.63,22.747614291603444
Q6411,2025-06-03 16:00:00,30.2714,112.0189,50.1,荆州市,涴市,松滋市,1003.4,23.0,89.0,48.5225,24.99587608709626
Q6412,2025-06-03 16:00:00,29.9758,111.7756,69.2,荆州市,杨林市,松滋市,1000.6,23.1,89.0,47.25450000000008,25.147707699336628
Q6414,2025-06-03 16:00:00,30.18,111.8686,46.1,荆州市,八宝,松滋市,1003.5,23.1,95.0,61.48849999999996,26.843058780190784
Q6415,2025-06-03 16:00:00,29.9686,111.6961,76.2,荆州市,万家,松滋市,1001.2,22.0,90.0,48.889500000000005,23.78545661174949
Q6417,2025-06-03 16:00:00,30.0903,111.4008,626.8,荆州市,三堰淌,松滋市,939.0,18.8,75.0,27.008500000000016,16.26548670664861
Q6418,2025-06-03 16:00:00,30.0397,111.3681,220,荆州市,卸甲坪村,松滋市,983.2,19.0,91.0,37.39650000000007,19.983657229002084
Q6426,2025-06-03 16:00:00,30.1769,111.7736,69.5,荆州市,新江口,松滋市,1000.3,24.9,64.0,29.849000000000004,20.150878253607637
Q6494,2025-06-03 16:00:00,29.9206,112.0969,44,荆州市,南平,公安县,1003.8,23.3,86.0,39.548500000000075,24.59580352054769
Q6495,2025-06-03 16:00:00,29.99,112.0072,48,荆州市,狮子口,公安县,1003.2,23.3,87.0,39.08500000000005,24.8818012359029
Q6496,2025-06-03 16:00:00,30.0592,112.3197,30,荆州市,杨家厂,公安县,1004.2,22.7,88.0,44.56699999999997,24.26940061096839
Q6497,2025-06-03 16:00:00,29.8575,112.0914,40,荆州市,孟家溪,公安县,1004.3,23.4,87.0,46.91450000000008,25.032599262561806
Q6498,2025-06-03 16:00:00,29.9631,112.3392,40,荆州市,麻豪口,公安县,1004.2,24.7,80.0,44.84050000000003,24.88927835215252
Q6499,2025-06-03 16:00:00,29.99,112.1083,37,荆州市,夹竹园,公安县,1004.1,23.4,87.0,44.82600000000011,25.032599262561806
Q6500,2025-06-03 16:00:00,29.7447,112.0739,36.9,荆州市,甘厂,公安县,1004.4,23.1,85.0,48.426999999999964,24.01747364543386
Q6502,2025-06-03 16:00:00,30.0544,112.0081,39.5,荆州市,斑竹垱,公安县,1004.0,23.9,95.0,53.12499999999999,28.1709512173358
Q6503,2025-06-03 16:00:00,30.2919,112.2406,44,荆州市,埠河,公安县,1003.5,23.4,85.0,40.65449999999997,24.45713721054889
