Station_Id_C,Datetime,Lat,Lon,Alti,City,Station_Name,Cnty,PRS,TEM,RHU,PWV,VAP
57249,2025-06-03 01:00:00,32.3244,109.6889,448.2,十堰市,竹溪,竹溪县,959.8,17.9,100.0,41.97600000000002,20.4964197860545
57251,2025-06-03 01:00:00,33.0033,110.4083,321.2,十堰市,郧西,郧西县,973.2,20.5,82.0,28.5,19.76485550096534
57253,2025-06-03 01:00:00,32.84,110.8669,244.8,十堰市,郧阳,郧阳区,980.9,22.3,76.0,36.7535,20.456260845718774
57256,2025-06-03 01:00:00,32.6553,110.7728,290.2,十堰市,十堰,张湾区,976.2,22.4,73.0,31.1,19.768760039131564
57257,2025-06-03 01:00:00,32.2256,110.2261,308.4,十堰市,竹山,竹山县,976.1,17.0,100.0,32.8,19.363360584848092
57259,2025-06-03 01:00:00,32.0511,110.7475,429.5,十堰市,房县,房县,962.2,19.5,84.0,28,19.030324716594688
57260,2025-06-03 01:00:00,32.5417,111.4531,248.4,十堰市,丹江口,丹江口市,979.8,21.8,79.0,26.159499999999994,20.624826764586945
57264,2025-06-03 01:00:00,32.4261,111.0153,1017.5,十堰市,武当山,丹江口市,898.1,20.4,52.0,21.357499999999995,12.456643209964156
57265,2025-06-03 01:00:00,32.4319,111.7319,132.1,襄阳市,老河口,老河口市,992.9,23.0,70.0,37.06250000000003,19.65967782131166
57268,2025-06-03 01:00:00,32.2718,111.6211,124.2,襄阳市,谷城,谷城县,994.3,23.2,71.0,26.8,20.183422631734494
57278,2025-06-03 01:00:00,32.0031,112.0765,166.1,襄阳市,襄阳,襄城区,989.3,22.3,83.0,23.7,22.34039013414024
57279,2025-06-03 01:00:00,32.1614,112.7767,136.5,襄阳市,枣阳,枣阳市,992.2,23.1,82.0,24.6,23.16979810500678
57351,2025-06-03 01:00:00,30.8333,111.0167,231,宜昌市,坛子岭,夷陵区,983.2,20.0,100.0,46.30650000000001,23.36947123406443
57352,2025-06-03 01:00:00,30.8092,111.0003,185.3,宜昌市,三斗坪,夷陵区,988.3,20.5,89.0,47.427000000000014,21.45209926324287
57353,2025-06-03 01:00:00,30.8378,111.0164,191.8,宜昌市,苏家坳,夷陵区,987.7,20.8,86.0,48.209,21.11603598742888
57354,2025-06-03 01:00:00,31.4558,110.2711,2948.1,省直辖县级行政区划,神农顶,神农架林区,714.3,6.6,62.0,8.1665,6.040698979473312
57355,2025-06-03 01:00:00,31.0483,110.35,337.5,恩施土家族苗族自治州,巴东,巴东县,972.4,19.7,100.0,43.04300000000008,22.938544040474685
57358,2025-06-03 01:00:00,30.8303,110.9639,295.5,宜昌市,秭归,秭归县,975.4,20.3,81.0,36.974500000000056,19.284063708985677
57359,2025-06-03 01:00:00,31.3453,110.7417,336.8,宜昌市,兴山,兴山县,972.5,18.7,80.0,33.02149999999995,17.24164868173597
57361,2025-06-03 01:00:00,31.8791,111.2583,331.8,襄阳市,保康,保康县,973.0,19.6,80.0,27.8,18.23716778807844
57362,2025-06-03 01:00:00,31.7484,110.6602,939,省直辖县级行政区划,神农架,神农架林区,906.7,16.6,70.0,23.2,13.214396839807339
57363,2025-06-03 01:00:00,31.7995,111.8388,159.9,襄阳市,南漳,南漳县,990.1,22.9,73.0,24.5,20.37835864887684
57367,2025-06-03 01:00:00,31.0836,110.9406,1910,宜昌市,大老岭,夷陵区,808.8,14.3,55.0,13.938500000000003,8.958121699141333
57368,2025-06-03 01:00:00,31.053,111.6318,146.2,宜昌市,远安,远安县,991.7,21.1,80.0,28,20.008745589818663
57370,2025-06-03 01:00:00,31.7353,112.2189,71.6,襄阳市,宜城,宜城市,1000.1,22.1,85.0,27.7,22.60152771233459
57371,2025-06-03 01:00:00,31.9356,113.3081,121.9,随州市,随县,随县,994.0,21.0,85.0,34.98399999999999,21.128995162603776
57377,2025-06-03 01:00:00,30.9931,112.2123,191.9,荆门市,荆门,掇刀区,986.0,22.9,75.0,27.5,20.936669844736482
57378,2025-06-03 01:00:00,31.1724,112.5812,66.6,荆门市,钟祥,钟祥市,995.3,22.4,82.0,32.9,22.206004427517644
57381,2025-06-03 01:00:00,31.6194,113.3386,110.5,随州市,随州,曾都区,995.7,19.1,99.0,30.2,21.876586779518394
57385,2025-06-03 01:00:00,31.625,113.8206,120.4,随州市,广水,广水市,994.5,22.7,82.0,28.2,22.61466875112963
57386,2025-06-03 01:00:00,31.2519,113.9997,51.6,孝感市,孝昌,孝昌县,1001.3,24.3,65.0,38.695499999999946,19.743722384167764
57387,2025-06-03 01:00:00,30.9996,113.132,86.3,荆门市,京山,京山市,998.0,23.8,74.0,28,21.811990591629275
57388,2025-06-03 01:00:00,31.2642,113.6936,57.5,孝感市,安陆,安陆市,1001.5,23.0,73.0,28.4,20.50223544222502
57389,2025-06-03 01:00:00,31.0269,113.7486,32.2,孝感市,云梦,云梦县,1004.0,24.7,69.0,37.88299999999997,21.467002578731545
57395,2025-06-03 01:00:00,31.5883,114.1675,120,孝感市,大悟,大悟县,993.6,22.0,72.0,32.123499999999986,19.02836528939959
57398,2025-06-03 01:00:00,31.2803,114.6206,76.4,黄冈市,红安,红安县,999.5,22.6,76.0,24.8,20.83300982222824
57399,2025-06-03 01:00:00,31.1308,114.9547,74.3,黄冈市,麻城,麻城市,999.4,22.3,68.0,30.537000000000006,18.302970230379955
57439,2025-06-03 01:00:00,30.2911,108.9297,1127.5,恩施土家族苗族自治州,利川,利川市,886.7,15.7,93.0,30,16.576279221825526
57445,2025-06-03 01:00:00,30.6071,109.7201,610.3,恩施土家族苗族自治州,建始,建始县,942.1,18.3,100.0,29,21.018420099150696
57447,2025-06-03 01:00:00,30.2861,109.4707,458.7,恩施土家族苗族自治州,恩施,恩施市,958.8,20.1,95.0,37.4,22.33894960968055
57451,2025-06-03 01:00:00,30.8131,110.2539,1813.5,恩施土家族苗族自治州,绿葱坡,巴东县,818.4,14.9,47.0,18.10200000000001,7.957608590660755
57453,2025-06-03 01:00:00,30.762,111.4172,191.9,宜昌市,夷陵,夷陵区,986.9,21.2,73.0,27.6,18.370487241320614
57458,2025-06-03 01:00:00,30.1511,111.0683,243.2,宜昌市,五峰,五峰土家族自治县,980.6,21.0,77.0,33.02600000000001,19.140383853182247
57460,2025-06-03 01:00:00,30.8215,111.7841,95.6,宜昌市,当阳,当阳市,997.6,21.7,76.0,28.3,19.720636439303473
57461,2025-06-03 01:00:00,30.7019,111.2975,136.4,宜昌市,三峡,西陵区,978.5,21.0,-999.0,27.2,-248.32783726401382
57462,2025-06-03 01:00:00,30.8592,111.0831,139.9,宜昌市,夷陵三峡,夷陵区,993.3,21.0,82.0,48.07550000000003,20.3832659215707
57464,2025-06-03 01:00:00,30.4717,111.1817,180.7,宜昌市,长阳,长阳土家族自治县,988.1,19.8,94.0,29.6,21.696520684786123
57465,2025-06-03 01:00:00,30.3622,111.4319,120.1,宜昌市,宜都,宜都市,994.4,22.7,79.0,41.711000000000034,21.787302821210258
57466,2025-06-03 01:00:00,30.462,111.7464,67.3,宜昌市,枝江,枝江市,1000.6,22.4,73.0,33.2,19.768760039131564
57469,2025-06-03 01:00:00,30.1783,111.68,111.2,荆州市,松滋,松滋市,995.9,23.3,72.0,34.8,20.59183550557481
57475,2025-06-03 01:00:00,30.403,112.9014,34.5,省直辖县级行政区划,潜江,潜江市,1004.4,23.4,77.0,37.6,22.15528900249723
57476,2025-06-03 01:00:00,30.3505,112.1484,35.3,荆州市,荆州,荆州区,1004.3,23.1,86.0,37.6,24.30003215890955
57477,2025-06-03 01:00:00,30.0708,112.2159,40.1,荆州市,公安,公安县,1003.8,24.1,73.0,36.7,21.909050346076402
57481,2025-06-03 01:00:00,30.9561,113.5753,33.4,孝感市,应城,应城市,1004.3,23.9,73.0,27.9,21.647151988058035
57482,2025-06-03 01:00:00,30.9033,113.9461,26.4,孝感市,孝感,孝感市,1005.1,24.5,68.0,33.5,20.90411539971887
57483,2025-06-03 01:00:00,30.6697,113.135,35.4,省直辖县级行政区划,天门,天门市,1004.4,24.1,80.0,33.6,24.00991818748099
57484,2025-06-03 01:00:00,30.7359,112.5489,61.1,荆门市,沙洋,沙洋县,1001.4,23.0,80.0,29.2,22.46820322435619
57485,2025-06-03 01:00:00,30.2953,113.4829,27.1,省直辖县级行政区划,仙桃,仙桃市,1005.5,23.0,77.0,37.2,21.62564560344283
57486,2025-06-03 01:00:00,30.6556,113.8431,25,孝感市,汉川,汉川市,1004.9,23.5,79.0,39.42849999999999,22.868408975942064
57489,2025-06-03 01:00:00,30.5236,114.0081,26.2,武汉市,蔡甸,蔡甸区,1005.2,23.3,83.0,32.5,23.737810374482073
57491,2025-06-03 01:00:00,30.871,114.3948,34.7,武汉市,黄陂,黄陂区,1004.2,23.0,76.0,29.1,21.34479306313838
57492,2025-06-03 01:00:00,30.8386,114.8386,44.7,武汉市,新洲,新洲区,1003.3,22.5,85.0,27,23.15887275622589
57493,2025-06-03 01:00:00,30.3429,114.3353,80.8,武汉市,江夏,江夏区,999.4,23.3,76.0,30.3,21.735826366995635
57494,2025-06-03 01:00:00,30.5978,114.0506,23.6,武汉市,武汉,东西湖区,1005.2,23.8,72.0,35.862,21.222477332396053
57495,2025-06-03 01:00:00,30.6675,115.0669,61.8,黄冈市,团风,团风县,1001.2,23.0,69.0,30.229999999999947,19.37882528100721
57496,2025-06-03 01:00:00,30.2572,114.6119,35.3,鄂州市,鄂州,梁子湖区,1004.5,22.0,99.0,51.32549999999995,26.16400227292444
57498,2025-06-03 01:00:00,30.5147,114.9364,28.4,黄冈市,黄冈,黄州区,1005.2,23.7,72.0,30.8,21.095012993734798
57499,2025-06-03 01:00:00,30.0744,114.875,40.3,黄石市,大冶,大冶市,1003.8,23.1,72.0,44.43249999999999,20.344212970249856
57540,2025-06-03 01:00:00,29.6847,109.1436,779.9,恩施土家族苗族自治州,咸丰,咸丰县,923.4,18.9,100.0,36.5,21.823315124831183
57541,2025-06-03 01:00:00,29.995,109.4783,602.6,恩施土家族苗族自治州,宣恩,宣恩县,942.7,19.3,92.0,38,20.5848442978129
57543,2025-06-03 01:00:00,29.8839,110.025,541.2,恩施土家族苗族自治州,鹤峰,鹤峰县,949.2,19.4,83.0,37.2,18.687123535680353
57545,2025-06-03 01:00:00,29.5281,109.4211,506.4,恩施土家族苗族自治州,来凤,来凤县,953.0,19.9,93.0,40.7,21.599292941966
57571,2025-06-03 01:00:00,29.6594,112.4122,41.2,荆州市,石首,石首市,1003.9,23.2,81.0,38.8,23.026158213668932
57573,2025-06-03 01:00:00,29.8753,112.9044,26.2,荆州市,监利,监利市,1005.0,23.8,74.0,33.39200000000005,21.811990591629275
57581,2025-06-03 01:00:00,29.8122,113.4422,28.4,荆州市,洪湖,洪湖市,1005.4,23.7,73.0,38.5,21.387999285314446
57582,2025-06-03 01:00:00,29.7242,113.8758,51.1,咸宁市,赤壁,赤壁市,1003.0,23.3,66.0,34.9,18.875849213443576
57583,2025-06-03 01:00:00,29.9259,113.9595,65.6,咸宁市,嘉鱼,嘉鱼县,1001.3,23.3,76.0,33.4,21.735826366995635
57586,2025-06-03 01:00:00,29.5746,114.0339,138.9,咸宁市,崇阳国家基本气象站,崇阳县,993.0,21.9,91.0,38.1,23.903334708668204
57589,2025-06-03 01:00:00,29.274,113.8787,149.7,咸宁市,通城,通城县,991.8,21.4,86.0,38.6,21.909178986522424
57590,2025-06-03 01:00:00,29.8517,114.3672,102.8,咸宁市,咸宁,市辖区,997.2,22.7,74.0,32.9,20.408359604677962
57595,2025-06-03 01:00:00,29.6108,114.4578,99.9,咸宁市,通山,通山县,996.9,21.8,81.0,40.08099999999999,21.146974277614465
57596,2025-06-03 01:00:00,29.6347,114.2053,751.6,咸宁市,金沙本底站,崇阳县,924.5,19.2,83.0,34.43549999999996,18.455728262579512
58401,2025-06-03 01:00:00,30.7467,115.3956,127.1,黄冈市,罗田,罗田县,993.9,21.5,72.0,23.7,18.45533998105163
58402,2025-06-03 01:00:00,30.7295,115.6676,126.2,黄冈市,英山,英山县,994.0,21.2,70.0,23.7,17.61553571085538
58404,2025-06-03 01:00:00,30.4717,115.2175,69.9,黄冈市,浠水,浠水县,1000.8,23.0,73.0,27.5,20.50223544222502
58407,2025-06-03 01:00:00,30.2385,115.0275,35.4,黄石市,黄石,黄石港区,1004.6,23.3,70.0,34.7,20.019840074864398
58408,2025-06-03 01:00:00,30.23,115.4358,75.7,黄冈市,蕲春,蕲春县,1000.3,21.6,86.0,30.1,22.179303216998573
58500,2025-06-03 01:00:00,29.8961,115.2163,60.7,黄石市,阳新,阳新县,1001.8,23.4,71.0,33.1,20.428902846458485
58501,2025-06-03 01:00:00,29.925,115.6264,28.1,黄冈市,武穴,武穴市,1005.6,22.8,82.0,33.7,22.752346951426734
Q0004,2025-06-03 01:00:00,30.2789,108.8711,1082.2,恩施土家族苗族自治州,沪渝K1464,利川市,888.8,16.0,97.0,34.08933333333333,17.624229178092538
Q0005,2025-06-03 01:00:00,30.2444,109.1197,1131.4,恩施土家族苗族自治州,沪渝K1439,利川市,885.1,16.2,5.0,5.8050000000000015,0.9201399755882609
Q0007,2025-06-03 01:00:00,30.2389,109.3664,706.7,恩施土家族苗族自治州,沪渝K1412,恩施市,929.5,19.0,99.0,40.86200000000008,21.740462260123145
Q0008,2025-06-03 01:00:00,30.2439,109.4128,545.1,恩施土家族苗族自治州,沪渝K1407,巴东县,946.3,19.9,89.0,48.268416666666695,20.670291094999715
Q0010,2025-06-03 01:00:00,30.4114,109.5864,729.9,恩施土家族苗族自治州,沪渝K1375,恩施市,926.5,18.3,99.0,44.50674999999997,20.808235898159186
Q0011,2025-06-03 01:00:00,30.455,109.6258,624.1,恩施土家族苗族自治州,沪渝K1369,恩施市,937.5,19.0,88.0,33.775000000000006,19.324855342331684
Q0013,2025-06-03 01:00:00,30.4628,109.7828,780.1,恩施土家族苗族自治州,沪渝K1351,恩施市,920.4,17.6,91.0,38.01049999999997,18.30230939443685
Q0014,2025-06-03 01:00:00,30.4997,109.8508,903.4,恩施土家族苗族自治州,沪渝K1343,恩施市,907.8,17.0,87.0,34.52099999999998,16.84612370881784
Q0015,2025-06-03 01:00:00,30.55,109.8914,879.8,恩施土家族苗族自治州,沪渝K1336,建始县,910.0,16.7,95.0,35.38199999999996,18.048202159422726
Q0017,2025-06-03 01:00:00,30.6506,110.0908,794.9,恩施土家族苗族自治州,沪渝K1313,巴东县,919.1,17.0,89.0,33.81899999999999,17.2333909205148
Q0019,2025-06-03 01:00:00,30.6308,110.1639,865.2,恩施土家族苗族自治州,沪渝K1305,巴东县,911.6,17.0,97.0,36.01850000000001,18.782459767302647
Q0021,2025-06-03 01:00:00,30.6119,110.3097,1104.2,恩施土家族苗族自治州,沪渝K1291,巴东县,886.4,15.9,95.0,34.89700000000001,17.150865736826756
Q0022,2025-06-03 01:00:00,30.6217,110.3864,923,恩施土家族苗族自治州,沪渝k1283,恩施市,893.4,16.9,79.0,29.18650000000001,15.200334476284848
Q0023,2025-06-03 01:00:00,30.6325,111.3253,62.7,宜昌市,秭归k48,市辖区,998.0,21.9,76.0,45.972000000000065,19.96322459185476
Q0026,2025-06-03 01:00:00,30.6247,110.6047,597.8,宜昌市,沪渝K1262,长阳土家族自治县,940.2,16.8,86.0,31.60950000000001,16.44249460917346
Q0028,2025-06-03 01:00:00,30.5711,111.4003,54.9,宜昌市,沪渝K1179,市辖区,999.7,21.9,83.0,42.57599999999998,21.8019426463677
Q0030,2025-06-03 01:00:00,30.5589,111.1281,241.9,宜昌市,沪渝K1208,长阳土家族自治县,981.9,19.8,92.0,43.61550000000004,21.234892585109822
Q0032,2025-06-03 01:00:00,30.3922,112.195,25.4,荆州市,沪渝K1097,荆州区,1004.0,23.1,73.0,40.088500000000096,20.62677148372555
Q0033,2025-06-03 01:00:00,30.3353,112.4733,25.4,荆州市,沪渝K1069,荆州区,1004.7,23.3,81.0,44.090999999999894,23.165814943771665
Q0034,2025-06-03 01:00:00,30.3383,112.5164,24.4,省直辖县级行政区划,沪渝K1065,潜江市,1004.3,23.8,80.0,49.013499999999986,23.58053036932895
Q0037,2025-06-03 01:00:00,30.4533,113.8225,17,武汉市,沪渝K933,蔡甸区,1004.8,24.0,74.0,38.406500000000015,22.07608185565428
Q0039,2025-06-03 01:00:00,30.3486,113.5853,15.2,省直辖县级行政区划,沪渝k959,仙桃市,1004.9,23.6,78.0,35.75399999999995,22.715571270719543
Q0040,2025-06-03 01:00:00,30.3631,113.3619,9,省直辖县级行政区划,沪渝K982,仙桃市,1005.5,23.8,78.0,36.739,22.991017110095722
Q0047,2025-06-03 01:00:00,30.2406,115.1297,19.8,黄冈市,黄黄785,浠水县,1006.4,23.1,76.0,40.640500000000024,21.474447024152628
Q0049,2025-06-03 01:00:00,30.1353,115.33,21.4,黄冈市,黄黄K761,蕲春县,1005.9,23.2,75.0,44.905500000000046,21.320516864508267
Q0050,2025-06-03 01:00:00,30.0289,115.4664,41.4,黄冈市,黄黄K742,武穴市,1004.0,24.2,70.0,34.677199999999985,21.13524080022173
Q0051,2025-06-03 01:00:00,30.0039,115.5917,38,黄冈市,黄黄K730,武穴市,1005.0,22.6,81.0,36.66050000000003,22.203602573690628
Q0052,2025-06-03 01:00:00,30.0161,115.6708,42.5,黄冈市,黄黄K722,武穴市,1003.6,23.1,79.0,34.75150000000001,22.322122564579704
Q0053,2025-06-03 01:00:00,30.0278,115.7514,22.2,黄冈市,黄黄K714,武穴市,1006.0,23.0,83.0,53.407999999999994,23.310760845269545
Q0054,2025-06-03 01:00:00,30.0278,115.8164,23.1,黄冈市,黄黄K708,黄梅县,1006.5,21.7,96.0,53.66400000000008,24.910277607541225
Q0055,2025-06-03 01:00:00,30.0333,115.8986,25.2,黄冈市,黄黄K700,黄梅县,1005.9,21.5,89.0,50.29149999999997,22.81285080991104
Q0056,2025-06-03 01:00:00,30.1047,116.0217,45.9,黄冈市,黄黄K685,黄梅县,1003.8,20.7,5.0,3.2569999999999943,1.2201351076997449
Q0058,2025-06-03 01:00:00,30.1703,114.9136,25,黄石市,大广K2491,市辖区,1004.5,22.9,83.0,48.39399999999992,23.16991462817504
Q0060,2025-06-03 01:00:00,30.0042,114.9003,50.6,黄石市,大广K2510,大冶市,1001.4,24.8,65.0,38.294499999999935,20.34381911004052
Q0061,2025-06-03 01:00:00,29.9158,114.8833,57.7,黄石市,大广K2520,大冶市,1001.3,24.1,64.0,31.308000000000046,19.20793454998479
Q0064,2025-06-03 01:00:00,29.6617,114.9464,23.5,黄石市,大广K2552,阳新县,1005.3,23.9,71.0,36.50350000000003,21.054079330850968
Q0065,2025-06-03 01:00:00,29.6053,114.9322,37.1,黄石市,大广K2560,阳新县,1002.7,23.2,71.0,36.735499999999995,20.183422631734494
Q0066,2025-06-03 01:00:00,29.4306,114.8339,281.9,咸宁市,大广K2583,通山县,974.4,21.2,86.0,49.717000000000034,21.64194387333661
Q0067,2025-06-03 01:00:00,29.3742,113.8803,81,咸宁市,杭瑞K731,崇阳县,997.8,22.4,85.0,49.00249999999998,23.01841922364634
Q0069,2025-06-03 01:00:00,29.5817,114.3203,81,咸宁市,杭瑞K679,通山县,994.6,23.0,70.0,35.483999999999924,19.65967782131166
Q0070,2025-06-03 01:00:00,29.6758,114.6372,141.1,咸宁市,杭瑞K646,通山县,991.3,22.6,71.0,41.15840476190471,19.462417070765856
Q0071,2025-06-03 01:00:00,29.7172,114.6692,128.1,咸宁市,杭瑞K640,通山县,992.9,23.3,70.0,43.19650000000002,20.019840074864398
Q0072,2025-06-03 01:00:00,29.7147,114.8767,167.3,黄石市,杭瑞K620,阳新县,989.2,22.6,72.0,35.961999999999996,19.736535621058334
Q0074,2025-06-03 01:00:00,29.7067,115.2367,54.2,黄石市,杭瑞K583,阳新县,1001.3,23.9,60.0,29.48950000000002,17.792179716212082
Q0079,2025-06-03 01:00:00,33.08,110.3,444.3,十堰市,福银K1447,郧西县,959.0,21.0,78.0,32.07549999999999,19.388960266859936
Q0080,2025-06-03 01:00:00,32.95,110.5,395.1,十堰市,福银K1421,郧西县,963.8,22.4,69.0,28.688500000000012,18.685540310959972
Q0081,2025-06-03 01:00:00,32.86,110.65,275.8,十堰市,福银K1405,郧西县,975.5,22.1,73.0,32.665499999999945,19.410723800005
Q0082,2025-06-03 01:00:00,32.82,110.7,205.1,十堰市,福银K1398,郧西县,983.7,22.4,72.0,30.120000000000033,19.497955107088668
Q0083,2025-06-03 01:00:00,32.51,111.14,162.4,十堰市,福银K1338,丹江口市,989.0,21.5,79.0,34.89450000000002,20.24960914587609
Q0084,2025-06-03 01:00:00,32.63,110.86,199.4,十堰市,福银K1364,丹江口市,984.8,23.6,66.0,39.1415,19.220867998301152
Q0087,2025-06-03 01:00:00,32.28,111.66,73.4,襄阳市,福银K1277,谷城县,998.5,23.8,67.0,32.91650000000001,19.748694184312992
Q0089,2025-06-03 01:00:00,32.19,112.1,76.5,襄阳市,福银K1234,市辖区,998.2,23.7,63.0,34.668500000000016,18.45813636951795
Q0093,2025-06-03 01:00:00,31.67,113.26,101,随州市,福银K1103,市辖区,996.3,21.3,82.0,26.37050000000002,20.762401848462677
Q0094,2025-06-03 01:00:00,31.6,113.33,83,随州市,福银K1093,市辖区,998.6,20.2,87.0,32.254500000000014,20.584798142992017
Q0095,2025-06-03 01:00:00,31.48,113.43,110,随州市,福银K1076,市辖区,995.0,23.8,67.0,31.866500000000016,19.748694184312992
Q0096,2025-06-03 01:00:00,31.39,113.51,97.7,孝感市,福银K1064,安陆市,997.2,24.0,67.0,34.48699999999991,19.98780384228158
Q0100,2025-06-03 01:00:00,30.98,114.05,29.2,孝感市,福银K993,市辖区,1003.9,24.4,69.0,41.39050000000002,21.084793060227735
Q0103,2025-06-03 01:00:00,31.54,112.28,56.7,荆门市,襄荆K1620,钟祥市,1000.5,22.5,5.0,6.161499999999997,1.36228663271917
Q0104,2025-06-03 01:00:00,31.42,112.34,68.6,荆门市,襄荆K1634,钟祥市,999.8,23.7,77.0,35.948499999999946,22.559944451633047
Q0106,2025-06-03 01:00:00,30.99,112.27,51.3,荆门市,襄荆K1685,市辖区,1000.5,23.1,82.0,40.81099999999997,23.16979810500678
Q0107,2025-06-03 01:00:00,30.82,112.24,75.1,荆门市,襄荆K1704,市辖区,998.5,22.6,79.0,33.071,21.65536547310567
Q0108,2025-06-03 01:00:00,30.7,112.22,50.4,荆门市,襄荆K1715交通气象站,沙洋县,1001.7,22.6,5.0,8.5145,1.3705927514623844
Q0109,2025-06-03 01:00:00,30.45,112.21,42.3,荆门市,襄荆K1745,沙洋县,1003.6,22.5,83.0,48.118000000000045,22.61395810313822
Q0600,2025-06-03 01:00:00,29.8361,113.5272,26,荆州市,洪湖石码头,洪湖市,1005.0,23.1,80.0,35.49450000000004,22.6046810780554
Q0603,2025-06-03 01:00:00,29.7378,112.4081,20,荆州市,石首海事码头,石首市,1004.4,23.7,84.0,44.55050000000005,24.610848492690597
Q0604,2025-06-03 01:00:00,30.0744,112.215,11,荆州市,公安航道码头,公安县,1003.7,23.3,83.0,37.32150000000004,23.737810374482073
Q0605,2025-06-03 01:00:00,30.03,112.4025,50,荆州市,江陵航道码头,江陵县,1003.7,22.6,84.0,48.416000000000025,23.025958224568054
Q0606,2025-06-03 01:00:00,30.3206,112.2025,15,荆州市,杨林矶海事码头,市辖区,1003.5,22.9,95.0,56.75600000000005,26.519781803332876
Q0607,2025-06-03 01:00:00,30.6586,114.5494,40,武汉市,阳逻海事水上搜救中心,新洲区,1005.0,22.2,73.0,31.98950000000001,19.529432415106534
Q0608,2025-06-03 01:00:00,30.3672,114.1486,0,武汉市,金口航道码头,江夏区,1005.0,22.9,72.0,33.81699999999998,20.099203050947022
Q0609,2025-06-03 01:00:00,30.2064,113.9283,20,咸宁市,嘉鱼簰洲湾海事站房,嘉鱼县,1004.9,22.8,84.0,44.37299999999999,23.307282242924952
Q0611,2025-06-03 01:00:00,31.0047,110.6128,194.5,宜昌市,秭归泄滩小学,秭归县,986.9,20.9,84.0,35.14600000000006,20.752347310170276
Q0612,2025-06-03 01:00:00,30.5539,111.39,40,宜昌市,长江航道宜昌综合码头,宜都市,1002.6,21.8,91.0,46.39449999999995,23.757711842752055
Q0613,2025-06-03 01:00:00,30.4106,111.5064,60,宜昌市,宜昌海事局孙家河执法队,宜都市,1003.1,21.6,90.0,33.20199999999993,23.210898715463625
Q0614,2025-06-03 01:00:00,30.3075,111.6236,40,宜昌市,松滋河口,宜都市,1002.9,22.2,79.0,47.93899999999998,21.134591243745426
Q0615,2025-06-03 01:00:00,30.3725,111.64,50,宜昌市,枝江姚港,枝江市,1003.4,23.4,83.0,44.73449999999997,23.881675158535977
Q0616,2025-06-03 01:00:00,30.4125,111.8875,40,宜昌市,枝江七星台,枝江市,1003.5,21.9,78.0,40.625499999999995,20.488572607429887
Q0617,2025-06-03 01:00:00,29.7708,113.0303,40,荆州市,监利何王庙,监利市,1004.4,23.1,80.0,42.80600000000002,22.6046810780554
Q0618,2025-06-03 01:00:00,29.6517,112.9492,30,荆州市,监利三洲,监利市,1004.4,23.5,4.0,2.8860000000000037,1.157894125364155
Q0619,2025-06-03 01:00:00,29.9542,113.8303,30,荆州市,洪湖龙口汽渡码头,洪湖市,1004.8,23.0,84.0,43.30949999999995,23.591613385573996
Q0701,2025-06-03 01:00:00,30.6869,114.5175,4,武汉市,水口白灯船,新洲区,1004.7,23.3,72.0,31.51399999999999,20.59183550557481
Q0702,2025-06-03 01:00:00,30.5583,114.6317,4,武汉市,牧鹅洲白灯船,新洲区,1004.9,24.0,68.0,31.141000000000048,20.286129272763397
Q0704,2025-06-03 01:00:00,30.3142,112.2003,8,荆州市,沙市河段航道整治一期工程提示标,沙市区,1002.7,22.0,100.0,57.01950000000001,26.4282851241661
Q0705,2025-06-03 01:00:00,30.0753,112.3128,7,荆州市,公安大桥进口白泵船,公安县,1002.8,22.2,87.0,41.20349999999997,23.274803015263952
Q0707,2025-06-03 01:00:00,29.7636,112.6675,6,荆州市,桃花洲中提示标,洪湖市,1003.5,23.0,78.0,37.670500000000054,21.90649814374728
Q0725,2025-06-03 01:00:00,30.6411,114.3525,4,武汉市,天兴洲航道整治建筑物上提示标,江岸区,1004.1,23.7,60.0,27.92050000000001,17.579177494778996
Q0729,2025-06-03 01:00:00,30.5308,114.8308,4,黄冈市,黄冈大桥#1红浮,市辖区,1004.5,22.9,77.0,37.77450000000005,21.494981040596123
Q0737,2025-06-03 01:00:00,30.1289,115.2844,3,黄冈市,李家洲#3红浮,市辖区,1004.9,23.0,77.0,40.68999999999998,21.62564560344283
Q1000,2025-06-03 01:00:00,30.5944,114.3017,28.8,武汉市,江滩,江岸区,1005.1,24.4,65.0,34.53899999999996,19.862486216156565
Q1001,2025-06-03 01:00:00,30.9978,114.8886,62,武汉市,潘塘,新洲区,1000.3,22.9,71.0,37.257499999999965,19.820047453017203
Q1002,2025-06-03 01:00:00,30.9278,114.7925,28,武汉市,三店,新洲区,1005.0,22.6,74.0,34.27550000000002,20.284772721643286
Q1003,2025-06-03 01:00:00,30.8803,114.6789,24.6,武汉市,李集,新洲区,1005.3,23.2,76.0,37.4545,21.604790422701715
Q1004,2025-06-03 01:00:00,30.8169,114.8717,27,武汉市,旧街,新洲区,1005.1,22.3,78.0,37.98050000000005,20.994583499553475
Q1005,2025-06-03 01:00:00,30.7997,114.8161,40,武汉市,辛冲,新洲区,1004.0,22.6,76.0,31.403999999999993,20.83300982222824
Q1006,2025-06-03 01:00:00,30.8086,114.73,37,武汉市,汪集,新洲区,1003.9,23.1,75.0,35.561499999999995,21.191888510676932
Q1007,2025-06-03 01:00:00,30.8736,114.6136,28.8,武汉市,仓埠,江岸区,1002.9,23.8,73.0,43.62000000000002,21.517233962012664
Q1008,2025-06-03 01:00:00,30.9403,114.7225,67,武汉市,凤凰,新洲区,1001.5,22.7,74.0,37.047500000000014,20.408359604677962
Q1010,2025-06-03 01:00:00,30.5064,114.3839,40.8,武汉市,化工,洪山区,1004.1,24.0,69.0,35.846500000000034,20.584454703245207
Q1011,2025-06-03 01:00:00,30.7475,114.0272,26,武汉市,五一大队,东西湖区,1005.6,22.6,83.0,42.22099999999997,22.75183967427558
Q1013,2025-06-03 01:00:00,30.4836,114.3192,31,武汉市,湖北省农科院,洪山区,1005.2,23.6,73.0,45.4855,21.25944490721188
Q1014,2025-06-03 01:00:00,30.5325,114.5006,41,武汉市,花山工作基地,市辖区,1003.5,23.0,73.0,39.47299999999998,20.50223544222502
Q1016,2025-06-03 01:00:00,30.5333,114.5058,29,武汉市,湖北省预备役师,洪山区,1004.6,24.3,69.0,38.614999999999945,20.95872068473193
Q1017,2025-06-03 01:00:00,30.6381,114.3803,22,武汉市,和平公园,青山区,1005.3,24.5,66.0,35.901000000000046,20.289288476197722
Q1018,2025-06-03 01:00:00,30.3322,114.0706,19,武汉市,纱帽,汉南区,1005.3,24.3,70.0,38.01999999999999,21.262470259872973
Q1019,2025-06-03 01:00:00,30.2669,113.8478,25,武汉市,湘口,汉南区,1005.4,23.6,80.0,34.52950000000002,23.298021816122613
Q1020,2025-06-03 01:00:00,30.3078,113.9783,27,武汉市,邓南,汉南区,1004.8,23.5,85.0,43.92449999999995,24.605250163988295
Q1021,2025-06-03 01:00:00,30.3461,113.9131,24,武汉市,东荆,汉南区,1005.3,23.8,78.0,38.25549999999997,22.991017110095722
Q1022,2025-06-03 01:00:00,30.6703,114.1803,32,武汉市,气象预警中心,东西湖区,1005.5,24.3,67.0,38.54149999999998,20.35122153444985
Q1023,2025-06-03 01:00:00,30.4614,114.2383,23.2,武汉市,建和分校,洪山区,1005.5,24.4,67.0,39.22199999999998,20.47363963819215
Q1024,2025-06-03 01:00:00,30.6242,114.1408,26,武汉市,实验小学,东西湖区,1005.5,26.6,58.0,32.407499999999985,20.200444081154547
Q1025,2025-06-03 01:00:00,30.6014,114.4875,25,武汉市,白玉公园,青山区,1014.7,24.3,74.0,34.99900000000001,22.477468560437142
Q1026,2025-06-03 01:00:00,30.455,114.1294,28,武汉市,沌阳,汉南区,1005.4,25.5,66.0,38.34949999999999,21.53707314755727
Q1027,2025-06-03 01:00:00,30.5183,114.3594,43.1,武汉市,华师,洪山区,1003.3,22.9,74.0,46.074499999999986,20.65751424680666
Q1028,2025-06-03 01:00:00,30.6731,114.2292,24,武汉市,常青路,东西湖区,1005.6,24.9,67.0,43.520000000000024,21.095450671745496
Q1029,2025-06-03 01:00:00,30.5644,114.4858,26.8,武汉市,光谷二十七小学,洪山区,1005.2,24.1,71.0,41.91550000000002,21.308802391389378
Q1030,2025-06-03 01:00:00,30.6772,114.2828,35,武汉市,材保所,东西湖区,1005.6,24.9,68.0,40.868999999999964,21.41030814445812
Q1031,2025-06-03 01:00:00,30.4789,114.4464,35,武汉市,湖北省第二师范,洪山区,1004.2,24.0,69.0,34.642500000000055,20.584454703245207
Q1032,2025-06-03 01:00:00,30.6644,114.3136,26,武汉市,百步亭社区,江岸区,1005.7,24.3,65.0,38.12849999999999,19.743722384167764
Q1033,2025-06-03 01:00:00,30.5133,114.3114,19,武汉市,南湖社区,武昌区,1005.6,25.1,65.0,27.42650000000007,20.711488772031174
Q1036,2025-06-03 01:00:00,30.5517,114.4369,23,武汉市,东湖落雁景区,市辖区,1005.7,23.3,81.0,43.584500000000055,23.165814943771665
Q1038,2025-06-03 01:00:00,30.6708,114.41,25,武汉市,天兴洲,洪山区,1005.2,24.0,70.0,33.37383333333332,20.88278013372702
Q1039,2025-06-03 01:00:00,30.5031,114.4803,45.3,武汉市,光谷二十一小学,洪山区,1003.5,24.5,69.0,42.45800000000004,21.211528861479433
Q1040,2025-06-03 01:00:00,30.7594,114.6317,24,武汉市,五云,江岸区,1004.0,23.6,75.0,31.782250000000037,21.841895452614946
Q1041,2025-06-03 01:00:00,30.6386,114.5739,11.5,武汉市,鄢家湖,江岸区,1005.6,23.8,76.0,38.519500000000015,22.4015038508625
Q1042,2025-06-03 01:00:00,30.8764,114.4739,32.5,武汉市,席家岗,江岸区,1004.0,24.5,74.0,36.365000000000016,22.74859617028229
Q1043,2025-06-03 01:00:00,30.8822,114.5217,39.2,武汉市,六指中心福利院,江岸区,1003.8,22.3,80.0,35.88960000000006,21.532906153388183
Q1044,2025-06-03 01:00:00,30.8683,114.5803,42.3,武汉市,青华,江岸区,1003.7,24.0,77.0,38.305499999999974,22.971058147099725
Q1045,2025-06-03 01:00:00,30.7972,114.4647,31.3,武汉市,大咀,江岸区,1003.9,23.7,74.0,37.78000000000003,21.6809855768941
Q1052,2025-06-03 01:00:00,30.5447,114.42,23.3,武汉市,武汉植物园,洪山区,1005.6,24.0,74.0,36.5825,22.07608185565428
Q1054,2025-06-03 01:00:00,30.5814,114.3311,23,武汉市,湖大,武昌区,1005.4,24.1,71.0,41.679500000000026,21.308802391389378
Q1057,2025-06-03 01:00:00,30.6369,114.5061,33,武汉市,林业站,洪山区,1005.8,25.0,71.0,39.952999999999996,22.488748996929726
Q1061,2025-06-03 01:00:00,30.6411,114.4039,33.5,武汉市,青山,青山区,1004.8,25.1,64.0,36.49099999999999,20.392850483230692
Q1071,2025-06-03 01:00:00,30.51,114.4581,35,武汉市,士官学校,洪山区,1004.9,23.6,71.0,42.11400000000006,20.676994361808816
Q1072,2025-06-03 01:00:00,30.6664,114.335,27,武汉市,堤角公园,江岸区,1005.2,24.1,73.0,42.47000000000009,21.909050346076402
Q1073,2025-06-03 01:00:00,30.6272,114.2394,25,武汉市,湖北省移动公司,江汉区,1005.4,25.0,64.0,37.39999999999997,20.271548391598625
Q1081,2025-06-03 01:00:00,30.255,114.0589,22.1,武汉市,汉南,汉南区,1005.5,23.2,80.0,38.95399999999999,22.741884655475488
Q1082,2025-06-03 01:00:00,30.4769,114.1631,18.1,武汉市,沌口,汉南区,1005.1,24.3,76.0,39.88999999999998,23.08496771071923
Q1083,2025-06-03 01:00:00,30.4156,114.1306,21.6,武汉市,春笋,汉南区,1005.6,24.0,73.0,39.48700000000005,21.777756425172466
Q1084,2025-06-03 01:00:00,30.3267,114.0014,23.3,武汉市,恒大农业,汉南区,1005.3,23.9,76.0,37.524500000000025,22.536760973868642
Q1085,2025-06-03 01:00:00,30.2131,113.8472,22.6,武汉市,武湖湿地,汉南区,1005.6,23.5,78.0,42.23299999999988,22.578935444601026
Q1086,2025-06-03 01:00:00,30.22,113.8256,21.3,武汉市,喜鹊湖,汉南区,1005.8,23.5,79.0,44.79149999999997,22.868408975942064
Q1087,2025-06-03 01:00:00,30.4258,114.1092,33.7,武汉市,龙灵山,汉南区,1004.2,23.9,74.0,41.85550000000001,21.943688316661568
Q1088,2025-06-03 01:00:00,30.4586,114.0606,29,武汉市,武汉西,汉南区,1004.7,24.5,64.0,38.624999999999986,19.67446155267658
Q1101,2025-06-03 01:00:00,30.8781,114.9839,83,武汉市,道观河,新洲区,998.0,23.7,67.0,37.19899999999995,19.63008153583655
Q1102,2025-06-03 01:00:00,30.6969,114.5339,25,武汉市,阳逻,江岸区,1005.7,23.7,72.0,33.865850000000044,21.095012993734798
Q1103,2025-06-03 01:00:00,30.6675,114.7861,18.7,武汉市,涨渡湖,新洲区,1006.2,23.4,71.0,37.2515,20.428902846458485
Q1104,2025-06-03 01:00:00,30.5964,114.6472,23,武汉市,双柳,新洲区,1005.6,23.9,75.0,38.26699999999997,22.240224645265105
Q1105,2025-06-03 01:00:00,30.8894,115.0589,344.5,武汉市,将军山,新洲区,968.9,22.4,62.0,34.10649999999996,16.789905786659684
Q1106,2025-06-03 01:00:00,30.9481,114.9694,73,武汉市,徐古,新洲区,999.8,22.7,71.0,37.73100000000003,19.580993674758588
Q1107,2025-06-03 01:00:00,30.8731,114.7681,25,武汉市,徐治湾,新洲区,1005.1,23.2,72.0,38.95675000000005,20.46769618992794
Q1108,2025-06-03 01:00:00,30.9156,114.6519,39.3,武汉市,方院,新洲区,1003.6,22.9,77.0,35.614499999999964,21.494981040596123
Q1109,2025-06-03 01:00:00,30.7858,114.5475,31.6,武汉市,杨裴,江岸区,1004.6,23.7,71.0,36.91979166666661,20.80202670215515
Q1111,2025-06-03 01:00:00,30.975,114.7111,51.1,武汉市,陈家田,新洲区,1002.2,22.6,83.0,46.815,22.75183967427558
Q1112,2025-06-03 01:00:00,30.8286,114.9725,196.4,武汉市,大雾山,新洲区,985.7,24.3,61.0,25.990000000000013,18.528724083603592
Q1113,2025-06-03 01:00:00,30.8742,114.8856,30.1,武汉市,王寨,新洲区,1004.8,23.8,68.0,33.38399999999999,20.04345081392961
Q1114,2025-06-03 01:00:00,30.9244,114.6972,55.4,武汉市,春光,新洲区,1001.7,23.3,71.0,39.51,20.305837790219606
Q1115,2025-06-03 01:00:00,30.9389,114.9081,36,武汉市,易河,新洲区,1004.1,23.5,73.0,32.08500000000004,21.13156778789583
Q1116,2025-06-03 01:00:00,30.9575,114.87,60,武汉市,李岗,新洲区,1001.3,23.5,70.0,35.28649999999998,20.26314719387271
Q1117,2025-06-03 01:00:00,30.9631,114.7978,28,武汉市,徐寨,新洲区,1005.0,21.6,84.0,36.99483333333333,21.663505467766047
Q1118,2025-06-03 01:00:00,30.6256,114.7536,22.2,武汉市,陈路,新洲区,1005.8,23.3,75.0,42.42250000000001,21.449828651640427
Q1119,2025-06-03 01:00:00,30.6903,114.705,26.5,武汉市,滨湖,新洲区,1005.3,21.9,80.0,38.962499999999935,21.013920623005014
Q1120,2025-06-03 01:00:00,30.5981,114.6917,22.5,武汉市,航天新城,新洲区,1005.9,23.8,78.0,43.55950000000003,22.991017110095722
Q1121,2025-06-03 01:00:00,30.7686,114.6692,20.6,武汉市,大泊,新洲区,1005.8,23.8,78.0,44.0050666666666,22.991017110095722
Q1122,2025-06-03 01:00:00,30.7528,114.7064,23.9,武汉市,冯铺,新洲区,1005.5,22.9,75.0,31.539999999999942,20.936669844736482
Q1123,2025-06-03 01:00:00,30.8286,114.6825,23.6,武汉市,人胜,新洲区,1005.5,23.0,80.0,31.467,22.46820322435619
Q1124,2025-06-03 01:00:00,30.7658,114.815,35.4,武汉市,杨铺,新洲区,1004.1,21.9,80.0,40.041500000000035,21.013920623005014
Q1125,2025-06-03 01:00:00,30.7722,114.8658,39.5,武汉市,朱岗,新洲区,1003.6,22.2,76.0,34.38450000000003,20.33201182942598
Q1126,2025-06-03 01:00:00,30.6581,114.6303,22,武汉市,毛集,新洲区,1004.4,23.3,80.0,40.62083333333332,22.87981722841646
Q1128,2025-06-03 01:00:00,30.7972,114.6519,13.8,武汉市,王瓦,新洲区,1005.6,23.1,73.0,37.76050000000006,20.62677148372555
Q1129,2025-06-03 01:00:00,30.73,114.7775,20.2,武汉市,四道沟,新洲区,1005.9,23.0,78.0,37.00449999999999,21.90649814374728
Q1130,2025-06-03 01:00:00,30.8692,115.0061,92.7,武汉市,道观河水库,新洲区,997.5,23.9,61.0,24.85599999999999,18.08871604481562
Q1131,2025-06-03 01:00:00,30.9228,115.0169,109.7,武汉市,大屋冲,新洲区,995.5,22.8,65.0,29.192499999999985,18.035396973691928
Q1132,2025-06-03 01:00:00,30.9228,114.7528,34,武汉市,凤凰镇中心小学,新洲区,1002.6,23.2,71.0,37.97399999999996,20.183422631734494
Q1133,2025-06-03 01:00:00,30.8536,114.9625,31,武汉市,旧街利河小学,新洲区,1003.3,22.7,72.0,35.56992500000003,19.856782318065047
Q1134,2025-06-03 01:00:00,30.6467,114.8336,15,武汉市,双柳汉昕小学,新洲区,1006.0,23.8,70.0,38.05950000000002,20.632964073162828
Q1135,2025-06-03 01:00:00,30.8819,114.8447,32,武汉市,刘六,新洲区,1003.4,22.3,77.0,36.64449999999997,20.725422172636126
Q1136,2025-06-03 01:00:00,30.6756,114.7642,28.8,武汉市,涨渡湖湿地森林公园,新洲区,1006.1,23.6,77.0,31.373499999999982,22.424345998018012
Q1191,2025-06-03 01:00:00,30.8192,114.6042,35.7,武汉市,紫薇都市田园,江岸区,1004.1,24.0,73.0,38.41424999999998,21.777756425172466
Q1199,2025-06-03 01:00:00,30.8331,114.7997,26.4,武汉市,邾城,新洲区,1005.1,22.7,72.0,33.83187499999999,19.856782318065047
Q1201,2025-06-03 01:00:00,31.2047,114.3831,48.5,武汉市,姚家集,黄陂区,1002.8,22.0,79.0,32.30600000000004,20.878345248091218
Q1202,2025-06-03 01:00:00,30.9883,114.5211,88,武汉市,蔡家榨,黄陂区,998.1,25.7,65.0,48.59749999999999,21.46431182801681
Q1203,2025-06-03 01:00:00,30.9947,114.2333,37.5,武汉市,李家集,黄陂区,1002.5,24.7,75.0,39.347999999999985,23.333698455142983
Q1204,2025-06-03 01:00:00,30.8131,114.2119,35,武汉市,天河机场,黄陂区,1003.6,24.3,69.0,40.42049999999999,20.95872068473193
Q1207,2025-06-03 01:00:00,31.2856,114.3106,67,武汉市,蔡店,黄陂区,1000.5,24.0,73.0,37.04100000000001,21.777756425172466
Q1208,2025-06-03 01:00:00,30.8853,114.2261,41,武汉市,祁家湾,黄陂区,1003.6,23.5,72.0,33.08900000000003,20.84209425655479
Q1209,2025-06-03 01:00:00,30.8003,114.2903,38,武汉市,横店,黄陂区,1002.9,23.1,73.0,31.55200000000001,20.62677148372555
Q1210,2025-06-03 01:00:00,30.7506,114.3008,30,武汉市,盘龙城,黄陂区,1003.5,24.4,65.0,41.68149999999996,19.862486216156565
Q1212,2025-06-03 01:00:00,31.0553,114.4678,49,武汉市,夏家寺水库,黄陂区,1001.4,24.0,73.0,31.64399999999999,21.777756425172466
Q1213,2025-06-03 01:00:00,31.3047,114.2033,537,武汉市,刘家山,黄陂区,948.8,23.1,69.0,33.139499999999984,19.49653742982278
Q1214,2025-06-03 01:00:00,30.7583,114.4194,23,武汉市,三里桥,江岸区,1006.0,24.7,72.0,39.28699999999994,22.400350516937266
Q1215,2025-06-03 01:00:00,30.9933,114.3361,48,武汉市,罗汉寺,黄陂区,1002.6,23.8,72.0,39.23610000000001,21.222477332396053
Q1216,2025-06-03 01:00:00,31.1075,114.3617,49,武汉市,长轩岭,黄陂区,1002.8,23.3,75.0,40.93700000000003,21.449828651640427
Q1217,2025-06-03 01:00:00,30.7003,114.5036,21,武汉市,现代农展中心,江岸区,1005.8,24.1,74.0,41.300499999999964,22.209174323419912
Q1218,2025-06-03 01:00:00,31.2347,114.23,100.2,武汉市,源泉,黄陂区,994.8,23.5,75.0,43.34550000000007,21.710514850577905
Q1219,2025-06-03 01:00:00,31.0919,114.2014,105.3,武汉市,矿巴水库,黄陂区,997.4,23.9,67.0,39.12349999999998,19.867934016436827
Q1220,2025-06-03 01:00:00,30.7003,114.4181,29,武汉市,武湖,江岸区,1005.4,22.8,73.0,26.381999999999998,20.255138139684778
Q1221,2025-06-03 01:00:00,30.7122,114.3606,17.3,武汉市,滠口,黄陂区,1004.7,23.3,70.0,29.2836666666666,20.019840074864398
Q1222,2025-06-03 01:00:00,30.7164,114.4722,28,武汉市,农科院北区,江岸区,1005.5,24.8,68.0,41.506499999999896,21.282764607427005
Q1224,2025-06-03 01:00:00,31.2561,114.3842,50.2,武汉市,崇杰,黄陂区,1002.6,21.9,78.0,31.04850000000002,20.488572607429887
Q1225,2025-06-03 01:00:00,31.1831,114.3153,65.1,武汉市,梅店水库,黄陂区,1000.5,25.0,72.0,45.202500000000015,22.805491940548453
Q1226,2025-06-03 01:00:00,31.2664,114.2336,106.9,武汉市,道士冲,黄陂区,995.5,24.1,73.0,40.97050000000003,21.909050346076402
Q1227,2025-06-03 01:00:00,31.2417,114.2836,87.3,武汉市,姚家老屋,黄陂区,997.8,23.3,77.0,31.271500000000007,22.02182408235084
Q1228,2025-06-03 01:00:00,30.8536,114.1789,22,武汉市,双墩,黄陂区,1003.9,24.0,75.0,37.55699999999996,22.374407286136094
Q1229,2025-06-03 01:00:00,30.9553,114.1625,21.6,武汉市,红旗,黄陂区,1003.7,23.5,75.0,42.48800000000008,21.710514850577905
Q1230,2025-06-03 01:00:00,31.1272,114.4814,46.7,武汉市,同兴集,黄陂区,1000.9,24.1,75.0,47.21200000000005,22.509298300763422
Q1231,2025-06-03 01:00:00,31.1839,114.4325,61.2,武汉市,磨盘,黄陂区,999.2,23.0,79.0,29.401000000000046,22.187350684051733
Q1232,2025-06-03 01:00:00,31.1419,114.4219,73.8,武汉市,吊箭楼,黄陂区,997.7,23.3,76.0,27.64399999999996,21.735826366995635
Q1233,2025-06-03 01:00:00,31.035,114.3906,29,武汉市,卧虎,黄陂区,1002.9,23.0,75.0,38.818599999999996,21.063940522833924
Q1234,2025-06-03 01:00:00,31.0972,114.315,48.5,武汉市,院基寺水库,黄陂区,1000.6,24.4,70.0,36.675499999999985,21.390369771245528
Q1235,2025-06-03 01:00:00,31.0725,114.2422,86.4,武汉市,彭家冲,黄陂区,998.6,25.1,64.0,40.252499999999905,20.392850483230692
Q1236,2025-06-03 01:00:00,30.9511,114.4708,49,武汉市,红十月水库,黄陂区,1000.8,23.6,73.0,30.520499999999956,21.25944490721188
Q1237,2025-06-03 01:00:00,31.0414,114.3053,60.4,武汉市,北新,黄陂区,999.3,23.3,73.0,33.686999999999955,20.877833220930015
Q1238,2025-06-03 01:00:00,31.3386,114.2825,96,武汉市,余家冲水库,黄陂区,995.0,22.4,78.0,42.64700000000004,21.122784699346056
Q1239,2025-06-03 01:00:00,31.0269,114.1628,34,武汉市,官家砦,黄陂区,1002.5,23.7,73.0,35.44599999999994,21.387999285314446
Q1243,2025-06-03 01:00:00,30.9133,114.4825,21,武汉市,定正,黄陂区,1003.6,23.9,72.0,44.01050000000003,21.3506156594545
Q1244,2025-06-03 01:00:00,31.1486,114.3,62.7,武汉市,黄陂石门,黄陂区,999.5,24.0,75.0,39.22099999999993,22.374407286136094
Q1245,2025-06-03 01:00:00,31.25,114.3386,27.9,武汉市,仁和,黄陂区,1002.5,21.4,78.0,33.39050000000001,19.871115824985456
Q1246,2025-06-03 01:00:00,31.1961,114.4222,55.1,武汉市,帽子村,黄陂区,999.8,22.0,81.0,41.21299999999999,21.40691095057454
Q1247,2025-06-03 01:00:00,30.9967,114.2653,53,武汉市,白庙集,黄陂区,1002.6,23.8,70.0,31.39400000000001,20.632964073162828
Q1248,2025-06-03 01:00:00,30.9969,114.4553,28.8,武汉市,白龙寺,黄陂区,1004.2,24.6,69.0,34.20400000000005,21.338931045218295
Q1250,2025-06-03 01:00:00,30.7614,114.1772,14.3,武汉市,童家湖,黄陂区,1005.1,25.0,67.0,40.862666666666705,21.221777222454808
Q1251,2025-06-03 01:00:00,30.9539,114.6003,55.1,武汉市,艾馆,黄陂区,999.8,23.2,73.0,36.291499999999985,20.75196974812138
Q1252,2025-06-03 01:00:00,30.8608,114.2969,43.9,武汉市,全华,黄陂区,1001.5,23.9,74.0,33.57349999999997,21.943688316661568
Q1253,2025-06-03 01:00:00,30.9294,114.3856,35.8,武汉市,下店,黄陂区,1002.5,24.0,75.0,35.36249999999998,22.374407286136094
Q1254,2025-06-03 01:00:00,30.9661,114.2142,32.9,武汉市,黄陂郑店,黄陂区,1002.2,25.7,69.0,39.45400000000003,22.785192555894767
Q1255,2025-06-03 01:00:00,31.2994,114.4211,65.4,武汉市,茶庙,黄陂区,998.9,23.1,75.0,36.59449999999997,21.191888510676932
Q1270,2025-06-03 01:00:00,31.1797,114.2817,337.8,武汉市,木兰天池,黄陂区,971.1,21.6,81.0,38.718,20.889808843917262
Q1271,2025-06-03 01:00:00,31.1264,114.2086,122,武汉市,云雾山,黄陂区,994.0,22.9,73.0,31.906499999999955,20.37835864887684
Q1301,2025-06-03 01:00:00,30.3508,114.4364,20.5,武汉市,老屋汤,江夏区,1005.9,23.7,73.0,40.4,21.387999285314446
Q1302,2025-06-03 01:00:00,30.1533,114.2303,42,武汉市,安山,江夏区,1003.6,22.1,81.0,31.276983333333327,21.53792640822473
Q1303,2025-06-03 01:00:00,30.3481,114.1275,27.6,武汉市,金口,江夏区,1005.2,23.5,72.0,45.97125000000002,20.84209425655479
Q1304,2025-06-03 01:00:00,30.285,114.2281,32.6,武汉市,郑店,江夏区,1005.2,23.5,78.0,42.09500000000006,22.578935444601026
Q1305,2025-06-03 01:00:00,30.1131,114.1917,24,武汉市,法泗,江夏区,1005.6,22.4,81.0,43.12300000000005,21.935199495474752
Q1306,2025-06-03 01:00:00,30.3058,114.4239,38.2,武汉市,五里界,江夏区,1004.2,23.8,70.0,37.595000000000056,20.632964073162828
Q1307,2025-06-03 01:00:00,30.0333,114.3808,40,武汉市,山坡,江夏区,1003.2,22.9,76.0,46.43899999999997,21.215825442666304
Q1308,2025-06-03 01:00:00,30.0231,114.4622,40.8,武汉市,湖泗,江夏区,1003.7,23.0,78.0,40.000250000000115,21.90649814374728
Q1309,2025-06-03 01:00:00,30.1494,114.5,32.3,武汉市,舒安,江夏区,1004.3,21.6,88.0,44.56000000000004,22.6951009662311
Q1310,2025-06-03 01:00:00,30.2106,114.3286,35,武汉市,乌龙泉,江夏区,1004.2,22.3,87.0,46.79650000000005,23.41703544180965
Q1311,2025-06-03 01:00:00,30.4372,114.3781,19.7,武汉市,庙山,江夏区,1005.8,24.5,72.0,37.300500000000035,22.13376924676115
Q1313,2025-06-03 01:00:00,30.2603,114.4494,22.8,武汉市,梁子湖,江夏区,1006.1,22.6,83.0,47.764000000000024,22.75183967427558
Q1314,2025-06-03 01:00:00,30.3864,114.38,22,武汉市,庙山天玺湾,江夏区,1006.0,24.5,71.0,41.14300000000003,21.82635578500058
Q1316,2025-06-03 01:00:00,30.3872,114.3056,26,武汉市,中央大公园,江夏区,1005.7,24.3,64.0,35.125000000000036,19.43997280902672
Q1317,2025-06-03 01:00:00,30.3178,114.2592,28,武汉市,郑店海吉星,江夏区,1005.6,23.5,69.0,36.740000000000016,19.973673662531674
Q1318,2025-06-03 01:00:00,30.3278,114.3869,27,武汉市,五里界锦绣,江夏区,1004.2,23.4,74.0,39.421499999999945,21.292095924477856
Q1319,2025-06-03 01:00:00,30.1294,114.4775,35,武汉市,舒安未来家园,江夏区,1005.8,21.7,85.0,47.91099999999997,22.05597496501046
Q1320,2025-06-03 01:00:00,30.005,114.5111,55,武汉市,湖泗祝祠,江夏区,1003.1,22.6,77.0,46.87199999999998,21.107128372520716
Q1321,2025-06-03 01:00:00,30.0417,114.5383,49,武汉市,舒安嗣孟,江夏区,1003.9,23.5,74.0,40.13099999999999,21.421041319236867
Q1322,2025-06-03 01:00:00,30.2406,114.3142,66,武汉市,乌龙泉茗泉谷,江夏区,1002.3,22.2,86.0,45.156999999999954,23.007276543824133
Q1323,2025-06-03 01:00:00,30.0956,114.3458,24,武汉市,山坡光星,江夏区,1006.0,22.3,85.0,43.89599999999999,22.87871278797494
Q1324,2025-06-03 01:00:00,30.2308,114.4347,24,武汉市,乌龙泉杨湖,江夏区,1006.2,22.6,82.0,46.463500000000046,22.4777211239831
Q1325,2025-06-03 01:00:00,30.2164,114.0742,24,武汉市,金口南岸,江夏区,1006.0,23.0,80.0,48.019,22.46820322435619
Q1326,2025-06-03 01:00:00,30.2019,114.1539,21,武汉市,金水花篮棚,江夏区,1006.1,22.7,81.0,46.38720000000006,22.33888010782318
Q1327,2025-06-03 01:00:00,30.2031,114.1856,23,武汉市,法泗花莲湖,江夏区,1006.0,24.6,74.0,39.701499999999974,22.885230396321074
Q1328,2025-06-03 01:00:00,30.3664,114.3228,23,武汉市,东湖路学校,江夏区,1005.7,24.9,63.0,31.21200000000001,19.83602078089502
Q1329,2025-06-03 01:00:00,30.2903,114.0978,21.1,武汉市,金口长江,江夏区,1005.5,23.3,79.0,48.16850000000013,22.59381951306125
Q1330,2025-06-03 01:00:00,30.2444,114.1503,23.7,武汉市,马蹄口,江夏区,1005.7,22.5,85.0,47.4385,23.15887275622589
Q1331,2025-06-03 01:00:00,30.2861,114.1775,43.3,武汉市,三门口,江夏区,1003.2,21.8,92.0,46.65249999999999,24.01878559926581
Q1332,2025-06-03 01:00:00,30.1914,114.4686,20.9,武汉市,塘口,江夏区,1006.2,21.5,88.0,47.39499999999998,22.556526643507546
Q1333,2025-06-03 01:00:00,30.1481,114.36,34.1,武汉市,三合,江夏区,1004.7,22.3,82.0,40.712000000000046,22.071228807222884
Q1334,2025-06-03 01:00:00,30.1872,114.3167,41,武汉市,乌龙泉五星,江夏区,1003.8,22.2,88.0,50.877833333333456,23.542329486703768
Q1335,2025-06-03 01:00:00,30.0183,114.25,21.7,武汉市,邓家洲,江夏区,1005.9,23.2,77.0,41.83575000000002,21.889063980895155
Q1336,2025-06-03 01:00:00,30.0481,114.3033,35.5,武汉市,前途,江夏区,1004.3,23.3,80.0,36.87650000000007,22.87981722841646
Q1337,2025-06-03 01:00:00,30.2183,114.2303,28.3,武汉市,涂洲,江夏区,1005.2,22.0,83.0,46.92250000000002,21.93547665305786
Q1338,2025-06-03 01:00:00,30.1039,114.2444,31.2,武汉市,合心,江夏区,1004.9,22.0,85.0,41.83649999999993,22.46404235554118
Q1339,2025-06-03 01:00:00,30.1778,114.3586,32.5,武汉市,沿湖,江夏区,1004.9,21.9,86.0,47.04349999999994,22.589964669730385
Q1340,2025-06-03 01:00:00,30.2194,114.3758,21.5,武汉市,长岭,江夏区,1006.1,22.4,86.0,48.00400000000001,23.28922415568924
Q1341,2025-06-03 01:00:00,30.1742,114.5003,39.8,武汉市,祝庙,江夏区,1004.0,21.8,88.0,50.54449999999994,22.974490573210776
Q1342,2025-06-03 01:00:00,30.0381,114.4119,39.1,武汉市,陈六,江夏区,1004.0,21.0,91.0,49.71766666666661,22.62045364466993
Q1343,2025-06-03 01:00:00,30.3275,114.1272,27.9,武汉市,金口花园,江夏区,1005.0,23.5,75.0,43.893500000000095,21.710514850577905
Q1344,2025-06-03 01:00:00,30.1744,114.2619,26.9,武汉市,安山青春,江夏区,1005.3,22.0,88.0,52.82800000000012,23.25689090926617
Q1345,2025-06-03 01:00:00,30.1472,114.3175,41.3,武汉市,安山英雄,江夏区,1003.8,21.5,88.0,49.46850000000005,22.556526643507546
Q1346,2025-06-03 01:00:00,30.0914,114.3069,40.7,武汉市,周李家,江夏区,1003.7,22.0,83.0,38.550166666666684,21.93547665305786
Q1347,2025-06-03 01:00:00,30.2844,114.3825,35.2,武汉市,狮子山,江夏区,1004.2,22.5,75.0,38.293,20.43429949078755
Q1348,2025-06-03 01:00:00,30.3039,114.1303,26,武汉市,凉亭,江夏区,1005.5,24.0,73.0,36.41950000000002,21.777756425172466
Q1349,2025-06-03 01:00:00,30.3728,114.1886,24.9,武汉市,金港,江夏区,1005.5,24.3,65.0,31.353000000000012,19.743722384167764
Q1350,2025-06-03 01:00:00,30.0536,114.2386,22.2,武汉市,山坡东方红,江夏区,1005.9,22.9,81.0,45.83849999999991,22.611603432315402
Q1351,2025-06-03 01:00:00,30.1067,114.4064,42.6,武汉市,新生,江夏区,1003.7,22.5,78.0,37.02640000000003,21.25167147041905
Q1352,2025-06-03 01:00:00,30.0669,114.4333,38.5,武汉市,官堤,江夏区,1004.1,22.4,80.0,46.31483333333333,21.664394563431856
Q1353,2025-06-03 01:00:00,30.3608,114.2928,262,武汉市,八分山,江夏区,978.2,22.6,69.0,39.46999999999993,18.9141799701809
Q1354,2025-06-03 01:00:00,30.4092,114.3656,20.7,武汉市,普生园,江夏区,1004.7,23.7,66.0,38.0825,19.3370952442569
Q1401,2025-06-03 01:00:00,30.7736,114.0089,20.9,武汉市,东山,东西湖区,1005.5,24.0,74.0,43.82600000000009,22.07608185565428
Q1402,2025-06-03 01:00:00,30.7692,114.1272,33.6,武汉市,柏泉,东西湖区,1004.6,24.4,69.0,36.513999999999974,21.084793060227735
Q1403,2025-06-03 01:00:00,30.7053,114.0806,21,武汉市,郁金香公园,东西湖区,1005.8,24.4,72.0,37.400499999999994,22.00152319328112
Q1404,2025-06-03 01:00:00,30.6506,114.0136,13,武汉市,走马岭,东西湖区,1005.1,24.4,69.0,33.84249999999998,21.084793060227735
Q1405,2025-06-03 01:00:00,30.7461,113.9286,31.3,武汉市,辛安渡,东西湖区,1005.3,24.1,75.0,43.95199999999998,22.509298300763422
Q1406,2025-06-03 01:00:00,30.6808,114.1228,23,武汉市,径河,东西湖区,1005.1,24.3,68.0,38.00249999999999,20.654971109590893
Q1407,2025-06-03 01:00:00,30.6642,114.2636,16,武汉市,将军路,东西湖区,1005.2,23.9,68.0,35.668833333333374,20.164470345040364
Q1408,2025-06-03 01:00:00,30.7228,114.145,25,武汉市,杜公湖,东西湖区,1005.5,24.4,66.0,37.22699999999995,20.168062927174358
Q1410,2025-06-03 01:00:00,30.6897,113.9931,22,武汉市,新沟,东西湖区,1005.5,23.3,78.0,40.37599999999998,22.307821797706044
Q1411,2025-06-03 01:00:00,30.6919,114.1892,32,武汉市,塔尔头,东西湖区,1005.5,25.2,65.0,36.21249999999997,20.835330882131636
Q1412,2025-06-03 01:00:00,30.6422,114.1814,23,武汉市,金银湖,东西湖区,1005.5,24.5,59.0,33.85250000000001,18.137394243873718
Q1413,2025-06-03 01:00:00,30.7642,113.9464,32,武汉市,红星合作社,东西湖区,1005.4,24.7,78.0,60.48199999999999,24.267046393348707
Q1501,2025-06-03 01:00:00,30.3908,113.7656,21,武汉市,成功闸,蔡甸区,1005.3,23.0,81.0,36.1875,22.749055764660643
Q1502,2025-06-03 01:00:00,30.5081,114.0531,30,武汉市,大集,蔡甸区,1004.5,24.1,70.0,43.02750000000001,21.00867841404586
Q1503,2025-06-03 01:00:00,30.5236,113.8964,41.3,武汉市,索河,蔡甸区,1003.6,23.0,78.0,40.2515,21.90649814374728
Q1504,2025-06-03 01:00:00,30.3917,113.9786,35,武汉市,桐湖农场,蔡甸区,1005.4,23.5,78.0,38.881,22.578935444601026
Q1506,2025-06-03 01:00:00,30.3169,113.7728,27,武汉市,消泗,蔡甸区,1005.8,23.9,78.0,36.490999999999964,23.12983363107571
Q1507,2025-06-03 01:00:00,30.4617,113.9281,48.6,武汉市,永安,蔡甸区,1002.6,23.4,79.0,40.175500000000035,22.730751054510144
Q1509,2025-06-03 01:00:00,30.4297,114.0436,31.3,武汉市,奓山,蔡甸区,1004.3,24.6,67.0,41.88049999999999,20.720411304777187
Q1510,2025-06-03 01:00:00,30.4525,113.8792,26.5,武汉市,侏儒,蔡甸区,1005.2,23.1,82.0,23.054999999999996,23.16979810500678
Q1512,2025-06-03 01:00:00,30.3242,113.8619,25,武汉市,沉湖湿地,蔡甸区,1005.1,23.5,86.0,47.82999999999997,24.894723695329333
Q1513,2025-06-03 01:00:00,30.4078,114.0333,37.2,武汉市,千子山,蔡甸区,1003.8,23.4,73.0,42.92700000000001,21.004364898471398
Q1514,2025-06-03 01:00:00,30.4839,113.9544,122,武汉市,九真山,蔡甸区,994.0,21.8,90.0,52.34500000000005,23.496638086238292
Q1515,2025-06-03 01:00:00,30.4467,114.0142,27.3,武汉市,绿茵园,蔡甸区,1004.8,24.1,71.0,39.669999999999995,21.308802391389378
Q1516,2025-06-03 01:00:00,30.4086,113.8017,21.5,武汉市,时光农场,蔡甸区,1005.6,23.1,81.0,41.846000000000004,22.88723959153109
Q1517,2025-06-03 01:00:00,30.4275,113.9525,22.7,武汉市,农耕园,蔡甸区,1005.5,23.7,78.0,40.26899999999999,22.8529307432127
Q1518,2025-06-03 01:00:00,30.4956,114.0656,32.4,武汉市,花博汇,蔡甸区,1005.6,24.5,68.0,34.95650000000001,20.90411539971887
Q1519,2025-06-03 01:00:00,30.5394,113.9619,32,武汉市,鸽翅岭,蔡甸区,1004.2,24.1,76.0,35.83950000000005,22.80942227810694
Q1520,2025-06-03 01:00:00,30.4989,113.9781,22.3,武汉市,景秀大地,蔡甸区,1005.4,23.7,71.0,40.457500000000046,20.80202670215515
Q1521,2025-06-03 01:00:00,30.4289,113.7733,23.2,武汉市,七沟,蔡甸区,1005.4,22.9,83.0,29.537999999999997,23.16991462817504
Q1522,2025-06-03 01:00:00,30.5133,113.8858,27.1,武汉市,香草花田,蔡甸区,1004.9,22.5,82.0,37.45300000000003,22.341500776594383
Q1523,2025-06-03 01:00:00,30.54,113.9247,22.2,武汉市,金龙水寨,蔡甸区,1005.5,23.3,77.0,39.275500000000015,22.02182408235084
Q1524,2025-06-03 01:00:00,30.6244,113.9264,24.8,武汉市,谢八家,蔡甸区,1005.1,23.3,75.0,34.42750000000002,21.449828651640427
Q1525,2025-06-03 01:00:00,30.5567,113.9353,23.3,武汉市,蔡甸野生动物王国,蔡甸区,1005.3,23.1,78.0,39.89750000000002,22.039564051104012
Q1526,2025-06-03 01:00:00,30.5292,114.0256,21.5,武汉市,长江大学,蔡甸区,1005.5,23.3,75.0,36.658500000000075,21.449828651640427
Q1527,2025-06-03 01:00:00,30.6311,113.9797,26.1,武汉市,蔡甸汉江堤防,蔡甸区,1004.9,23.4,78.0,38.258500000000005,22.44302002850369
Q1528,2025-06-03 01:00:00,30.5306,114.0786,24.3,武汉市,后官湖湿地公园,蔡甸区,1005.1,23.6,72.0,36.82400000000004,20.968219634510348
Q1529,2025-06-03 01:00:00,30.3156,113.8164,23.3,武汉市,张家大湖,蔡甸区,1005.7,22.9,84.0,38.36099999999998,23.44907022610486
Q1599,2025-06-03 01:00:00,30.5664,114.0289,17.8,武汉市,孙家畈,蔡甸区,1005.0,23.8,73.0,40.591499999999975,21.517233962012664
Q1701,2025-06-03 01:00:00,30.4017,114.4189,30,武汉市,藏龙岛,江夏区,1005.2,24.2,70.0,41.543000000000035,21.13524080022173
Q1702,2025-06-03 01:00:00,30.5039,114.4608,40,武汉市,东湖高新射击场,洪山区,1004.2,25.2,67.0,37.02300000000003,21.476417986197223
Q1703,2025-06-03 01:00:00,30.5972,114.3886,30,武汉市,武汉欢乐谷,洪山区,1005.7,23.5,71.0,34.63250000000004,20.552620725213753
Q1704,2025-06-03 01:00:00,30.57,114.39,30,武汉市,东湖湖心亭,武昌区,1005.5,23.0,80.0,45.58049999999999,22.46820322435619
Q1706,2025-06-03 01:00:00,30.6508,114.3919,30,武汉市,青山沙排中心,青山区,1005.2,22.8,74.0,27.626999999999974,20.532605785433883
Q1707,2025-06-03 01:00:00,30.5,114.5006,50,武汉市,驿山高尔夫,洪山区,1001.7,23.5,78.0,45.041,22.578935444601026
Q1708,2025-06-03 01:00:00,30.5094,114.4117,40,武汉市,华科,武昌区,1004.2,23.9,70.0,40.23700000000004,20.75754300224743
Q1709,2025-06-03 01:00:00,30.4739,114.4547,40,武汉市,省奥体中心,市辖区,1003.2,23.5,79.0,46.64950000000003,22.868408975942064
Q1710,2025-06-03 01:00:00,30.5489,114.3281,30,武汉市,洪山体育馆,武昌区,1004.0,24.4,67.0,39.03749999999995,20.47363963819215
Q1711,2025-06-03 01:00:00,30.5219,114.3725,30,武汉市,武汉体育学院,洪山区,1005.2,23.3,70.0,33.89800000000002,20.019840074864398
Q1712,2025-06-03 01:00:00,30.5383,114.3511,30,武汉市,武大,武昌区,1005.3,24.0,64.0,38.262500000000024,19.092827550836134
Q1713,2025-06-03 01:00:00,30.4508,114.4231,30,武汉市,武汉软件职院,市辖区,1004.5,24.0,68.0,35.884999999999984,20.286129272763397
Q1714,2025-06-03 01:00:00,30.5058,114.325,30,武汉市,武汉理工大学,洪山区,1005.7,23.9,65.0,36.51000000000006,19.27486135922976
Q1715,2025-06-03 01:00:00,30.4414,114.3086,20,武汉市,武汉城市职院,洪山区,1005.9,23.1,76.0,43.55250000000001,21.474447024152628
Q1716,2025-06-03 01:00:00,30.5061,114.1683,30,武汉市,武汉体育中心,汉南区,1005.5,24.6,57.0,28.3145,17.627812602571638
Q1717,2025-06-03 01:00:00,30.4664,114.08,30,武汉市,武汉商学院,汉南区,1005.4,24.1,64.0,33.33299999999999,19.20793454998479
Q1718,2025-06-03 01:00:00,30.5208,114.1497,30,武汉市,江汉大学,汉南区,1005.5,23.8,68.0,39.115999999999964,20.04345081392961
Q1720,2025-06-03 01:00:00,30.6472,114.2831,30,武汉市,全民健身中心,江岸区,1005.9,24.8,62.0,37.483000000000004,19.404873612654033
Q1721,2025-06-03 01:00:00,30.6028,114.2636,30,武汉市,汉口文体中心,江汉区,1005.7,24.3,65.0,36.66949999999997,19.743722384167764
Q1722,2025-06-03 01:00:00,30.5017,114.2308,30,武汉市,汉阳沙排中心,汉阳区,1005.0,23.4,72.0,43.3265,20.716633872464943
Q1723,2025-06-03 01:00:00,30.3978,114.1156,40,武汉市,军山,汉南区,1003.5,23.6,73.0,38.12300000000002,21.25944490721188
Q1724,2025-06-03 01:00:00,30.4764,113.9647,60,武汉市,蔡甸国防园,蔡甸区,1002.1,23.5,72.0,39.58799999999999,20.84209425655479
Q1725,2025-06-03 01:00:00,31.1183,114.4642,50,武汉市,海工大木兰校区,黄陂区,1002.1,22.4,95.0,50.656000000000006,25.726468544075324
Q1726,2025-06-03 01:00:00,30.6378,114.1269,20,武汉市,体育中心,东西湖区,1004.7,24.1,63.0,31.357499999999995,18.907810572641278
Q1727,2025-06-03 01:00:00,30.5425,114.3689,30,武汉市,东湖帆船基地,武昌区,1005.9,25.2,69.0,37.58549999999999,22.11750509026281
Q1728,2025-06-03 01:00:00,30.4408,114.2756,20,武汉市,雷神山,江夏区,1005.7,23.8,74.0,39.53700000000003,21.811990591629275
Q1729,2025-06-03 01:00:00,30.1603,114.1839,47,武汉市,桂子米业,江夏区,1003.4,22.5,89.0,43.51700000000001,24.248702062401225
Q1730,2025-06-03 01:00:00,30.1494,114.4292,40,武汉市,天子山教育基地,江夏区,1004.6,22.7,85.0,50.3784999999999,23.442034681049012
Q1745,2025-06-03 01:00:00,30.5631,114.07,22.1,武汉市,中法生态城,蔡甸区,1005.0,24.4,71.0,39.64499999999991,21.695946482263327
Q1752,2025-06-03 01:00:00,30.6517,114.2239,35,武汉市,马池路,东西湖区,1005.5,24.6,56.0,26.242999999999967,17.318552732351087
Q1753,2025-06-03 01:00:00,30.4872,114.4561,50,武汉市,高新大道,市辖区,1002.3,23.8,71.0,36.992500000000035,20.927720702779443
Q1754,2025-06-03 01:00:00,30.6575,114.4003,60,武汉市,天兴洲大桥,洪山区,1000.4,23.5,68.0,36.662500000000065,19.68420013119064
Q1755,2025-06-03 01:00:00,30.5811,114.2161,35,武汉市,知音桥,硚口区,1004.2,24.9,58.0,33.96049999999999,18.26173341733192
Q1756,2025-06-03 01:00:00,30.5656,114.2783,15,武汉市,晴川桥,硚口区,1003.6,23.6,66.0,41.15200000000001,19.220867998301152
Q1759,2025-06-03 01:00:00,30.6036,114.3217,20,武汉市,长江二桥,江岸区,1001.9,23.1,61.0,29.655999999999977,17.23606932201724
Q1760,2025-06-03 01:00:00,30.6294,114.3394,25,武汉市,二七长江大桥,江岸区,1001.3,23.2,62.0,32.20599999999996,17.6249606079935
Q1761,2025-06-03 01:00:00,30.5069,114.2625,30,武汉市,杨泗港长江大桥,汉阳区,1000.7,25.0,53.0,30.222000000000047,16.78737601179261
Q1762,2025-06-03 01:00:00,30.5339,114.2764,40,武汉市,鹦鹉洲大桥,汉阳区,1001.6,22.8,66.0,27.08499999999999,18.312864619441033
Q1763,2025-06-03 01:00:00,30.5872,114.1797,25,武汉市,古田桥,硚口区,1003.4,24.2,58.0,29.82599999999993,17.512056663040863
Q1764,2025-06-03 01:00:00,30.5644,114.2483,35,武汉市,月湖桥,硚口区,1004.0,24.5,59.0,25.05950000000005,18.137394243873718
Q1765,2025-06-03 01:00:00,30.5286,114.3831,11,武汉市,八一路延长线,市辖区,1004.6,23.6,78.0,45.03050000000004,22.715571270719543
Q1766,2025-06-03 01:00:00,30.6058,114.43,20,武汉市,青化立交,洪山区,1004.1,24.0,70.0,33.22686666666668,20.88278013372702
Q1767,2025-06-03 01:00:00,30.6017,114.41,22,武汉市,欢乐大道,市辖区,1004.4,22.7,74.0,35.61650000000001,20.408359604677962
Q1768,2025-06-03 01:00:00,30.6386,114.2514,26,武汉市,姑嫂树立交,东西湖区,1003.7,24.3,60.0,32.072499999999984,18.224974508462548
Q1769,2025-06-03 01:00:00,30.5097,114.3594,18,武汉市,楚康路出口,洪山区,1004.0,23.4,65.0,41.34700000000001,18.702516690419742
Q1770,2025-06-03 01:00:00,30.6083,114.2083,22,武汉市,长丰大道,硚口区,1004.2,23.7,60.0,27.327500000000008,17.579177494778996
Q1771,2025-06-03 01:00:00,30.4992,114.4108,27,武汉市,雄楚大道光谷大道入口,洪山区,1002.0,23.9,65.0,35.31100000000002,19.27486135922976
Q1772,2025-06-03 01:00:00,30.505,114.2844,22,武汉市,白沙洲大道高架,洪山区,1004.5,24.9,61.0,36.538500000000035,19.20630583546978
Q1773,2025-06-03 01:00:00,30.4556,114.3156,6,武汉市,野芷湖立交线,洪山区,1005.8,23.6,80.0,37.48250000000005,23.298021816122613
Q1774,2025-06-03 01:00:00,30.46,114.3883,7,武汉市,庙山立交,江夏区,1004.1,24.4,65.0,37.26299999999996,19.862486216156565
Q1775,2025-06-03 01:00:00,30.5186,114.1814,17,武汉市,汪家咀立交,汉阳区,1003.8,24.3,60.0,31.968499999999995,18.224974508462548
Q1776,2025-06-03 01:00:00,30.5147,114.2403,21,武汉市,四新北路,汉阳区,1004.3,23.4,72.0,45.83849999999997,20.716633872464943
Q1778,2025-06-03 01:00:00,30.5103,114.4556,8,武汉市,老武黄立交,市辖区,1003.3,23.9,71.0,38.977500000000035,21.054079330850968
Q1779,2025-06-03 01:00:00,30.4628,114.2886,13,武汉市,青菱立交,洪山区,1004.8,22.9,77.0,41.33799999999997,21.494981040596123
Q1780,2025-06-03 01:00:00,30.4244,114.3781,25,武汉市,汤逊湖大桥,江夏区,1005.9,23.0,75.0,39.17600000000001,21.063940522833924
Q2004,2025-06-03 01:00:00,32.6525,110.7253,336.4,十堰市,红卫,张湾区,970.6,21.6,80.0,35.37850000000001,20.631909969301002
Q2022,2025-06-03 01:00:00,32.4628,110.7172,643.8,十堰市,小川,茅箭区,938.0,20.5,74.0,29.081499999999988,17.836576915505308
Q2023,2025-06-03 01:00:00,32.6861,110.5586,186.4,十堰市,黄龙,张湾区,987.2,22.4,74.0,33.797500000000014,20.03956497117446
Q2031,2025-06-03 01:00:00,32.4253,111.0228,851,十堰市,紫霄宫,丹江口市,915.0,19.5,71.0,28.35399999999999,16.085155415216942
Q2032,2025-06-03 01:00:00,32.4308,111.0567,588,十堰市,八仙观,丹江口市,945.4,20.3,76.0,31.773999999999937,18.09368940596187
Q2033,2025-06-03 01:00:00,32.4489,111.0708,558,十堰市,太子坡,丹江口市,946.9,19.7,85.0,33.137499999999974,19.49776243440348
Q2034,2025-06-03 01:00:00,32.4978,111.0942,396,十堰市,元和观,丹江口市,963.3,20.1,78.0,33.63299999999994,18.341453363737713
Q2050,2025-06-03 01:00:00,32.6017,110.7742,310,十堰市,火车站小学,茅箭区,974.3,22.1,72.0,32.78899999999999,19.14482347397754
Q2204,2025-06-03 01:00:00,32.7708,111.1592,253.1,十堰市,习家店,丹江口市,979.8,22.4,76.0,34.475,20.58117483526026
Q2205,2025-06-03 01:00:00,32.7553,111.3811,297,十堰市,石鼓,丹江口市,974.6,22.8,72.0,28.572000000000006,19.977670493935673
Q2206,2025-06-03 01:00:00,32.4447,111.2453,186,十堰市,丁家营,丹江口市,987.8,19.8,92.0,32.555500000000045,21.234892585109822
Q2236,2025-06-03 01:00:00,32.5219,111.0364,179.1,十堰市,蒿口新村,丹江口市,988.4,21.2,78.0,31.904500000000056,19.628739792095995
Q2261,2025-06-03 01:00:00,32.3306,111.1797,503.1,十堰市,马鞍山,丹江口市,952.4,20.3,81.0,32.422000000000054,19.284063708985677
Q2266,2025-06-03 01:00:00,32.5486,111.5125,133.4,十堰市,大坝街道,丹江口市,993.1,23.3,70.0,31.658500000000036,20.019840074864398
Q2309,2025-06-03 01:00:00,32.7992,110.8847,212.2,十堰市,茶店,郧阳区,984.6,23.1,73.0,37.64450000000003,20.62677148372555
Q2324,2025-06-03 01:00:00,32.8525,111.0044,221,十堰市,安阳,郧阳区,982.7,22.8,74.0,37.68124999999997,20.532605785433883
Q2326,2025-06-03 01:00:00,32.8278,110.3708,193.5,十堰市,五峰,郧阳区,987.5,21.6,80.0,31.458499999999937,20.631909969301002
Q2334,2025-06-03 01:00:00,33.0756,110.735,834.7,十堰市,塘上,郧阳区,916.2,22.1,58.0,24.797000000000004,15.422218909593015
Q2350,2025-06-03 01:00:00,32.8653,110.6186,244.8,十堰市,韩家沟,郧阳区,981.9,21.5,84.0,39.100500000000004,21.531229977893567
Q2353,2025-06-03 01:00:00,32.5125,110.4669,537.4,十堰市,毛河,郧阳区,949.9,17.7,95.0,42.58349999999996,19.227731000146278
Q2401,2025-06-03 01:00:00,33.0742,110.0211,273.4,十堰市,上津,郧西县,979.2,20.3,84.0,35.257000000000005,19.99828829079996
Q2402,2025-06-03 01:00:00,33.0053,110.2311,374.2,十堰市,马安,郧西县,967.2,20.9,92.0,37.57499999999999,22.728761339710307
Q2403,2025-06-03 01:00:00,33.0589,110.3233,364.3,十堰市,土门,郧西县,968.1,21.6,80.0,35.27849999999998,20.631909969301002
Q2405,2025-06-03 01:00:00,32.9978,110.0711,264.9,十堰市,六郎,郧西县,976.7,20.9,78.0,34.149499999999975,19.270036788015258
Q2409,2025-06-03 01:00:00,33.1683,110.5619,838.1,十堰市,三官,郧西县,915.9,18.4,76.0,26.38349999999999,16.07455513857466
Q2411,2025-06-03 01:00:00,33.2025,109.9003,794,十堰市,槐树,郧西县,921.7,18.7,83.0,32.90299999999998,17.888210507301068
Q2423,2025-06-03 01:00:00,32.9303,110.5283,273,十堰市,河夹,郧西县,975.6,22.3,75.0,33.405,20.187099518801418
Q2424,2025-06-03 01:00:00,33.1942,109.575,890.6,十堰市,湖北口,郧西县,911.2,17.3,80.0,26.12074999999999,15.787817021835862
Q2433,2025-06-03 01:00:00,33.1864,109.75,640,十堰市,包耳场,郧西县,938.1,18.0,84.0,28.86549999999997,17.325706018852816
Q2502,2025-06-03 01:00:00,32.2775,110.6972,669.3,十堰市,土城,房县,935.4,17.9,90.0,35.368000000000045,18.44677780744905
Q2503,2025-06-03 01:00:00,32.1378,111.0931,843.6,十堰市,沙河,房县,916.3,19.3,78.0,27.26450000000001,17.45236799162398
Q2504,2025-06-03 01:00:00,32.2108,110.9142,711.4,十堰市,卧牛观,房县,930.3,18.5,85.0,41.784500000000044,18.091205967605056
Q2505,2025-06-03 01:00:00,32.0058,110.4417,624.2,十堰市,门古寺,房县,940.7,17.5,91.0,39.44449999999999,18.18711701900138
Q2507,2025-06-03 01:00:00,32.0336,110.6253,495.7,十堰市,军店,房县,954.2,20.5,81.0,44.78050000000003,19.52382067778284
Q2509,2025-06-03 01:00:00,32.0064,110.28,795.4,十堰市,中坝,房县,921.1,17.0,87.0,49.030499999999975,16.84612370881784
Q2524,2025-06-03 01:00:00,31.9419,110.9697,415,十堰市,三里坪,房县,963.3,19.7,76.0,35.78700000000004,17.43329347076076
Q2528,2025-06-03 01:00:00,32.0997,110.7728,464.5,十堰市,白鹤,房县,957.9,19.7,80.0,33.971000000000025,18.35083523237975
Q2530,2025-06-03 01:00:00,32.1044,110.5331,563.7,十堰市,汪家河,房县,946.8,19.4,86.0,43.210499999999975,19.362561735765183
Q2532,2025-06-03 01:00:00,32.3347,110.3903,265,十堰市,对寺河,房县,981.7,19.9,93.0,39.38450000000003,21.599292941966
Q2541,2025-06-03 01:00:00,31.8828,110.5647,991.9,十堰市,三座庵,房县,902.7,16.0,93.0,25.414999999999978,16.89745684085161
Q2546,2025-06-03 01:00:00,31.9833,110.7353,737,十堰市,南潭,房县,928.2,18.3,83.0,29.35900000000002,17.445288682295075
Q2548,2025-06-03 01:00:00,32.2303,110.7133,592.3,十堰市,白鸡,房县,943.5,17.9,88.0,39.23449999999997,18.03684941172796
Q2559,2025-06-03 01:00:00,31.8842,110.7753,1359,十堰市,东蒿,房县,863.2,17.3,80.0,22.49349999999998,15.787817021835862
Q2605,2025-06-03 01:00:00,31.7169,110.0508,523.7,十堰市,柳林,竹山县,953.2,17.4,88.0,37.8985,17.47676342524185
Q2623,2025-06-03 01:00:00,32.4331,109.82,580.3,十堰市,秦古,竹山县,945.2,17.1,92.0,36.836499999999994,17.927557577006308
Q2624,2025-06-03 01:00:00,32.3533,109.9286,513.9,十堰市,擂鼓,竹山县,952.7,17.5,98.0,36.226999999999954,19.586126020463023
Q2626,2025-06-03 01:00:00,32.2786,110.0842,508.8,十堰市,溢水,竹山县,953.2,17.7,96.0,34.894999999999975,19.43012816856887
Q2628,2025-06-03 01:00:00,32.1117,110.2306,361,十堰市,深河,竹山县,970.2,18.8,89.0,34.45699999999997,19.301710891889687
Q2655,2025-06-03 01:00:00,32.23,110.1844,273.8,十堰市,潘口,竹山县,979.5,20.0,87.0,32.498000000000005,20.331439973636055
Q2676,2025-06-03 01:00:00,32.2256,110.2261,307,十堰市,北大街,竹山县,975.9,20.4,85.0,41.07832500000002,20.361820631672177
Q2701,2025-06-03 01:00:00,32.3569,109.6453,563.6,十堰市,龙坝,竹溪县,946.8,17.3,92.0,39.363499999999966,18.155989575111242
Q2721,2025-06-03 01:00:00,32.0428,109.6986,849.5,十堰市,泉溪,竹溪县,916.2,16.5,100.0,53.439499999999995,18.757983275240672
Q2745,2025-06-03 01:00:00,32.1683,109.5989,655.4,十堰市,界牌沟,竹溪县,938.2,17.6,76.0,44.03049999999993,15.285445208540667
Q2748,2025-06-03 01:00:00,31.9983,109.7814,498.9,十堰市,天宝,竹溪县,953.2,17.4,99.0,35.81899999999997,19.661358853397083
Q2757,2025-06-03 01:00:00,31.8119,109.7686,1063.6,十堰市,高子河,竹溪县,894.5,14.3,100.0,53.43899999999999,16.28749399843879
Q2903,2025-06-03 01:00:00,31.5953,110.8861,716.7,省直辖县级行政区划,新华,神农架林区,930.5,16.6,82.0,28.324499999999947,15.47972201234574
Q2906,2025-06-03 01:00:00,31.5622,110.5533,1398.1,省直辖县级行政区划,徐家庄,神农架林区,859.5,12.2,94.0,26.784500000000012,13.349148004071894
Q2910,2025-06-03 01:00:00,31.4828,110.3786,1245,省直辖县级行政区划,木鱼,神农架林区,872.9,14.2,85.0,27.980000000000008,13.754997011103352
Q2912,2025-06-03 01:00:00,31.6119,110.3383,2597.4,省直辖县级行政区划,神农架机场,神农架林区,745.1,9.3,55.0,9.307500000000008,6.439562247188224
Q2916,2025-06-03 01:00:00,31.4089,110.1781,1026.6,省直辖县级行政区划,板桥,神农架林区,897.4,15.1,93.0,30.962499999999967,15.949991575114769
Q2923,2025-06-03 01:00:00,31.5508,110.3911,2285,省直辖县级行政区划,牛场坪,神农架林区,773.4,11.4,56.0,10.645500000000004,7.543591574791412
Q2925,2025-06-03 01:00:00,31.4083,110.5553,699.8,省直辖县级行政区划,九冲,神农架林区,932.2,16.4,83.0,28.30399999999994,15.470307628199427
Q2933,2025-06-03 01:00:00,31.4958,109.9953,1752,省直辖县级行政区划,大九湖,神农架林区,824.8,12.1,99.0,28.23930000000006,13.966957009859755
Q2940,2025-06-03 01:00:00,31.3992,110.475,819.5,省直辖县级行政区划,红花,神农架林区,919.4,14.9,85.0,25.49650000000001,14.391419791620514
Q2950,2025-06-03 01:00:00,31.7328,110.8061,498,省直辖县级行政区划,阳日,神农架林区,954.7,17.5,82.0,28.178499999999953,16.38839115997926
Q2957,2025-06-03 01:00:00,31.5144,110.3881,1569,省直辖县级行政区划,青天袍,神农架林区,844.0,16.1,57.0,19.873500000000018,10.422863970119007
Q3005,2025-06-03 01:00:00,31.9889,112.0322,107.3,襄阳市,隆中,襄城区,995.9,21.6,86.0,45.33000000000001,22.179303216998573
Q3008,2025-06-03 01:00:00,32.0283,112.1664,68.6,襄阳市,襄阳老站,襄城区,1000.5,23.4,74.0,43.39849999999998,21.292095924477856
Q3012,2025-06-03 01:00:00,32.1517,112.2992,70.1,襄阳市,刘集小学,襄州区,999.9,24.7,72.0,40.36050000000006,22.400350516937266
Q3100,2025-06-03 01:00:00,32.0631,112.2203,69.7,襄阳市,东津,襄州区,1000.0,23.9,78.0,39.50800000000002,23.12983363107571
Q3101,2025-06-03 01:00:00,32.2967,112.3483,79,襄阳市,朱集,襄州区,999.4,24.5,72.0,43.939000000000036,22.13376924676115
Q3103,2025-06-03 01:00:00,31.9919,112.3706,93,襄阳市,峪山,襄州区,998.5,22.8,84.0,42.12749999999998,23.307282242924952
Q3104,2025-06-03 01:00:00,32.2089,111.9589,86,襄阳市,龙王,襄州区,997.0,23.6,78.0,41.747500000000066,22.715571270719543
Q3106,2025-06-03 01:00:00,31.9858,112.4556,84.6,襄阳市,黄龙,襄州区,996.0,22.5,84.0,38.40249999999996,22.886415429682053
Q3107,2025-06-03 01:00:00,32.3633,111.9611,110.7,襄阳市,石桥,襄州区,995.4,23.8,70.0,37.68999999999998,20.632964073162828
Q3108,2025-06-03 01:00:00,32.2664,112.4508,114.6,襄阳市,程河,襄州区,996.1,23.7,77.0,44.00050000000002,22.559944451633047
Q3109,2025-06-03 01:00:00,32.1878,112.1847,108.3,襄阳市,伙牌,襄州区,995.5,24.1,73.0,46.933499999999974,21.909050346076402
Q3112,2025-06-03 01:00:00,32.0886,112.1903,65.4,襄阳市,张湾,襄州区,1000.3,24.0,69.0,41.05299999999998,20.584454703245207
Q3113,2025-06-03 01:00:00,32.3253,112.1328,142.2,襄阳市,黄集,襄州区,991.9,24.6,65.0,38.580000000000034,20.10189156433608
Q3202,2025-06-03 01:00:00,31.9703,112.75,167.5,襄阳市,枣阳吴店,枣阳市,989.0,23.0,77.0,37.13250000000002,21.62564560344283
Q3203,2025-06-03 01:00:00,32.2017,112.5589,131,襄阳市,七方,枣阳市,993.0,23.1,87.0,49.541999999999945,24.582590672385248
Q3206,2025-06-03 01:00:00,32.3414,112.9942,241.1,襄阳市,枣阳新市,枣阳市,980.7,22.9,71.0,41.65150000000001,19.820047453017203
Q3207,2025-06-03 01:00:00,32.12,112.8781,156,襄阳市,刘升榆树,枣阳市,989.8,24.3,68.0,33.72599999999999,20.654971109590893
Q3212,2025-06-03 01:00:00,32.0417,112.5906,72,襄阳市,琚湾,枣阳市,998.0,22.1,88.0,46.76300000000006,23.39922869041699
Q3217,2025-06-03 01:00:00,32.3253,112.8719,177.3,襄阳市,姚棚水库,枣阳市,988.0,23.0,75.0,35.913999999999994,21.063940522833924
Q3218,2025-06-03 01:00:00,31.8503,112.8028,140,襄阳市,唐店,枣阳市,991.9,22.2,90.0,47.479999999999976,24.077382429583395
Q3222,2025-06-03 01:00:00,31.9303,112.5761,156,襄阳市,耿集,枣阳市,989.9,22.5,88.0,49.93441666666672,23.976244735857392
Q3237,2025-06-03 01:00:00,31.9519,112.9217,115,襄阳市,王城,枣阳市,994.9,21.9,83.0,38.70450000000006,21.8019426463677
Q3240,2025-06-03 01:00:00,32.1411,112.7553,125.5,襄阳市,北城,枣阳市,993.9,23.6,72.0,34.83799999999997,20.968219634510348
Q3305,2025-06-03 01:00:00,32.4536,111.7536,153.1,襄阳市,老河口半店,老河口市,990.1,23.5,71.0,30.23799999999999,20.552620725213753
Q3309,2025-06-03 01:00:00,32.3367,111.7022,90,襄阳市,方营,老河口市,998.3,22.9,85.0,41.380999999999965,23.728225824034677
Q3311,2025-06-03 01:00:00,32.3472,111.6742,80.3,襄阳市,老河口黄营,老河口市,998.7,22.6,79.0,35.586500000000086,21.65536547310567
Q3314,2025-06-03 01:00:00,32.4319,111.8458,148.3,襄阳市,农垦示范园,老河口市,991.3,23.4,71.0,39.328999999999986,20.428902846458485
Q3315,2025-06-03 01:00:00,32.5408,111.6622,163.3,襄阳市,老河口黑虎山水库,老河口市,989.2,23.3,72.0,29.226999999999972,20.59183550557481
Q3317,2025-06-03 01:00:00,32.5203,111.7786,145.2,襄阳市,古城水库,老河口市,991.5,23.9,69.0,39.937,20.461006673643894
Q3318,2025-06-03 01:00:00,32.4217,111.6878,84.4,襄阳市,老河口西关,老河口市,997.4,22.8,75.0,37.942500000000024,20.810073431182992
Q3321,2025-06-03 01:00:00,32.38,111.67,90,襄阳市,老河口老站,老河口市,998.1,23.2,73.0,37.15750000000002,20.75196974812138
Q3326,2025-06-03 01:00:00,32.2931,111.7247,89,襄阳市,白鹤岗,老河口市,998.3,23.7,72.0,40.954999999999984,21.095012993734798
Q3401,2025-06-03 01:00:00,32.2931,111.3314,180,襄阳市,五山,谷城县,988.9,21.6,81.0,29.42799999999996,20.889808843917262
Q3404,2025-06-03 01:00:00,32.1678,111.4981,146.4,襄阳市,谷城南河,谷城县,991.4,25.4,58.0,33.037000000000056,18.81427249449634
Q3405,2025-06-03 01:00:00,31.9917,111.4303,518,襄阳市,赵湾,谷城县,951.4,20.6,84.0,40.342500000000044,20.37225744242864
Q3409,2025-06-03 01:00:00,32.1725,111.4061,701.7,襄阳市,薤山,谷城县,930.5,23.5,58.0,25.682,16.789464817780246
Q3413,2025-06-03 01:00:00,32.0483,111.8314,158,襄阳市,茨河,谷城县,989.8,22.8,78.0,40.802,21.642476368430312
Q3420,2025-06-03 01:00:00,32.1342,111.3078,247.7,襄阳市,紫金,谷城县,978.3,23.0,64.0,30.33549999999999,17.97456257948495
Q3501,2025-06-03 01:00:00,31.9906,111.1233,275,襄阳市,寺坪,保康县,979.3,19.8,95.0,45.91933333333331,21.92733473462427
Q3516,2025-06-03 01:00:00,31.5581,111.3953,660,襄阳市,两峪,保康县,934.4,18.4,76.0,25.097499999999997,16.07455513857466
Q3517,2025-06-03 01:00:00,31.6419,111.1967,796,襄阳市,歇马毛家岭,保康县,919.9,19.6,61.0,27.93250000000004,13.90584043840981
Q3520,2025-06-03 01:00:00,31.4017,111.2936,997,襄阳市,保康天宝寨,保康县,899.6,18.7,70.0,33.17649999999994,15.08644259651897
Q3525,2025-06-03 01:00:00,31.4942,111.3539,292,襄阳市,马良产业园,保康县,976.6,18.8,100.0,34.838499999999996,21.687315608864814
Q3545,2025-06-03 01:00:00,31.8447,110.8022,1576,襄阳市,尧治河,保康县,841.7,16.7,63.0,21.890999999999995,11.968807747827704
Q3555,2025-06-03 01:00:00,31.68,111.0128,1064,襄阳市,团结,保康县,890.4,19.4,60.0,23.517999999999986,13.50876400169664
Q3606,2025-06-03 01:00:00,31.6647,111.9922,120,襄阳市,武镇,南漳县,994.7,20.8,100.0,47.936499999999995,24.553530217940562
Q3608,2025-06-03 01:00:00,31.3292,111.8253,183,襄阳市,东巩,南漳县,983.5,20.8,77.0,28.163,18.906218267814232
Q3617,2025-06-03 01:00:00,31.6231,111.6778,820,襄阳市,薛坪,南漳县,918.5,22.3,57.0,24.934,15.342195634289078
Q3618,2025-06-03 01:00:00,31.7775,111.5617,254,襄阳市,长坪,南漳县,982.1,22.3,74.0,32.41649999999998,19.917938191884065
Q3623,2025-06-03 01:00:00,31.5489,111.8342,343.2,襄阳市,南漳大坪,南漳县,969.1,23.9,67.0,35.32550000000003,19.867934016436827
Q3632,2025-06-03 01:00:00,31.9058,111.6194,271.6,襄阳市,赵店,南漳县,977.4,22.7,75.0,33.38100000000002,20.68414824798442
Q3641,2025-06-03 01:00:00,31.4556,111.6847,342,襄阳市,漫云,南漳县,968.7,20.8,74.0,30.707500000000014,18.169612361276016
Q3748,2025-06-03 01:00:00,31.6356,112.5942,141,襄阳市,高楼,宜城市,992.1,24.0,67.0,36.181000000000026,19.98780384228158
Q3750,2025-06-03 01:00:00,31.5681,112.2661,55,襄阳市,孔湾,宜城市,1001.9,22.6,84.0,45.924,23.025958224568054
Q3751,2025-06-03 01:00:00,31.7467,112.4303,89,襄阳市,二库,宜城市,997.5,23.4,75.0,31.998999999999963,21.579826950484314
Q3752,2025-06-03 01:00:00,31.4622,111.9878,177.5,襄阳市,小南河,宜城市,987.8,23.5,68.0,33.432500000000026,19.68420013119064
Q3760,2025-06-03 01:00:00,31.4853,112.0169,159,襄阳市,刘猴,宜城市,990.5,22.4,80.0,27.85250000000005,21.664394563431856
Q3770,2025-06-03 01:00:00,31.7736,112.0389,94,襄阳市,谭湾,宜城市,996.9,22.1,84.0,37.94549999999999,22.335627386307127
Q3782,2025-06-03 01:00:00,31.8692,112.2653,86,襄阳市,联合,宜城市,998.2,22.0,85.0,34.44449999999999,22.46404235554118
Q3792,2025-06-03 01:00:00,31.5683,112.455,62,襄阳市,流水,宜城市,1001.7,23.4,81.0,38.53000000000001,23.30621310652306
Q3802,2025-06-03 01:00:00,32.0808,113.5014,145.6,随州市,殷店,随县,991.3,21.8,83.0,31.391499999999994,21.66912179064198
Q3803,2025-06-03 01:00:00,31.6611,112.9072,154.4,随州市,洪山,随县,990.5,23.0,76.0,42.972500000000075,21.34479306313838
Q3804,2025-06-03 01:00:00,31.5336,113.2278,120,随州市,柳林,随县,994.1,23.4,73.0,42.20049999999994,21.004364898471398
Q3805,2025-06-03 01:00:00,32.0003,113.105,127.7,随州市,唐镇,随县,994.0,21.9,87.0,37.86499999999994,22.85263867751795
Q3807,2025-06-03 01:00:00,31.8839,113.3125,92,随州市,厉山,随县,998.3,21.1,83.0,34.617999999999995,20.75907354943686
Q3809,2025-06-03 01:00:00,32.3436,113.6333,153.8,随州市,淮河,随县,990.0,22.0,90.0,37.53699999999999,23.78545661174949
Q3812,2025-06-03 01:00:00,31.8386,113.5169,115,随州市,万店,曾都区,994.7,22.2,78.0,45.73600000000003,20.86706477230561
Q3815,2025-06-03 01:00:00,31.8106,113.0514,115.3,随州市,澴潭,随县,995.0,20.3,97.0,36.590500000000034,23.09326147866186
Q3820,2025-06-03 01:00:00,32.1531,113.0822,215.4,随州市,吴山,随县,983.8,22.8,82.0,46.085625,22.752346951426734
Q3823,2025-06-03 01:00:00,31.7278,113.2831,64.1,随州市,南郊,曾都区,1000.9,20.7,91.0,38.14200000000002,22.206458960135357
Q3829,2025-06-03 01:00:00,31.61,113.4317,85,随州市,大堰坡,曾都区,999.0,20.1,92.0,37.821883333333346,21.633509095690638
Q3830,2025-06-03 01:00:00,31.53,112.9711,228.2,随州市,长岗,随县,982.1,22.9,81.0,40.48550000000007,22.611603432315402
Q3831,2025-06-03 01:00:00,31.7164,113.3869,96.2,随州市,雷达站,曾都区,997.3,22.2,90.0,51.90349999999996,24.077382429583395
Q3832,2025-06-03 01:00:00,31.4911,113.5678,65.8,随州市,府河,曾都区,1000.4,23.1,83.0,42.87499999999998,23.452356618482476
Q3836,2025-06-03 01:00:00,32.3561,113.1931,215.4,随州市,新城,随县,983.5,22.0,88.0,57.45450000000015,23.25689090926617
Q3844,2025-06-03 01:00:00,31.5131,113.0106,274.3,随州市,东庄畈,随县,976.9,24.2,64.0,23.14850000000001,19.3236487316313
Q3845,2025-06-03 01:00:00,31.6922,113.3744,78.4,随州市,城南新区,曾都区,999.2,22.1,81.0,34.82149999999998,21.53792640822473
Q3847,2025-06-03 01:00:00,31.4867,112.9781,1042,随州市,金顶,随县,893.6,18.9,70.0,32.020500000000006,15.276320587381827
Q3852,2025-06-03 01:00:00,31.9353,113.3081,122.2,随州市,王家河,随县,994.2,21.3,89.0,34.851999999999954,22.534802006258275
Q3853,2025-06-03 01:00:00,31.4347,113.2972,175.7,随州市,银杏谷,曾都区,987.3,24.0,73.0,42.73950000000003,21.777756425172466
Q3854,2025-06-03 01:00:00,31.4703,112.9844,467.3,随州市,自在谷,随县,955.2,24.0,59.0,27.29449999999997,17.60120039842706
Q3855,2025-06-03 01:00:00,31.4778,112.9647,981.1,随州市,状元台,随县,900.5,19.3,80.0,20.188499999999998,17.899864606793827
Q3856,2025-06-03 01:00:00,31.7839,113.3958,105.4,随州市,北郊,曾都区,996.2,21.9,82.0,35.06450000000004,21.539268638580133
Q3857,2025-06-03 01:00:00,31.7206,113.3617,64.5,随州市,西城,曾都区,1000.8,21.8,81.0,35.04550000000003,21.146974277614465
Q3901,2025-06-03 01:00:00,31.7872,113.6322,109.6,随州市,余店,广水市,995.7,21.6,89.0,42.20099999999995,22.95299984084736
Q3902,2025-06-03 01:00:00,31.4711,113.5781,47.3,随州市,长岭,广水市,1002.3,22.5,86.0,41.48249999999993,23.431330082769723
Q3909,2025-06-03 01:00:00,31.7264,113.8322,120,随州市,蔡河,广水市,994.6,20.9,87.0,35.067000000000014,21.493502571247788
Q3911,2025-06-03 01:00:00,31.4608,113.9217,46.4,随州市,太平,广水市,1000.7,24.6,71.0,37.68049999999998,21.95745078565941
Q3913,2025-06-03 01:00:00,31.7358,114.0353,100,随州市,武胜关,广水市,995.6,21.3,88.0,38.43,22.281601983716047
Q3918,2025-06-03 01:00:00,31.62,113.82,93.3,随州市,应山,广水市,997.3,23.1,69.0,34.607500000000016,19.49653742982278
Q3924,2025-06-03 01:00:00,32.0019,113.7164,203.6,随州市,尹家湾,广水市,984.9,21.6,82.0,37.36999999999999,21.14770771853352
Q4000,2025-06-03 01:00:00,30.7433,111.2694,67.8,宜昌市,葛洲坝,西陵区,1000.6,22.0,81.0,42.83649999999998,21.40691095057454
Q4001,2025-06-03 01:00:00,30.6589,111.3303,56.3,宜昌市,王家河公园,伍家岗区,1002.3,23.2,70.0,46.57300000000002,19.899149073541047
Q4002,2025-06-03 01:00:00,30.7186,111.3436,160,宜昌市,窑湾,西陵区,988.6,21.9,77.0,47.63550000000003,20.225898599642324
Q4003,2025-06-03 01:00:00,30.5061,111.4444,42.6,宜昌市,猇亭,猇亭区,1002.8,22.5,79.0,41.599499999999935,21.524128796962884
Q4005,2025-06-03 01:00:00,30.6931,111.0022,615,宜昌市,土城,点军区,939.3,19.8,85.0,32.14000000000003,19.61919423624277
Q4015,2025-06-03 01:00:00,30.7067,111.2972,116.6,宜昌市,白龙岗公园,西陵区,993.5,22.5,76.0,46.908500000000046,20.706756817331385
Q4019,2025-06-03 01:00:00,30.6183,111.3422,87,宜昌市,艾家小学,点军区,998.3,21.8,79.0,45.40400000000004,20.624826764586945
Q4022,2025-06-03 01:00:00,30.5697,111.3964,78.5,宜昌市,猇亭古战场,猇亭区,999.4,21.6,82.0,45.57900000000002,21.14770771853352
Q4023,2025-06-03 01:00:00,30.6519,111.205,100,宜昌市,长岭,点军区,997.0,21.3,85.0,43.903499999999966,21.522001916089362
Q4025,2025-06-03 01:00:00,30.7389,111.2333,98.8,宜昌市,鸣翠谷,点军区,997.0,21.4,87.0,39.62649999999996,22.163936881714548
Q4026,2025-06-03 01:00:00,30.7417,111.3144,86.3,宜昌市,沙河公园,西陵区,998.5,22.0,75.0,45.65950000000004,19.82121384312457
Q4032,2025-06-03 01:00:00,30.7086,111.2361,78.9,宜昌市,宜昌一中,点军区,999.3,21.6,84.0,41.78099999999995,21.663505467766047
Q4033,2025-06-03 01:00:00,30.6853,111.3367,84.3,宜昌市,水井湾,伍家岗区,998.7,21.1,86.0,44.01599999999997,21.509401509055056
Q4034,2025-06-03 01:00:00,30.6161,111.4,62.5,宜昌市,龙盘湖,伍家岗区,1001.2,20.8,96.0,50.27550000000004,23.571389009222937
Q4035,2025-06-03 01:00:00,30.6478,111.3658,88.6,宜昌市,碧桂园公园,伍家岗区,998.1,22.7,82.0,45.92549999999996,22.61466875112963
Q4036,2025-06-03 01:00:00,30.6967,111.3817,113,宜昌市,夷陵中学,夷陵区,995.3,22.1,79.0,31.999499999999976,21.006125756169798
Q4037,2025-06-03 01:00:00,30.7214,111.1625,389.1,宜昌市,李家咀,点军区,964.3,20.9,80.0,39.551,19.764140295400267
Q4105,2025-06-03 01:00:00,30.8789,110.9697,215,宜昌市,太平溪,夷陵区,984.5,20.4,89.0,51.24850000000009,21.320023955515573
Q4109,2025-06-03 01:00:00,31.2667,111.15,1162,宜昌市,樟村坪林场,夷陵区,883.9,15.8,91.0,35.57750000000005,16.323968107005413
Q4111,2025-06-03 01:00:00,30.6117,111.5211,109.2,宜昌市,鸦鹊岭,夷陵区,995.8,22.3,71.0,24.935500000000005,19.110454211132012
Q4112,2025-06-03 01:00:00,30.9667,110.9878,990,宜昌市,王家垭,夷陵区,900.4,19.2,64.0,27.721499999999974,14.230922997651671
Q4113,2025-06-03 01:00:00,30.9228,110.9672,855,宜昌市,古村坪,夷陵区,914.0,18.2,76.0,33.46900000000004,15.873996320697232
Q4115,2025-06-03 01:00:00,30.96,111.5114,1251.8,宜昌市,百里荒,夷陵区,872.2,19.7,47.0,19.661000000000037,10.781115699023102
Q4120,2025-06-03 01:00:00,31.1456,111.0747,1068.2,宜昌市,秀水,夷陵区,891.8,16.2,81.0,28.672000000000004,14.906267604529827
Q4127,2025-06-03 01:00:00,31.0511,111.4406,402,宜昌市,十字沟,夷陵区,963.1,21.3,73.0,29.456999999999983,18.483601645582628
Q4131,2025-06-03 01:00:00,31.0117,111.3114,945,宜昌市,二户坪,夷陵区,905.9,20.7,51.0,21.476500000000037,12.445378098537395
Q4140,2025-06-03 01:00:00,30.9325,111.3158,169.1,宜昌市,三峡大瀑布,夷陵区,987.1,19.5,99.0,42.74949999999998,22.42859698741517
Q4146,2025-06-03 01:00:00,30.9192,111.0428,403,宜昌市,沙坪,夷陵区,963.5,20.2,84.0,38.76850000000001,19.8749775173716
Q4148,2025-06-03 01:00:00,31.0078,110.9369,705.9,宜昌市,黄金河,夷陵区,930.1,18.9,76.0,33.4315,16.5857194948717
Q4150,2025-06-03 01:00:00,31.4353,111.2158,1098.9,宜昌市,古村,夷陵区,889.1,18.8,73.0,25.612499999999997,15.831740394471316
Q4153,2025-06-03 01:00:00,31.2117,111.2406,1073.1,宜昌市,马卧泥,夷陵区,891.4,20.7,47.0,20.00500000000002,11.469270012377601
Q4154,2025-06-03 01:00:00,30.7428,111.5075,108.8,宜昌市,青龙,夷陵区,995.8,20.9,81.0,28.322999999999983,20.01119204909277
Q4201,2025-06-03 01:00:00,30.3053,110.4817,705.3,宜昌市,傅家堰,五峰土家族自治县,929.8,17.3,87.0,32.89749999999999,17.169251011246498
Q4202,2025-06-03 01:00:00,30.1778,110.8722,1004.1,宜昌市,长乐坪,五峰土家族自治县,898.8,17.9,81.0,32.93350000000004,16.602100026704147
Q4203,2025-06-03 01:00:00,30.0528,110.4344,1139.2,宜昌市,湾潭,五峰土家族自治县,883.0,15.5,81.0,26.0245,14.253522412620852
Q4204,2025-06-03 01:00:00,30.1022,111.2453,591.9,宜昌市,仁和坪,五峰土家族自治县,941.9,22.4,74.0,29.079500000000003,20.03956497117446
Q4205,2025-06-03 01:00:00,30.2381,110.3611,1830.5,宜昌市,牛庄,五峰土家族自治县,816.0,14.5,44.0,13.181999999999992,7.25981898364206
Q4206,2025-06-03 01:00:00,30.2056,110.445,506.8,宜昌市,采花,五峰土家族自治县,953.1,18.4,86.0,37.83650000000002,18.189628183123958
Q4207,2025-06-03 01:00:00,30.1831,111.075,255.1,宜昌市,渔关,五峰土家族自治县,979.1,20.6,80.0,35.67900000000001,19.402149945170134
Q4208,2025-06-03 01:00:00,30.0797,110.9669,853.1,宜昌市,清水湾,五峰土家族自治县,913.3,19.7,77.0,30.961,17.662678911165507
Q4209,2025-06-03 01:00:00,30.0789,110.6214,952.7,宜昌市,后河,五峰土家族自治县,904.5,15.4,95.0,28.022499999999972,16.610171001384828
Q4210,2025-06-03 01:00:00,30.2494,110.6283,564.8,宜昌市,水浕司,五峰土家族自治县,946.4,18.3,88.0,25.695500000000024,18.496209687252612
Q4213,2025-06-03 01:00:00,30.14,110.5681,2213.7,宜昌市,北风垭,五峰土家族自治县,779.6,11.3,43.0,14.435999999999996,5.754154577572861
Q4214,2025-06-03 01:00:00,30.2553,111.02,737.6,宜昌市,涨水坪,五峰土家族自治县,926.7,17.8,97.0,32.26200000000003,19.756681629634436
Q4215,2025-06-03 01:00:00,30.2011,110.9022,1031,宜昌市,三教庙,五峰土家族自治县,894.9,17.2,88.0,31.535499999999992,17.25704472915439
Q4218,2025-06-03 01:00:00,30.3589,110.4706,1157.3,宜昌市,大龙坪,五峰土家族自治县,883.5,14.4,91.0,24.57950000000001,14.917847865542257
Q4238,2025-06-03 01:00:00,30.1997,110.4069,1174.1,宜昌市,万里,五峰土家族自治县,881.4,16.3,84.0,23.156,15.557246310723407
Q4249,2025-06-03 01:00:00,30.2219,110.8947,1259,宜昌市,柴埠溪,五峰土家族自治县,873.0,17.0,69.0,25.592000000000002,13.360718803545181
Q4252,2025-06-03 01:00:00,30.2056,110.665,619.4,宜昌市,万马池,五峰土家族自治县,940.6,18.2,87.0,24.40400000000001,18.171548419745516
Q4309,2025-06-03 01:00:00,30.5808,111.6733,125.7,宜昌市,胡家畈,枝江市,993.2,21.7,79.0,48.21150000000001,20.499082614539134
Q4321,2025-06-03 01:00:00,30.3967,111.5886,68,宜昌市,雅畈,枝江市,1000.6,22.8,82.0,46.77116666666675,22.752346951426734
Q4323,2025-06-03 01:00:00,30.43,111.7592,44.5,宜昌市,马家店,枝江市,1003.3,23.1,68.0,37.79999999999998,19.21397891634709
Q4325,2025-06-03 01:00:00,30.4386,111.4522,55.9,宜昌市,万福垴,枝江市,1001.9,22.3,75.0,41.2755,20.187099518801418
Q4326,2025-06-03 01:00:00,30.3369,111.5311,57,宜昌市,田家河,枝江市,1001.9,23.0,78.0,45.72649999999999,21.90649814374728
Q4327,2025-06-03 01:00:00,30.4011,111.6131,87.7,宜昌市,姚家港工业园,枝江市,998.3,22.5,75.0,41.63700000000003,20.43429949078755
Q4401,2025-06-03 01:00:00,30.63,110.5428,506,宜昌市,社坪,长阳土家族自治县,952.9,16.7,96.0,21.914000000000005,18.238183234785073
Q4403,2025-06-03 01:00:00,30.4286,110.4992,380,宜昌市,渔峡口,长阳土家族自治县,968.2,19.1,84.0,26.931000000000026,18.561952418985303
Q4404,2025-06-03 01:00:00,30.6069,111.0583,167,宜昌市,高家堰,长阳土家族自治县,989.6,19.7,91.0,42.862999999999936,20.874075076831964
Q4406,2025-06-03 01:00:00,30.3353,111.0731,631,宜昌市,大堰,长阳土家族自治县,938.0,18.2,96.0,34.509499999999996,20.05136377351229
Q4411,2025-06-03 01:00:00,30.3692,110.9569,473,宜昌市,横山,长阳土家族自治县,955.4,19.2,90.0,28.962999999999987,20.012235465447663
Q4415,2025-06-03 01:00:00,30.4944,110.7997,1546.9,宜昌市,火烧坪,长阳土家族自治县,843.8,17.0,51.0,15.657500000000002,9.875313898272525
Q4425,2025-06-03 01:00:00,30.6219,110.4972,490,宜昌市,榔坪,长阳土家族自治县,956.8,17.4,90.0,28.370500000000014,17.873962593997344
Q4437,2025-06-03 01:00:00,30.6211,110.8139,1055,宜昌市,中岭,长阳土家族自治县,893.6,16.7,89.0,35.69849999999998,16.90831570724866
Q4441,2025-06-03 01:00:00,30.5814,111.0614,680,宜昌市,龙池山,长阳土家族自治县,932.2,19.6,69.0,26.414000000000016,15.729557217217652
Q4443,2025-06-03 01:00:00,30.4703,111.1336,190.3,宜昌市,清江画廊,长阳土家族自治县,987.0,19.5,89.0,38.11799999999999,20.163082140201517
Q4446,2025-06-03 01:00:00,30.3936,111.1128,220,宜昌市,三洞水,长阳土家族自治县,985.3,22.0,72.0,34.33649999999997,19.02836528939959
Q4447,2025-06-03 01:00:00,30.4117,110.97,290,宜昌市,都镇湾,长阳土家族自治县,977.6,20.2,84.0,32.53950000000002,19.8749775173716
Q4453,2025-06-03 01:00:00,30.3731,110.7244,283.3,宜昌市,崩尖子,长阳土家族自治县,977.7,19.5,85.0,27.998500000000007,19.256876201316054
Q4510,2025-06-03 01:00:00,30.1967,111.4717,199.8,宜昌市,九道河,宜都市,985.4,22.8,68.0,23.791999999999987,18.86779991093925
Q4519,2025-06-03 01:00:00,30.3839,111.4547,74.1,宜昌市,陆城,宜都市,1000.0,23.2,73.0,33.83649999999999,20.75196974812138
Q4604,2025-06-03 01:00:00,30.5725,111.9686,74,宜昌市,草埠湖,当阳市,1001.7,21.7,85.0,39.58999999999995,22.05597496501046
Q4606,2025-06-03 01:00:00,30.7075,111.675,158.6,宜昌市,王店,当阳市,989.7,20.9,85.0,52.365000000000016,20.99939906386278
Q4610,2025-06-03 01:00:00,31.0844,111.9219,102.3,宜昌市,红旗岗,当阳市,994.0,21.2,78.0,34.65850000000004,19.628739792095995
Q4611,2025-06-03 01:00:00,30.9275,111.9269,58,宜昌市,淯溪光明,当阳市,1001.9,21.4,86.0,42.2225000000001,21.909178986522424
Q4612,2025-06-03 01:00:00,30.9167,111.685,96,宜昌市,向家草坝,当阳市,997.2,21.8,77.0,39.984000000000115,20.10267925155943
Q4614,2025-06-03 01:00:00,30.8369,111.7611,70,宜昌市,长坂雄风,当阳市,1000.3,22.5,72.0,35.83249999999996,19.616927511156046
Q4701,2025-06-03 01:00:00,31.1906,111.4081,553.8,宜昌市,嫘祖,远安县,946.4,18.4,78.0,33.4915,16.49756974748452
Q4708,2025-06-03 01:00:00,31.1481,111.6794,179.8,宜昌市,茅坪场,远安县,987.1,22.2,76.0,39.42100000000004,20.33201182942598
Q4709,2025-06-03 01:00:00,31.2208,111.5594,152.4,宜昌市,洋坪,远安县,991.4,21.6,76.0,34.949,19.60031447083595
Q4710,2025-06-03 01:00:00,31.1881,111.7553,391.9,宜昌市,晓坪水库,远安县,963.7,21.6,91.0,38.454000000000036,23.468797590079888
Q4718,2025-06-03 01:00:00,31.2361,111.5361,186,宜昌市,芭芒店,远安县,985.2,22.1,77.0,40.84500000000005,20.474325104114868
Q4729,2025-06-03 01:00:00,30.9167,111.5608,723.5,宜昌市,龙凤,远安县,925.0,21.4,67.0,32.95600000000004,17.06877897787212
Q4801,2025-06-03 01:00:00,31.2092,110.53,992.5,宜昌市,高桥,兴山县,900.0,16.0,77.0,21.843499999999985,13.990367491887893
Q4802,2025-06-03 01:00:00,31.2261,110.7697,286,宜昌市,昭君,兴山县,978.1,19.3,82.0,31.390499999999964,18.347361221963666
Q4804,2025-06-03 01:00:00,31.1192,110.7786,266,宜昌市,峡口,兴山县,981.4,20.1,81.0,34.44950000000003,19.04689387772763
Q4806,2025-06-03 01:00:00,31.5008,111.0083,1281,宜昌市,榛子,兴山县,870.4,14.6,84.0,25.5845,13.949497381003319
Q4808,2025-06-03 01:00:00,31.1778,111.0017,644.1,宜昌市,南对河,兴山县,938.4,16.5,89.0,33.74950000000001,16.694605114964197
Q4818,2025-06-03 01:00:00,31.5183,110.8078,498.7,宜昌市,观音河,兴山县,957.3,17.8,80.0,26.234999999999964,16.294170416193353
Q4837,2025-06-03 01:00:00,31.4728,110.9975,1301.6,宜昌市,和平,兴山县,869.4,13.4,100.0,27.832500000000014,15.362475112897163
Q4901,2025-06-03 01:00:00,31.0306,110.6972,190.3,宜昌市,彭家坡,秭归县,987.7,20.5,84.0,51.66649999999995,20.24692514733035
Q4902,2025-06-03 01:00:00,30.9564,110.7569,351,宜昌市,郭家坝,秭归县,971.3,19.3,92.0,40.872000000000014,20.5848442978129
Q4903,2025-06-03 01:00:00,30.8722,110.5756,620.5,宜昌市,两河口,秭归县,940.6,18.2,90.0,31.16450000000003,18.798153537667773
Q4905,2025-06-03 01:00:00,30.7458,110.7553,421.8,宜昌市,杨林桥,秭归县,963.0,17.5,97.0,34.16650000000001,19.386267591682785
Q4909,2025-06-03 01:00:00,30.9614,110.6022,420,宜昌市,沙镇溪,秭归县,963.3,18.7,89.0,35.504,19.181334158431262
Q4911,2025-06-03 01:00:00,30.8442,110.7836,499,宜昌市,九畹溪,秭归县,954.2,17.8,95.0,40.07249999999999,19.349327369229602
Q4918,2025-06-03 01:00:00,30.8361,110.9464,547.7,宜昌市,金缸城,秭归县,947.0,18.7,95.0,41.56300000000001,20.47445780956146
Q4920,2025-06-03 01:00:00,30.9039,110.7792,918,宜昌市,烟墩堡,秭归县,908.0,16.0,100.0,45.22650000000008,18.16930843102324
Q4921,2025-06-03 01:00:00,30.7814,110.7939,271.1,宜昌市,芝兰,秭归县,979.5,18.4,90.0,24.74050000000002,19.035657400943677
Q4932,2025-06-03 01:00:00,30.9803,110.8039,1385,宜昌市,九岭头,秭归县,860.0,13.5,100.0,40.792500000000004,15.462917116215342
Q4941,2025-06-03 01:00:00,30.9881,110.4783,753,宜昌市,高潮,秭归县,927.7,17.3,97.0,41.04299999999998,19.14272813897598
Q4945,2025-06-03 01:00:00,30.7944,110.4961,1330,宜昌市,七甲,秭归县,866.0,15.2,94.0,29.25050000000003,16.225515999789998
Q4950,2025-06-03 01:00:00,30.8117,110.3497,985,宜昌市,雁落坪,秭归县,901.1,16.8,93.0,33.398999999999994,17.78083719364107
Q4957,2025-06-03 01:00:00,30.6814,110.7139,1085,宜昌市,三台寺,秭归县,891.8,16.7,80.0,24.746,15.198486028987562
Q4962,2025-06-03 01:00:00,30.9811,110.7606,209.2,宜昌市,吴家沟,秭归县,984.6,20.1,86.0,45.56100000000006,20.22262806771081
Q5102,2025-06-03 01:00:00,30.4808,109.5828,638.9,恩施土家族苗族自治州,白杨坪,恩施市,938.5,18.5,97.0,41.705999999999996,20.645258574796358
Q5106,2025-06-03 01:00:00,30.2978,109.6278,1054.7,恩施土家族苗族自治州,三岔,恩施市,894.1,16.1,99.0,39.25949999999998,18.102869000733016
Q5109,2025-06-03 01:00:00,30.1222,109.3956,599.8,恩施土家族苗族自治州,芭蕉,恩施市,942.7,19.3,93.0,44.10849999999999,20.808592605397823
Q5116,2025-06-03 01:00:00,30.0906,109.1692,881,恩施土家族苗族自治州,金龙坝,恩施市,913.4,17.2,91.0,34.576,17.84535307219375
Q5122,2025-06-03 01:00:00,30.3303,109.4231,1113,恩施土家族苗族自治州,望城坡,恩施市,888.2,16.0,90.0,37.91650000000002,16.352377587920913
Q5133,2025-06-03 01:00:00,30.3539,109.6558,1312.4,恩施土家族苗族自治州,小卫家山,恩施市,868.2,15.5,98.0,36.64149999999995,17.245002425146215
Q5135,2025-06-03 01:00:00,30.3583,109.8217,1567,恩施土家族苗族自治州,神堂,恩施市,842.5,15.7,70.0,26.817999999999973,12.476769306750395
Q5150,2025-06-03 01:00:00,30.4167,109.1628,1615,恩施土家族苗族自治州,大峡谷顶,恩施市,835.5,14.0,72.0,21.05800000000001,11.501172814265706
Q5153,2025-06-03 01:00:00,30.3733,109.3019,946,恩施土家族苗族自治州,马者滑坡点,恩施市,906.8,17.1,85.0,35.663999999999994,16.563504283103654
Q5206,2025-06-03 01:00:00,30.3353,109.1053,1025.3,恩施土家族苗族自治州,宜影古镇,利川市,898.6,16.1,93.0,33.05800000000003,17.005725424931015
Q5207,2025-06-03 01:00:00,30.2233,109.0339,1088.3,恩施土家族苗族自治州,元堡,利川市,889.2,15.7,94.0,33.36400000000003,16.75451878335053
Q5208,2025-06-03 01:00:00,30.0775,108.8592,1469.7,恩施土家族苗族自治州,黄泥塘,利川市,856.8,13.9,95.0,29.444000000000003,15.076967024938588
Q5209,2025-06-03 01:00:00,29.9294,108.7097,474,恩施土家族苗族自治州,龙桥,利川市,956.2,19.0,97.0,41.445499999999996,21.301261002342876
Q5210,2025-06-03 01:00:00,30.2089,108.7014,1479.9,恩施土家族苗族自治州,福宝山,利川市,849.8,14.6,98.0,32.74849999999999,16.27441361117054
Q5211,2025-06-03 01:00:00,30.4353,108.5392,676,恩施土家族苗族自治州,建南,利川市,934.5,18.0,94.0,38.645500000000034,19.38829006871625
Q5214,2025-06-03 01:00:00,30.43,108.7925,1129,恩施土家族苗族自治州,南坪,利川市,886.4,16.0,97.0,34.044000000000004,17.624229178092538
Q5222,2025-06-03 01:00:00,30.2664,108.805,1092.5,恩施土家族苗族自治州,凉雾,利川市,888.7,16.0,96.0,35.534249999999986,17.44253609378231
Q5226,2025-06-03 01:00:00,30.3353,109.1494,986.8,恩施土家族苗族自治州,利川团堡,利川市,901.0,16.0,94.0,35.338500000000025,17.079149925161843
Q5241,2025-06-03 01:00:00,30.0786,108.6025,1074,恩施土家族苗族自治州,小河,利川市,892.9,16.2,96.0,38.411500000000075,17.666687531294606
Q5249,2025-06-03 01:00:00,30.4533,108.6578,1558.5,恩施土家族苗族自治州,铁峰,利川市,842.1,13.7,100.0,29.95349999999994,15.665537368825712
Q5250,2025-06-03 01:00:00,30.4922,108.7469,1406,恩施土家族苗族自治州,药材,利川市,855.8,14.2,100.0,29.55200000000003,16.182349424827475
Q5301,2025-06-03 01:00:00,29.9539,109.0781,788.1,恩施土家族苗族自治州,黄金洞,咸丰县,921.4,17.5,99.0,43.179000000000016,19.78598444924326
Q5307,2025-06-03 01:00:00,29.6125,108.9175,468,恩施土家族苗族自治州,朝阳寺,咸丰县,957.2,19.8,95.0,44.95350000000008,21.92733473462427
Q5309,2025-06-03 01:00:00,29.3997,108.9803,1268.8,恩施土家族苗族自治州,坪坝营,咸丰县,871.9,16.1,98.0,35.70699999999998,17.920011738099348
Q5310,2025-06-03 01:00:00,29.7658,108.8233,723.6,恩施土家族苗族自治州,茅坝,咸丰县,929.3,18.0,95.0,40.222999999999985,19.59454847370259
Q5326,2025-06-03 01:00:00,29.8839,108.9089,832,恩施土家族苗族自治州,李子溪,咸丰县,918.2,17.7,98.0,46.1234999999999,19.834922505414056
Q5327,2025-06-03 01:00:00,29.9194,108.9083,847,恩施土家族苗族自治州,中心场,咸丰县,916.4,17.5,96.0,36.166500000000056,19.186409162902553
Q5330,2025-06-03 01:00:00,29.8736,108.8114,869,恩施土家族苗族自治州,八家台,咸丰县,911.5,17.3,94.0,33.396750000000026,18.550685000657136
Q5338,2025-06-03 01:00:00,29.8175,109.0397,872.4,恩施土家族苗族自治州,柏杨坪,咸丰县,910.7,18.0,94.0,40.30274999999999,19.38829006871625
Q5409,2025-06-03 01:00:00,29.4669,109.4019,458,恩施土家族苗族自治州,翔凤,来凤县,958.1,20.4,91.0,40.00950000000001,21.799125617437277
Q5421,2025-06-03 01:00:00,29.3261,109.2883,602,恩施土家族苗族自治州,兴隆坳,来凤县,940.1,19.3,96.0,47.738,21.47983752815259
Q5422,2025-06-03 01:00:00,29.4094,109.3228,512,恩施土家族苗族自治州,沙坝水库,来凤县,951.6,20.0,94.0,40.75024999999997,21.967302960020564
Q5508,2025-06-03 01:00:00,29.6986,109.5653,589,恩施土家族苗族自治州,沙道,宣恩县,943.2,19.9,88.0,38.381000000000036,20.438040633258147
Q5509,2025-06-03 01:00:00,30.0575,109.8269,1681,恩施土家族苗族自治州,椿木营,宣恩县,830.8,13.5,88.0,29.053000000000026,13.607367062269502
Q5515,2025-06-03 01:00:00,30.1294,109.6347,664.8,恩施土家族苗族自治州,中间河,宣恩县,935.3,18.3,94.0,33.776499999999956,19.757314893201652
Q5516,2025-06-03 01:00:00,30.0081,109.5883,490.9,恩施土家族苗族自治州,长潭北,宣恩县,954.3,19.9,90.0,39.262999999999984,20.902541556741287
Q5517,2025-06-03 01:00:00,29.96,109.3461,1134.7,恩施土家族苗族自治州,荆竹坪,宣恩县,885.6,16.2,98.0,37.33600000000002,18.03474352152991
Q5530,2025-06-03 01:00:00,29.9867,109.3608,743.4,恩施土家族苗族自治州,洗草坝,宣恩县,927.2,17.6,92.0,34.364500000000014,18.5034336734966
Q5532,2025-06-03 01:00:00,29.8356,109.6717,655.8,恩施土家族苗族自治州,金盆村,宣恩县,936.4,18.8,85.0,34.94400000000005,18.434218267535094
Q5539,2025-06-03 01:00:00,29.9019,109.26,1180.2,恩施土家族苗族自治州,竹园,宣恩县,881.4,15.9,98.0,35.43749999999997,17.692472023252865
Q5543,2025-06-03 01:00:00,29.6717,109.6153,582.9,恩施土家族苗族自治州,彭家寨,宣恩县,943.4,19.4,87.0,39.005,19.58770780246013
Q5601,2025-06-03 01:00:00,29.7383,110.3472,467,恩施土家族苗族自治州,江坪河,鹤峰县,955.6,20.5,86.0,43.72650000000005,20.728994793695357
Q5603,2025-06-03 01:00:00,30.0658,110.2706,1382,恩施土家族苗族自治州,蛤蟆颈,鹤峰县,858.6,14.6,90.0,25.13900000000001,14.945890051074985
Q5605,2025-06-03 01:00:00,30.0139,110.2697,1300,恩施土家族苗族自治州,清湖,鹤峰县,866.6,15.8,84.0,23.650499999999994,15.06827825262038
Q5610,2025-06-03 01:00:00,29.8969,110.3406,1142,恩施土家族苗族自治州,五里,鹤峰县,885.2,17.0,89.0,31.605500000000028,17.2333909205148
Q5620,2025-06-03 01:00:00,29.8628,109.8564,1175,恩施土家族苗族自治州,堰塘,鹤峰县,881.3,16.0,97.0,35.781999999999954,17.624229178092538
Q5621,2025-06-03 01:00:00,30.0564,110.0675,1011.3,恩施土家族苗族自治州,云蒙,鹤峰县,898.0,16.1,98.0,37.15349999999998,17.920011738099348
Q5626,2025-06-03 01:00:00,30.1083,110.1294,1215.7,恩施土家族苗族自治州,龚家垭,鹤峰县,877.2,14.3,100.0,30.008500000000026,16.28749399843879
Q5628,2025-06-03 01:00:00,29.7681,110.5636,509,恩施土家族苗族自治州,马家,鹤峰县,949.7,19.6,90.0,37.83549999999997,20.516813761588242
Q5629,2025-06-03 01:00:00,29.8014,110.6133,673.7,恩施土家族苗族自治州,细杉,鹤峰县,933.1,19.0,89.0,36.16449999999995,19.54445597122182
Q5630,2025-06-03 01:00:00,29.7203,110.2667,912.3,恩施土家族苗族自治州,堰垭,鹤峰县,908.1,18.3,89.0,35.553999999999995,18.70639388824412
Q5632,2025-06-03 01:00:00,29.9206,110.4636,1194,恩施土家族苗族自治州,上六峰,鹤峰县,879.0,16.0,88.0,25.744500000000016,15.988991419300449
Q5633,2025-06-03 01:00:00,29.9917,110.4858,1137,恩施土家族苗族自治州,中坪,鹤峰县,882.6,15.1,93.0,27.817499999999978,15.949991575114769
Q5634,2025-06-03 01:00:00,29.9133,110.2561,606.5,恩施土家族苗族自治州,水泉,鹤峰县,941.0,19.5,88.0,32.76750000000003,19.93653065548015
Q5706,2025-06-03 01:00:00,31.1572,110.4386,741,恩施土家族苗族自治州,溪丘湾,巴东县,926.9,17.3,86.0,34.73699999999998,16.97190329847355
Q5707,2025-06-03 01:00:00,30.6875,110.1708,1411,恩施土家族苗族自治州,大支坪,巴东县,857.4,16.0,84.0,31.163499999999967,15.26221908205952
Q5708,2025-06-03 01:00:00,30.8936,110.3064,1166,恩施土家族苗族自治州,朱砂土,巴东县,880.8,16.0,92.0,33.608000000000025,16.71576375654138
Q5709,2025-06-03 01:00:00,30.6925,110.2486,1570.6,恩施土家族苗族自治州,玉米塘,巴东县,839.8,16.3,58.0,20.715999999999987,10.741908166928066
Q5710,2025-06-03 01:00:00,31.2233,110.2003,942.7,恩施土家族苗族自治州,茅山岭,巴东县,904.1,15.8,100.0,34.49650000000002,17.938426491214738
Q5712,2025-06-03 01:00:00,30.9331,110.2219,1150.3,恩施土家族苗族自治州,税家,巴东县,884.3,16.2,91.0,33.70650000000003,16.74654755570635
Q5720,2025-06-03 01:00:00,31.1225,110.4797,735,恩施土家族苗族自治州,高家坡,巴东县,928.0,17.6,96.0,37.661,19.30793078973558
Q5730,2025-06-03 01:00:00,30.7125,110.4111,1234,恩施土家族苗族自治州,麻沙坪,巴东县,874.2,16.2,84.0,29.153999999999993,15.458351589882781
Q5732,2025-06-03 01:00:00,30.6672,110.2142,1261.9,恩施土家族苗族自治州,庙坪,巴东县,871.5,15.5,87.0,31.58299999999995,15.309338887629803
Q5736,2025-06-03 01:00:00,30.4069,110.1308,950,恩施土家族苗族自治州,倒卜龙,巴东县,904.1,16.4,94.0,33.983500000000035,17.520589362057184
Q5751,2025-06-03 01:00:00,30.8117,110.2419,1663,恩施土家族苗族自治州,绿葱坡滑雪场,巴东县,831.5,15.7,55.0,17.412500000000016,9.803175883875312
Q5802,2025-06-03 01:00:00,30.8097,109.8839,1364.3,恩施土家族苗族自治州,茅田,建始县,861.6,14.7,90.0,30.33149999999997,15.042699066251222
Q5804,2025-06-03 01:00:00,30.5989,110.0597,1239.1,恩施土家族苗族自治州,高坪,建始县,871.8,14.9,99.0,34.14199999999998,16.761771286710953
Q5819,2025-06-03 01:00:00,30.8222,109.9811,1731.3,恩施土家族苗族自治州,封竹,建始县,825.4,12.9,73.0,23.05799999999995,10.854248471675582
Q5823,2025-06-03 01:00:00,30.6128,110.0208,777.3,恩施土家族苗族自治州,石垭子,建始县,922.7,17.1,85.0,31.987500000000022,16.563504283103654
Q5824,2025-06-03 01:00:00,30.5825,109.9603,917,恩施土家族苗族自治州,落水洞,建始县,906.7,17.1,88.0,34.027499999999954,17.148098551919077
Q5827,2025-06-03 01:00:00,30.5347,109.9972,1227.8,恩施土家族苗族自治州,冷竹,建始县,874.7,14.4,99.0,31.685499999999998,16.22930701855696
Q5829,2025-06-03 01:00:00,30.3572,110.0744,754.5,恩施土家族苗族自治州,粟谷坝,建始县,924.1,17.7,91.0,36.9895,18.41814232645591
Q5831,2025-06-03 01:00:00,30.2125,109.9622,1551,恩施土家族苗族自治州,竹园坝,建始县,843.3,14.9,80.0,27.987000000000048,13.544865686231073
Q5836,2025-06-03 01:00:00,30.6983,110.0806,896.7,恩施土家族苗族自治州,野三河景区,建始县,911.3,16.0,93.0,34.816999999999986,16.89745684085161
Q6080,2025-06-03 01:00:00,30.975,112.2028,108.5,荆门市,掇刀,掇刀区,995.0,23.8,72.0,37.247,21.222477332396053
Q6082,2025-06-03 01:00:00,30.9114,112.2447,85,荆门市,麻城,掇刀区,998.2,22.3,84.0,39.650500000000015,22.60955146105759
Q6083,2025-06-03 01:00:00,30.7958,112.2522,82,荆门市,樊桥,掇刀区,998.8,22.4,88.0,43.562999999999946,23.83083401977504
Q6084,2025-06-03 01:00:00,30.9525,112.1789,106,荆门市,凤凰,掇刀区,995.7,23.2,79.0,34.14550000000003,22.45761109728204
Q6085,2025-06-03 01:00:00,30.8675,112.0964,97.5,荆门市,龙泉,掇刀区,996.9,22.9,83.0,42.99199999999996,23.16991462817504
Q6086,2025-06-03 01:00:00,31.0422,112.1217,190,荆门市,仙女,掇刀区,986.2,23.0,81.0,41.79950000000004,22.749055764660643
Q6111,2025-06-03 01:00:00,30.5242,112.3883,31.2,荆门市,后港,沙洋县,1004.6,22.5,84.0,39.02399999999998,22.886415429682053
Q6113,2025-06-03 01:00:00,30.7592,112.46,65,荆门市,高阳,沙洋县,1000.6,23.3,80.0,39.36399999999996,22.87981722841646
Q6114,2025-06-03 01:00:00,30.7297,112.2397,67,荆门市,五里,沙洋县,1000.6,22.3,91.0,42.73899999999995,24.493680749479058
Q6115,2025-06-03 01:00:00,30.6244,112.1758,56.2,荆门市,十里,沙洋县,1001.6,21.1,92.0,44.1815,23.01005742829146
Q6117,2025-06-03 01:00:00,30.5508,112.275,36.5,荆门市,拾回桥,沙洋县,1004.1,22.6,86.0,49.16924999999996,23.574195325153006
Q6118,2025-06-03 01:00:00,30.7172,112.3717,71,荆门市,曾集,沙洋县,1000.0,22.7,85.0,38.55499999999991,23.442034681049012
Q6122,2025-06-03 01:00:00,30.8122,112.2886,104,荆门市,雷集,掇刀区,996.0,22.6,87.0,40.49049999999987,23.848313875445488
Q6125,2025-06-03 01:00:00,30.8186,112.4253,60.1,荆门市,双堰,沙洋县,1001.2,22.9,83.0,41.509499999999925,23.16991462817504
Q6128,2025-06-03 01:00:00,30.4275,112.3442,40,荆门市,港口,沙洋县,1003.8,23.3,82.0,46.19149999999998,23.451812659126865
Q6129,2025-06-03 01:00:00,30.8017,112.6122,40,荆门市,姚集,沙洋县,1003.3,23.4,79.0,40.97599999999993,22.730751054510144
Q6160,2025-06-03 01:00:00,31.2861,112.1533,98,荆门市,石桥驿,东宝区,996.8,22.6,78.0,33.783500000000004,21.381246922813194
Q6162,2025-06-03 01:00:00,31.3903,112.0286,129,荆门市,仙居,东宝区,993.1,22.0,83.0,38.25600000000003,21.93547665305786
Q6163,2025-06-03 01:00:00,31.1444,111.935,134,荆门市,马河,东宝区,992.7,21.6,76.0,40.802958333333365,19.60031447083595
Q6164,2025-06-03 01:00:00,31.2678,111.9847,231.2,荆门市,栗溪,东宝区,981.5,20.8,88.0,49.209000000000024,21.607106591787694
Q6167,2025-06-03 01:00:00,31.0697,111.925,129,荆门市,观音寺,东宝区,992.9,21.9,77.0,45.58999999999996,20.225898599642324
Q6168,2025-06-03 01:00:00,31.0633,112.2033,110,荆门市,东宝,东宝区,995.3,23.5,80.0,41.037499999999966,23.157882507283105
Q6169,2025-06-03 01:00:00,31.2031,112.1422,112.5,荆门市,岩垱,东宝区,995.2,21.6,84.0,42.91849999999995,21.663505467766047
Q6170,2025-06-03 01:00:00,31.3072,112.1028,121,荆门市,象河,东宝区,993.9,23.7,76.0,36.62850000000001,22.2669581600534
Q6171,2025-06-03 01:00:00,31.0814,112.1022,246.3,荆门市,安河,东宝区,979.8,24.5,76.0,44.913500000000006,23.363423093803437
Q6172,2025-06-03 01:00:00,31.12,112.1464,355.3,荆门市,圣境山,东宝区,967.6,22.6,72.0,39.6205,19.736535621058334
Q6173,2025-06-03 01:00:00,31.1497,112.2619,70.8,荆门市,东宝八角,东宝区,999.2,22.6,81.0,32.07550000000001,22.203602573690628
Q6174,2025-06-03 01:00:00,31.1786,112.0386,179.5,荆门市,文丰,东宝区,987.0,22.0,82.0,37.51049999999994,21.671193801816198
Q6175,2025-06-03 01:00:00,31.135,111.9811,156.5,荆门市,琵琶洲,东宝区,989.7,21.9,79.0,46.54216666666664,20.751246615217447
Q6176,2025-06-03 01:00:00,31.2347,111.9575,270.2,荆门市,铁坪,东宝区,977.1,20.7,84.0,55.68600000000005,20.498269809355712
Q6210,2025-06-03 01:00:00,31.4994,112.5936,124.4,荆门市,长寿,钟祥市,993.7,23.1,81.0,41.979000000000006,22.88723959153109
Q6213,2025-06-03 01:00:00,31.4353,112.8739,207.8,荆门市,客店,钟祥市,984.1,25.3,69.0,39.03100000000002,22.24965562996817
Q6217,2025-06-03 01:00:00,31.5064,112.72,136.9,荆门市,张集,钟祥市,992.3,22.2,83.0,42.41800000000002,22.204697129504687
Q6218,2025-06-03 01:00:00,31.2917,112.6356,56,荆门市,洋梓,钟祥市,1002.7,22.6,83.0,39.37074999999994,22.75183967427558
Q6219,2025-06-03 01:00:00,30.9944,112.5881,40,荆门市,柴湖,钟祥市,1003.4,24.2,76.0,43.14250000000001,22.94683286881217
Q6220,2025-06-03 01:00:00,31.2944,112.4272,47.9,荆门市,磷矿,钟祥市,1002.3,21.6,93.0,43.24200000000006,23.984595339312413
Q6223,2025-06-03 01:00:00,31.1669,112.6503,53,荆门市,九里,钟祥市,1002.6,23.7,70.0,43.39249999999993,20.509040410575494
Q6224,2025-06-03 01:00:00,31.1594,112.5319,54.6,荆门市,文集,钟祥市,1002.6,22.3,90.0,37.928499999999964,24.224519422561702
Q6235,2025-06-03 01:00:00,31.4969,112.5197,56,荆门市,洪山寺,钟祥市,1000.8,23.8,79.0,45.155500000000046,23.285773739712333
Q6236,2025-06-03 01:00:00,31.2022,112.4103,93,荆门市,北山,钟祥市,997.3,23.3,78.0,42.28450000000005,22.307821797706044
Q6237,2025-06-03 01:00:00,31.0467,112.4686,43,荆门市,陈坡,钟祥市,1002.3,22.5,85.0,41.9775,23.15887275622589
Q6260,2025-06-03 01:00:00,31.3961,112.4883,59,荆门市,钟祥杨集,钟祥市,1002.2,23.7,80.0,45.47250000000005,23.438903326372
Q6263,2025-06-03 01:00:00,31.2106,112.6344,65,荆门市,明显陵,钟祥市,1001.0,21.3,95.0,47.09806666666666,24.054002141511642
Q6264,2025-06-03 01:00:00,31.1667,112.5667,65.8,荆门市,郢中,钟祥市,1000.8,23.1,76.0,36.26700000000003,21.474447024152628
Q6317,2025-06-03 01:00:00,31.1814,113.3008,77.2,荆门市,宋河,京山市,999.1,23.2,79.0,46.82900000000005,22.45761109728204
Q6319,2025-06-03 01:00:00,30.9697,113.2225,63,荆门市,永兴,京山市,1000.0,24.5,76.0,51.399500000000025,23.363423093803437
Q6320,2025-06-03 01:00:00,30.8547,113.0992,49.6,荆门市,钱场,京山市,1002.3,25.5,65.0,42.462999999999965,21.210753857442764
Q6321,2025-06-03 01:00:00,30.8972,112.8411,34,荆门市,石龙,京山市,1003.3,24.3,75.0,44.69449999999999,22.781218135578186
Q6322,2025-06-03 01:00:00,30.7744,112.8278,33.9,荆门市,永漋,京山市,1004.1,24.4,73.0,43.20449999999995,22.307099904298912
Q6323,2025-06-03 01:00:00,31.2839,113.3547,73,荆门市,坪坝,京山市,999.0,22.3,82.0,51.07899999999993,22.071228807222884
Q6324,2025-06-03 01:00:00,30.8344,112.945,77,荆门市,屈家岭,市辖区,999.1,24.7,70.0,36.75699999999997,21.77811855813345
Q6333,2025-06-03 01:00:00,31.3436,113.1756,203.2,荆门市,三阳,京山市,984.5,23.2,76.0,47.70249999999999,21.604790422701715
Q6335,2025-06-03 01:00:00,31.2819,112.9369,174.2,荆门市,三台,京山市,987.4,21.7,83.0,36.634499999999996,21.537010848186686
Q6336,2025-06-03 01:00:00,31.2428,112.9794,208.9,荆门市,将军岭,京山市,984.1,23.0,77.0,41.96200000000001,21.62564560344283
Q6339,2025-06-03 01:00:00,30.9928,113.045,105,荆门市,空山洞,京山市,995.8,24.4,75.0,42.05500000000006,22.918253326334497
Q6343,2025-06-03 01:00:00,31.1531,113.2286,226.5,荆门市,四股泉,京山市,982.0,23.9,73.0,44.7365,21.647151988058035
Q6344,2025-06-03 01:00:00,31.0558,113.4464,45,荆门市,马岭,京山市,1001.9,22.2,81.0,37.483499999999964,21.66964418662506
Q6349,2025-06-03 01:00:00,30.9269,113.0072,111,荆门市,中南山,京山市,995.3,25.4,62.0,33.94100000000004,20.11180852859954
Q6353,2025-06-03 01:00:00,31.1539,112.8736,115.4,荆门市,黄台,京山市,994.7,23.9,75.0,43.11616666666666,22.240224645265105
Q6358,2025-06-03 01:00:00,31.3367,113.0661,174,荆门市,绿林寨,京山市,988.7,23.2,75.0,38.84050000000001,21.320516864508267
Q6370,2025-06-03 01:00:00,30.9961,112.6831,38,荆门市,罗汉寺,市辖区,1003.6,23.6,75.0,46.31399999999996,21.841895452614946
Q6371,2025-06-03 01:00:00,30.9972,112.7556,57,荆门市,长滩办事处,市辖区,1001.7,23.5,78.0,43.79650000000003,22.578935444601026
Q6372,2025-06-03 01:00:00,30.9675,112.7822,89,荆门市,月宝山,市辖区,997.6,24.0,73.0,45.556999999999945,21.777756425172466
Q6373,2025-06-03 01:00:00,30.9711,112.8208,105,荆门市,牙谷山,市辖区,995.9,24.1,75.0,38.69300000000004,22.509298300763422
Q6374,2025-06-03 01:00:00,30.8964,112.7422,38.5,荆门市,刘台,市辖区,1003.8,24.2,73.0,40.37899999999998,22.04103683451695
Q6375,2025-06-03 01:00:00,30.8661,112.8697,73.3,荆门市,种业基地,市辖区,999.8,24.2,71.0,39.31800000000001,21.437172811653475
Q6376,2025-06-03 01:00:00,30.7656,112.8836,33.1,荆门市,蔡垱,市辖区,1004.1,24.1,76.0,42.562000000000005,22.80942227810694
Q6401,2025-06-03 01:00:00,29.9694,111.5644,100.3,荆州市,洈水,松滋市,997.6,23.8,74.0,35.25724999999997,21.811990591629275
Q6402,2025-06-03 01:00:00,30.1794,111.9433,38.4,荆州市,沙道观,松滋市,1003.6,23.1,82.0,48.40333333333332,23.16979810500678
Q6403,2025-06-03 01:00:00,30.0286,111.8453,52.1,荆州市,纸厂河,松滋市,1003.1,25.5,71.0,37.67049999999998,23.16866959812979
Q6404,2025-06-03 01:00:00,30.1169,111.85,48.2,荆州市,南海,松滋市,1003.8,24.1,72.0,49.34025000000007,21.608926368732888
Q6406,2025-06-03 01:00:00,30.03,111.37,136,荆州市,卸甲坪,松滋市,994.1,21.5,78.0,32.46549999999996,19.993284979472598
Q6407,2025-06-03 01:00:00,30.0261,111.6894,43,荆州市,北干渠,松滋市,1001.9,23.5,71.0,39.69250000000002,20.552620725213753
Q6408,2025-06-03 01:00:00,30.0728,111.6294,164,荆州市,北河,松滋市,989.4,23.5,70.0,35.52600000000003,20.26314719387271
Q6409,2025-06-03 01:00:00,30.2792,111.6517,122,荆州市,陈店,松滋市,993.4,23.8,73.0,40.56899999999998,21.517233962012664
Q6411,2025-06-03 01:00:00,30.2714,112.0189,50.1,荆州市,涴市,松滋市,1003.6,22.3,83.0,44.26150000000006,22.34039013414024
Q6412,2025-06-03 01:00:00,29.9758,111.7756,69.2,荆州市,杨林市,松滋市,1000.6,25.4,64.0,33.93850000000005,20.760576545651137
Q6414,2025-06-03 01:00:00,30.18,111.8686,46.1,荆州市,八宝,松滋市,1003.6,23.6,80.0,52.93158333333335,23.298021816122613
Q6415,2025-06-03 01:00:00,29.9686,111.6961,76.2,荆州市,万家,松滋市,1001.1,24.2,71.0,37.018500000000046,21.437172811653475
Q6417,2025-06-03 01:00:00,30.0903,111.4008,626.8,荆州市,三堰淌,松滋市,938.4,23.4,52.0,24.432499999999987,14.962013352335791
Q6418,2025-06-03 01:00:00,30.0397,111.3681,220,荆州市,卸甲坪村,松滋市,982.6,22.7,76.0,36.38000000000004,20.959936891290884
Q6426,2025-06-03 01:00:00,30.1769,111.7736,69.5,荆州市,新江口,松滋市,1000.4,24.0,67.0,31.075999999999986,19.98780384228158
Q6494,2025-06-03 01:00:00,29.9206,112.0969,44,荆州市,南平,公安县,1004.1,23.6,76.0,38.67300000000001,22.13312072531648
Q6495,2025-06-03 01:00:00,29.99,112.0072,48,荆州市,狮子口,公安县,1003.4,25.3,73.0,33.951999999999956,23.539490738951834
Q6496,2025-06-03 01:00:00,30.0592,112.3197,30,荆州市,杨家厂,公安县,1004.4,24.0,76.0,40.22549999999995,22.67273271661791
Q6497,2025-06-03 01:00:00,29.8575,112.0914,40,荆州市,孟家溪,公安县,1004.7,23.2,77.0,31.52950000000002,21.889063980895155
Q6498,2025-06-03 01:00:00,29.9631,112.3392,40,荆州市,麻豪口,公安县,1004.5,24.4,75.0,42.54500000000004,22.918253326334497
Q6499,2025-06-03 01:00:00,29.99,112.1083,37,荆州市,夹竹园,公安县,1004.4,24.0,81.0,39.34950000000003,24.164359869026985
Q6500,2025-06-03 01:00:00,29.7447,112.0739,36.9,荆州市,甘厂,公安县,1004.7,23.5,74.0,33.76049999999998,21.421041319236867
