Station_Id_C,Datetime,Station_Name,City,Cnty,Lat,Lon,Alti,PRS,TEM,RHU,VAP,PWV
57264,2025-06-03 00:00:00,武当山,十堰市,丹江口市,32.4261,111.0153,1017.5,897.8,20.3,51,12.141817890842832,19.21050000000001
57351,2025-06-03 00:00:00,坛子岭,宜昌市,夷陵区,30.8333,111.0167,231.0,982.7,18.8,100,21.68731560886481,59.24550000000011
57352,2025-06-03 00:00:00,三斗坪,宜昌市,夷陵区,30.8092,111.0003,185.3,987.9,18.8,93,20.16920351624428,41.40150000000003
57353,2025-06-03 00:00:00,苏家坳,宜昌市,夷陵区,30.8378,111.0164,191.8,987.2,19.7,94,21.562231398046205,53.96250000000005
57354,2025-06-03 00:00:00,神农顶,省直辖县级行政区划,神农架林区,31.4558,110.2711,2948.1,714.2,6.2,63,5.971278647348472,7.942999999999997
57367,2025-06-03 00:00:00,大老岭,宜昌市,夷陵区,31.0836,110.9406,1910.0,808.4,14.0,52,8.306402588080788,14.799500000000014
57451,2025-06-03 00:00:00,绿葱坡,恩施土家族苗族自治州,巴东县,30.8131,110.2539,1813.5,818.0,14.6,45,7.472945025537492,20.717499999999983
Q0004,2025-06-03 00:00:00,沪渝K1464,恩施土家族苗族自治州,利川市,30.2789,108.8711,1082.2,888.7,15.5,99,17.420971837647706,31.80499999999998
Q0005,2025-06-03 00:00:00,沪渝K1439,恩施土家族苗族自治州,利川市,30.2444,109.1197,1131.4,884.7,15.8,5,0.8969213245607369,5.762500000000002
Q0007,2025-06-03 00:00:00,沪渝K1412,恩施土家族苗族自治州,恩施市,30.2389,109.3664,706.7,929.1,18.0,99,20.419582093647964,40.26195833333334
Q0008,2025-06-03 00:00:00,沪渝K1407,恩施土家族苗族自治州,巴东县,30.2439,109.4128,545.1,945.9,19.1,92,20.329757411269615,47.47433333333336
Q0010,2025-06-03 00:00:00,沪渝K1375,恩施土家族苗族自治州,恩施市,30.4114,109.5864,729.9,926.2,17.3,99,19.53742356452188,43.969499999999925
Q0011,2025-06-03 00:00:00,沪渝K1369,恩施土家族苗族自治州,恩施市,30.455,109.6258,624.1,937.3,18.0,99,20.419582093647964,41.67100000000001
Q0013,2025-06-03 00:00:00,沪渝K1351,恩施土家族苗族自治州,恩施市,30.4628,109.7828,780.1,920.1,16.7,98,18.618145385509763,35.87450000000005
Q0014,2025-06-03 00:00:00,沪渝K1343,恩施土家族苗族自治州,恩施市,30.4997,109.8508,903.4,907.4,15.9,94,16.970330308018053,34.950500000000005
Q0015,2025-06-03 00:00:00,沪渝K1336,恩施土家族苗族自治州,建始县,30.55,109.8914,879.8,909.6,15.7,99,17.64571659097556,34.665500000000016
Q0019,2025-06-03 00:00:00,沪渝K1305,恩施土家族苗族自治州,巴东县,30.6308,110.1639,865.2,911.1,16.0,99,17.987615346713007,34.68150000000001
Q0021,2025-06-03 00:00:00,沪渝K1291,恩施土家族苗族自治州,巴东县,30.6119,110.3097,1104.2,886.0,14.2,99,16.0205259305792,29.78218571428573
Q0022,2025-06-03 00:00:00,沪渝k1283,恩施土家族苗族自治州,恩施市,30.6217,110.3864,923.0,888.3,15.8,83,14.888893987708231,33.74199999999993
Q0023,2025-06-03 00:00:00,秭归k48,宜昌市,市辖区,30.6325,111.3253,62.7,997.5,20.8,84,20.624965383070077,46.972500000000046
Q0026,2025-06-03 00:00:00,沪渝K1262,宜昌市,长阳土家族自治县,30.6247,110.6047,597.8,939.8,15.9,92,16.60925945040065,29.94800000000001
Q0028,2025-06-03 00:00:00,沪渝K1179,宜昌市,市辖区,30.5711,111.4003,54.9,999.2,20.8,93,22.834783102684725,46.15249999999994
Q0030,2025-06-03 00:00:00,沪渝K1208,宜昌市,长阳土家族自治县,30.5589,111.1281,241.9,981.4,18.5,94,20.00674542299853,29.7985
Q0032,2025-06-03 00:00:00,沪渝K1097,荆州市,荆州区,30.3922,112.195,25.4,1003.6,21.8,78,20.36375300807319,43.61299999999997
Q0033,2025-06-03 00:00:00,沪渝K1069,荆州市,荆州区,30.3353,112.4733,25.4,1004.2,22.4,88,23.83083401977504,50.11333928571428
Q0034,2025-06-03 00:00:00,沪渝K1065,省直辖县级行政区划,潜江市,30.3383,112.5164,24.4,1003.8,22.3,95,25.570326057148463,50.432583333333376
Q0037,2025-06-03 00:00:00,沪渝K933,武汉市,蔡甸区,30.4533,113.8225,17.0,1004.6,22.6,78,21.381246922813197,40.16699999999999
Q0039,2025-06-03 00:00:00,沪渝k959,省直辖县级行政区划,仙桃市,30.3486,113.5853,15.2,1004.5,22.3,83,22.34039013414024,47.17349999999997
Q0040,2025-06-03 00:00:00,沪渝K982,省直辖县级行政区划,仙桃市,30.3631,113.3619,9.0,1005.0,22.6,81,22.203602573690628,44.01399999999998
Q0047,2025-06-03 00:00:00,黄黄785,黄冈市,浠水县,30.2406,115.1297,19.8,1005.8,22.1,85,22.60152771233459,38.4155
Q0049,2025-06-03 00:00:00,黄黄K761,黄冈市,蕲春县,30.1353,115.33,21.4,1005.4,21.9,86,22.589964669730385,44.50149999999995
Q0050,2025-06-03 00:00:00,黄黄K742,黄冈市,武穴市,30.0289,115.4664,41.4,1003.3,22.9,77,21.494981040596123,44.57050000000002
Q0051,2025-06-03 00:00:00,黄黄K730,黄冈市,武穴市,30.0039,115.5917,38.0,1004.4,21.3,87,22.02840196117382,43.77799999999998
Q0052,2025-06-03 00:00:00,黄黄K722,黄冈市,武穴市,30.0161,115.6708,42.5,1003.0,20.8,88,21.60710659178769,46.147000000000006
Q0053,2025-06-03 00:00:00,黄黄K714,黄冈市,武穴市,30.0278,115.7514,22.2,1005.4,21.2,89,22.39689540380184,42.497500000000045
Q0054,2025-06-03 00:00:00,黄黄K708,黄冈市,黄梅县,30.0278,115.8164,23.1,1005.9,20.0,99,23.135776521723788,43.91200000000001
Q0055,2025-06-03 00:00:00,黄黄K700,黄冈市,黄梅县,30.0333,115.8986,25.2,1005.3,20.1,98,23.044390123670464,45.13250000000003
Q0056,2025-06-03 00:00:00,黄黄K685,黄冈市,黄梅县,30.1047,116.0217,45.9,1003.3,20.4,5,1.197754154804246,3.2569999999999943
Q0058,2025-06-03 00:00:00,大广K2491,黄石市,市辖区,30.1703,114.9136,25.0,1004.0,21.3,90,22.788002028800506,45.06049999999996
Q0061,2025-06-03 00:00:00,大广K2520,黄石市,大冶市,29.9158,114.8833,57.7,1000.8,22.3,75,20.187099518801418,28.599499999999967
Q0064,2025-06-03 00:00:00,大广K2552,黄石市,阳新县,29.6617,114.9464,23.5,1004.9,22.8,76,21.0875410769321,26.92199999999996
Q0065,2025-06-03 00:00:00,大广K2560,黄石市,阳新县,29.6053,114.9322,37.1,1002.2,22.3,79,21.263744826470827,41.68999999999995
Q0066,2025-06-03 00:00:00,大广K2583,咸宁市,通山县,29.4306,114.8339,281.9,973.7,20.5,83,20.005890324147845,36.23349999999996
Q0067,2025-06-03 00:00:00,杭瑞K731,咸宁市,崇阳县,29.3742,113.8803,81.0,997.4,20.2,95,22.477653144646453,48.70799999999999
Q0069,2025-06-03 00:00:00,杭瑞K679,咸宁市,通山县,29.5817,114.3203,81.0,994.3,19.6,88,20.060884566886283,38.13449999999997
Q0071,2025-06-03 00:00:00,杭瑞K640,咸宁市,通山县,29.7172,114.6692,128.1,992.4,22.3,76,20.456260845718774,43.38299999999993
Q0072,2025-06-03 00:00:00,杭瑞K620,黄石市,阳新县,29.7147,114.8767,167.3,988.7,21.1,82,20.50896422956412,30.780500000000025
Q0074,2025-06-03 00:00:00,杭瑞K583,黄石市,阳新县,29.7067,115.2367,54.2,1000.7,22.0,79,20.878345248091215,46.21550000000002
Q0079,2025-06-03 00:00:00,福银K1447,十堰市,郧西县,33.08,110.3,444.3,958.8,19.1,86,19.00390366705638,33.10749999999996
Q0080,2025-06-03 00:00:00,福银K1421,十堰市,郧西县,32.95,110.5,395.1,963.7,20.6,78,18.91709619654088,32.18450000000001
Q0081,2025-06-03 00:00:00,福银K1405,十堰市,郧西县,32.86,110.65,275.8,975.4,20.6,80,19.40214994517013,33.51850000000004
Q0082,2025-06-03 00:00:00,福银K1398,十堰市,郧西县,32.82,110.7,205.1,983.5,21.5,74,18.967988313858616,32.0215
Q0083,2025-06-03 00:00:00,福银K1338,十堰市,丹江口市,32.51,111.14,162.4,988.9,20.6,78,18.91709619654088,31.89
Q0084,2025-06-03 00:00:00,福银K1364,十堰市,丹江口市,32.63,110.86,199.4,984.7,21.4,80,20.3806316153697,38.65649999999994
Q0087,2025-06-03 00:00:00,福银K1277,襄阳市,谷城县,32.28,111.66,73.4,998.3,23.2,67,19.04632839896072,33.83999999999996
Q0089,2025-06-03 00:00:00,福银K1234,襄阳市,市辖区,32.19,112.1,76.5,998.0,21.7,76,19.720636439303476,36.000999999999976
Q0093,2025-06-03 00:00:00,福银K1103,随州市,市辖区,31.67,113.26,101.0,995.9,18.6,92,19.70414358864767,36.65899999999996
Q0094,2025-06-03 00:00:00,福银K1093,随州市,市辖区,31.6,113.33,83.0,998.3,17.6,96,19.30793078973558,33.04525000000002
Q0095,2025-06-03 00:00:00,福银K1076,随州市,市辖区,31.48,113.43,110.0,994.9,19.9,97,22.528294788932275,37.51099999999997
Q0096,2025-06-03 00:00:00,福银K1064,孝感市,安陆市,31.39,113.51,97.7,997.1,21.0,85,21.128995162603776,45.39149999999997
Q0100,2025-06-03 00:00:00,福银K993,孝感市,市辖区,30.98,114.05,29.2,1003.6,22.8,78,21.642476368430312,50.63250000000004
Q0103,2025-06-03 00:00:00,襄荆K1620,荆门市,钟祥市,31.54,112.28,56.7,1000.3,21.1,5,1.2505465993636664,6.161499999999997
Q0104,2025-06-03 00:00:00,襄荆K1634,荆门市,钟祥市,31.42,112.34,68.6,999.2,21.1,91,22.75994810841873,35.98899999999999
Q0106,2025-06-03 00:00:00,襄荆K1685,荆门市,市辖区,30.99,112.27,51.3,1000.4,21.7,87,22.57493908183424,40.39599999999999
Q0107,2025-06-03 00:00:00,襄荆K1704,荆门市,市辖区,30.82,112.24,75.1,998.2,22.1,79,21.0061257561698,35.80600000000002
Q0108,2025-06-03 00:00:00,襄荆K1715交通气象站,荆门市,沙洋县,30.7,112.22,50.4,1001.2,21.6,5,1.2894943730813129,8.214
Q0109,2025-06-03 00:00:00,襄荆K1745,荆门市,沙洋县,30.45,112.21,42.3,1003.3,21.7,88,22.834421140246125,50.61150000000006
Q0600,2025-06-03 00:00:00,洪湖石码头,荆州市,洪湖市,29.8361,113.5272,26.0,1004.3,21.8,87,22.71341681669702,39.78999999999992
Q0603,2025-06-03 00:00:00,石首海事码头,荆州市,石首市,29.7378,112.4081,20.0,1003.7,21.6,94,24.242494213928676,43.27108333333331
Q0604,2025-06-03 00:00:00,公安航道码头,荆州市,公安县,30.0744,112.215,11.0,1003.3,22.6,88,24.12243242573796,37.05849999999995
Q0605,2025-06-03 00:00:00,江陵航道码头,荆州市,江陵县,30.03,112.4025,50.0,1003.4,21.7,94,24.39131349071745,44.531000000000006
Q0606,2025-06-03 00:00:00,杨林矶海事码头,荆州市,市辖区,30.3206,112.2025,15.0,1003.0,21.0,95,23.61475929938069,46.02349999999997
Q0607,2025-06-03 00:00:00,阳逻海事水上搜救中心,武汉市,新洲区,30.6586,114.5494,40.0,1004.7,22.6,71,19.462417070765856,33.87850000000002
Q0608,2025-06-03 00:00:00,金口航道码头,武汉市,江夏区,30.3672,114.1486,0.0,1004.7,21.7,81,21.01804673136291,48.09899999999999
Q0609,2025-06-03 00:00:00,嘉鱼簰洲湾海事站房,咸宁市,嘉鱼县,30.2064,113.9283,20.0,1004.5,21.5,86,22.043878310700556,36.61999999999992
Q0611,2025-06-03 00:00:00,秭归泄滩小学,宜昌市,秭归县,31.0047,110.6128,194.5,986.5,19.9,93,21.599292941966,33.45150000000005
Q0612,2025-06-03 00:00:00,长江航道宜昌综合码头,宜昌市,宜都市,30.5539,111.39,40.0,1002.1,20.6,99,24.01016055714804,49.82600000000008
Q0613,2025-06-03 00:00:00,宜昌海事局孙家河执法队,宜昌市,宜都市,30.4106,111.5064,60.0,1002.7,20.7,94,22.9385400247552,47.89699999999996
Q0614,2025-06-03 00:00:00,松滋河口,宜昌市,宜都市,30.3075,111.6236,40.0,1002.5,21.0,85,21.128995162603776,44.95000000000002
Q0615,2025-06-03 00:00:00,枝江姚港,宜昌市,枝江市,30.3725,111.64,50.0,1003.0,21.8,86,22.452343060183257,43.424500000000045
Q0616,2025-06-03 00:00:00,枝江七星台,宜昌市,枝江市,30.4125,111.8875,40.0,1003.0,21.0,83,20.6318423352484,39.90000000000005
Q0617,2025-06-03 00:00:00,监利何王庙,荆州市,监利市,29.7708,113.0303,40.0,1004.0,21.8,88,22.974490573210776,46.48549999999998
Q0618,2025-06-03 00:00:00,监利三洲,荆州市,监利市,29.6517,112.9492,30.0,1004.0,21.7,2,0.5189641168237755,2.798500000000004
Q0619,2025-06-03 00:00:00,洪湖龙口汽渡码头,荆州市,洪湖市,29.9542,113.8303,30.0,1004.3,20.8,94,23.08031840486413,54.44500000000004
Q0701,2025-06-03 00:00:00,水口白灯船,武汉市,新洲区,30.6869,114.5175,4.0,1004.3,22.5,73,19.889384837699883,34.311000000000035
Q0702,2025-06-03 00:00:00,牧鹅洲白灯船,武汉市,新洲区,30.5583,114.6317,4.0,1004.3,22.0,79,20.878345248091215,39.03249999999997
Q0704,2025-06-03 00:00:00,沙市河段航道整治一期工程提示标,荆州市,沙市区,30.3142,112.2003,8.0,1002.2,21.1,100,25.010931987273324,45.22199999999994
Q0705,2025-06-03 00:00:00,公安大桥进口白泵船,荆州市,公安县,30.0753,112.3128,7.0,1002.4,21.1,95,23.760385387909658,51.73300000000005
Q0707,2025-06-03 00:00:00,桃花洲中提示标,荆州市,洪湖市,29.7636,112.6675,6.0,1002.9,22.0,94,24.84258801671613,48.1736666666667
Q0725,2025-06-03 00:00:00,天兴洲航道整治建筑物上提示标,武汉市,江岸区,30.6411,114.3525,4.0,1004.0,23.1,64,18.08374486244432,26.569499999999984
Q0729,2025-06-03 00:00:00,黄冈大桥#1红浮,黄冈市,市辖区,30.5308,114.8308,4.0,1004.0,21.8,80,20.88590052110071,36.636999999999965
Q0737,2025-06-03 00:00:00,李家洲#3红浮,黄冈市,市辖区,30.1289,115.2844,3.0,1004.3,21.8,86,22.452343060183257,39.75099999999992
Q1000,2025-06-03 00:00:00,江滩,武汉市,江岸区,30.5944,114.3017,28.8,1005.0,23.4,71,20.428902846458485,37.68800000000003
Q1001,2025-06-03 00:00:00,潘塘,武汉市,新洲区,30.9978,114.8886,62.0,1000.0,21.0,79,19.63753668053763,40.31550000000004
Q1002,2025-06-03 00:00:00,三店,武汉市,新洲区,30.9278,114.7925,28.0,1004.9,20.0,85,19.864050548954765,40.54599999999998
Q1003,2025-06-03 00:00:00,李集,武汉市,新洲区,30.8803,114.6789,24.6,1005.2,20.9,86,21.24645081755528,35.64999999999997
Q1004,2025-06-03 00:00:00,旧街,武汉市,新洲区,30.8169,114.8717,27.0,1004.8,20.0,87,20.33143997363605,38.04250000000005
Q1005,2025-06-03 00:00:00,辛冲,武汉市,新洲区,30.7997,114.8161,40.0,1003.7,20.7,82,20.01021576627581,31.987249999999985
Q1006,2025-06-03 00:00:00,汪集,武汉市,新洲区,30.8086,114.73,37.0,1003.6,20.4,89,21.320023955515573,41.18849999999996
Q1007,2025-06-03 00:00:00,仓埠,武汉市,江岸区,30.8736,114.6136,28.8,1002.8,21.9,81,21.276594630792577,51.01500000000011
Q1008,2025-06-03 00:00:00,凤凰,武汉市,新洲区,30.9403,114.7225,67.0,1001.5,19.7,90,20.644689636427216,40.963499999999975
Q1010,2025-06-03 00:00:00,化工,武汉市,洪山区,30.5064,114.3839,40.8,1003.9,23.0,75,21.063940522833924,37.9495
Q1011,2025-06-03 00:00:00,五一大队,武汉市,东西湖区,30.7475,114.0272,26.0,1005.6,20.3,98,23.33133633926662,47.64399999999998
Q1013,2025-06-03 00:00:00,湖北省农科院,武汉市,洪山区,30.4836,114.3192,31.0,1005.0,21.0,84,20.88041874892609,37.37700000000004
Q1014,2025-06-03 00:00:00,花山工作基地,武汉市,市辖区,30.5325,114.5006,41.0,1003.0,21.5,84,21.531229977893567,36.5845
Q1016,2025-06-03 00:00:00,湖北省预备役师,武汉市,洪山区,30.5333,114.5058,29.0,1004.2,22.5,78,21.25167147041905,36.62325000000001
Q1017,2025-06-03 00:00:00,和平公园,武汉市,青山区,30.6381,114.3803,22.0,1005.1,23.0,74,20.783087982529477,37.29383333333329
Q1018,2025-06-03 00:00:00,纱帽,武汉市,汉南区,30.3322,114.0706,19.0,1004.9,22.9,81,22.6116034323154,35.467000000000006
Q1019,2025-06-03 00:00:00,湘口,武汉市,汉南区,30.2669,113.8478,25.0,1005.0,22.8,80,22.197411659928527,35.43600000000003
Q1020,2025-06-03 00:00:00,邓南,武汉市,汉南区,30.3078,113.9783,27.0,1004.5,22.2,87,23.274803015263952,39.4805
Q1021,2025-06-03 00:00:00,东荆,武汉市,汉南区,30.3461,113.9131,24.0,1004.9,22.9,79,22.05329223645576,34.41749999999999
Q1022,2025-06-03 00:00:00,气象预警中心,武汉市,东西湖区,30.6703,114.1803,32.0,1005.4,24.0,70,20.88278013372702,39.90200000000003
Q1023,2025-06-03 00:00:00,建和分校,武汉市,洪山区,30.4614,114.2383,23.2,1005.3,23.7,72,21.0950129937348,40.452000000000034
Q1024,2025-06-03 00:00:00,实验小学,武汉市,东西湖区,30.6242,114.1408,26.0,1005.5,26.2,59,20.068933731533523,33.8965
Q1026,2025-06-03 00:00:00,沌阳,武汉市,汉南区,30.455,114.1294,28.0,1005.2,24.9,70,22.040023089883352,39.023999999999965
Q1027,2025-06-03 00:00:00,华师,武汉市,洪山区,30.5183,114.3594,43.1,1003.1,21.0,85,21.128995162603776,28.388500000000004
Q1028,2025-06-03 00:00:00,常青路,武汉市,东西湖区,30.6731,114.2292,24.0,1005.6,24.2,73,22.04103683451695,41.77550000000002
Q1029,2025-06-03 00:00:00,光谷二十七小学,武汉市,洪山区,30.5644,114.4858,26.8,1004.7,23.3,74,21.163830936285223,42.55750000000001
Q1030,2025-06-03 00:00:00,材保所,武汉市,东西湖区,30.6772,114.2828,35.0,1005.5,21.4,87,22.163936881714548,41.09199999999996
Q1031,2025-06-03 00:00:00,湖北省第二师范,武汉市,洪山区,30.4789,114.4464,35.0,1003.9,23.8,71,20.927720702779443,39.523
Q1032,2025-06-03 00:00:00,百步亭社区,武汉市,江岸区,30.6644,114.3136,26.0,1005.6,22.2,77,20.599538300865795,33.61499999999999
Q1033,2025-06-03 00:00:00,南湖社区,武汉市,武昌区,30.5133,114.3114,19.0,1005.4,22.5,74,20.16184216424372,36.45766666666665
Q1036,2025-06-03 00:00:00,东湖落雁景区,武汉市,市辖区,30.5517,114.4369,23.0,1005.4,21.4,81,20.635389510561826,40.98800000000003
Q1038,2025-06-03 00:00:00,天兴洲,武汉市,洪山区,30.6708,114.41,25.0,1005.0,21.2,88,22.145244893646765,42.022
Q1039,2025-06-03 00:00:00,光谷二十一小学,武汉市,洪山区,30.5031,114.4803,45.3,1003.1,23.0,76,21.34479306313838,38.64500000000002
Q1040,2025-06-03 00:00:00,五云,武汉市,江岸区,30.7594,114.6317,24.0,1003.6,21.6,88,22.6951009662311,37.862500000000026
Q1041,2025-06-03 00:00:00,鄢家湖,武汉市,江岸区,30.6386,114.5739,11.5,1005.2,22.4,85,23.01841922364634,35.925000000000054
Q1042,2025-06-03 00:00:00,席家岗,武汉市,江岸区,30.8764,114.4739,32.5,1004.0,20.5,96,23.1393430255204,38.90499999999991
Q1043,2025-06-03 00:00:00,六指中心福利院,武汉市,江岸区,30.8822,114.5217,39.2,1003.8,20.0,91,21.266218822998635,34.116500000000045
Q1044,2025-06-03 00:00:00,青华,武汉市,江岸区,30.8683,114.5803,42.3,1003.6,20.9,86,21.24645081755528,42.31799999999999
Q1045,2025-06-03 00:00:00,大咀,武汉市,江岸区,30.7972,114.4647,31.3,1003.8,22.0,81,21.40691095057454,40.56050000000004
Q1052,2025-06-03 00:00:00,武汉植物园,武汉市,洪山区,30.5447,114.42,23.3,1005.3,22.3,83,22.34039013414024,39.07599999999995
Q1054,2025-06-03 00:00:00,湖大,武汉市,武昌区,30.5814,114.3311,23.0,1005.3,22.2,80,21.402117715185245,41.52350000000001
Q1057,2025-06-03 00:00:00,林业站,武汉市,洪山区,30.6369,114.5061,33.0,1005.5,22.1,84,22.335627386307127,31.553000000000008
Q1061,2025-06-03 00:00:00,青山,武汉市,青山区,30.6411,114.4039,33.5,1004.5,22.7,72,19.856782318065047,31.19600000000001
Q1071,2025-06-03 00:00:00,士官学校,武汉市,洪山区,30.51,114.4581,35.0,1004.6,21.0,89,22.123300817314544,43.617
Q1072,2025-06-03 00:00:00,堤角公园,武汉市,江岸区,30.6664,114.335,27.0,1005.2,20.6,86,20.85731119105789,34.96749999999998
Q1073,2025-06-03 00:00:00,湖北省移动公司,武汉市,江汉区,30.6272,114.2394,25.0,1005.3,22.2,73,19.52943241510653,38.94649999999999
Q1081,2025-06-03 00:00:00,汉南,武汉市,汉南区,30.255,114.0589,22.1,1005.0,22.2,88,23.542329486703768,43.89766666666669
Q1082,2025-06-03 00:00:00,沌口,武汉市,汉南区,30.4769,114.1631,18.1,1004.9,21.8,91,23.75771184275205,38.95266666666668
Q1083,2025-06-03 00:00:00,春笋,武汉市,汉南区,30.4156,114.1306,21.6,1005.4,21.8,82,21.40804803412822,41.03999999999997
Q1084,2025-06-03 00:00:00,恒大农业,武汉市,汉南区,30.3267,114.0014,23.3,1005.0,21.3,89,22.534802006258275,40.432500000000026
Q1085,2025-06-03 00:00:00,武湖湿地,武汉市,汉南区,30.2131,113.8472,22.6,1005.2,21.9,88,23.115312685305515,47.160666666666685
Q1086,2025-06-03 00:00:00,喜鹊湖,武汉市,汉南区,30.22,113.8256,21.3,1005.3,21.2,94,23.655147954577227,51.12349999999999
Q1087,2025-06-03 00:00:00,龙灵山,武汉市,汉南区,30.4258,114.1092,33.7,1004.0,22.9,78,21.774136638525945,39.50250000000001
Q1088,2025-06-03 00:00:00,武汉西,武汉市,汉南区,30.4586,114.0606,29.0,1004.4,23.0,74,20.783087982529477,39.74199999999997
Q1101,2025-06-03 00:00:00,道观河,武汉市,新洲区,30.8781,114.9839,83.0,997.5,21.3,77,19.49640173575154,43.19600000000005
Q1102,2025-06-03 00:00:00,阳逻,武汉市,江岸区,30.6969,114.5339,25.0,1005.4,22.5,75,20.43429949078755,33.22099999999998
Q1103,2025-06-03 00:00:00,涨渡湖,武汉市,新洲区,30.6675,114.7861,18.7,1005.7,20.9,86,21.24645081755528,37.93599999999995
Q1104,2025-06-03 00:00:00,双柳,武汉市,新洲区,30.5964,114.6472,23.0,1005.1,22.1,82,21.803826734252198,35.13349999999997
Q1105,2025-06-03 00:00:00,将军山,武汉市,新洲区,30.8894,115.0589,344.5,968.4,21.1,75,18.758198990454996,39.0525
Q1106,2025-06-03 00:00:00,徐古,武汉市,新洲区,30.9481,114.9694,73.0,999.6,20.2,81,19.165156891751188,39.41900000000007
Q1107,2025-06-03 00:00:00,徐治湾,武汉市,新洲区,30.8731,114.7681,25.0,1004.9,20.8,84,20.624965383070077,31.751500000000064
Q1108,2025-06-03 00:00:00,方院,武汉市,新洲区,30.9156,114.6519,39.3,1003.6,20.5,89,21.45209926324287,41.44699999999999
Q1109,2025-06-03 00:00:00,杨裴,武汉市,江岸区,30.7858,114.5475,31.6,1004.3,21.3,87,22.02840196117382,38.38350000000004
Q1111,2025-06-03 00:00:00,陈家田,武汉市,新洲区,30.975,114.7111,51.1,1002.1,19.3,94,21.032340912982743,33.587999999999965
Q1112,2025-06-03 00:00:00,大雾山,武汉市,新洲区,30.8286,114.9725,196.4,985.1,22.4,71,19.227150175045768,38.58650000000005
Q1113,2025-06-03 00:00:00,王寨,武汉市,新洲区,30.8742,114.8856,30.1,1004.5,20.8,78,19.15175356999364,39.416999999999966
Q1114,2025-06-03 00:00:00,春光,武汉市,新洲区,30.9244,114.6972,55.4,1001.7,21.1,83,20.75907354943686,44.75149999999998
Q1115,2025-06-03 00:00:00,易河,武汉市,新洲区,30.9389,114.9081,36.0,1003.9,20.2,86,20.348191267785207,37.70900000000002
Q1116,2025-06-03 00:00:00,李岗,武汉市,新洲区,30.9575,114.87,60.0,1001.2,20.1,86,20.22262806771081,38.380500000000005
Q1117,2025-06-03 00:00:00,徐寨,武汉市,新洲区,30.9631,114.7978,28.0,1004.9,19.3,91,20.361095990227977,40.75350000000005
Q1118,2025-06-03 00:00:00,陈路,武汉市,新洲区,30.6256,114.7536,22.2,1005.4,20.7,91,22.20645896013536,41.54550000000005
Q1119,2025-06-03 00:00:00,滨湖,武汉市,新洲区,30.6903,114.705,26.5,1004.8,20.4,91,21.79912561743728,45.15049999999997
Q1120,2025-06-03 00:00:00,航天新城,武汉市,新洲区,30.5981,114.6917,22.5,1005.3,22.0,81,21.40691095057454,37.38499999999997
Q1121,2025-06-03 00:00:00,大泊,武汉市,新洲区,30.7686,114.6692,20.6,1005.5,21.8,86,22.452343060183257,34.247000000000014
Q1122,2025-06-03 00:00:00,冯铺,武汉市,新洲区,30.7528,114.7064,23.9,1005.2,21.1,85,21.259292189182325,33.151999999999965
Q1123,2025-06-03 00:00:00,人胜,武汉市,新洲区,30.8286,114.6825,23.6,1005.3,20.2,90,21.29461876861243,35.15949999999999
Q1124,2025-06-03 00:00:00,杨铺,武汉市,新洲区,30.7658,114.815,35.4,1003.8,19.3,90,20.137347682643053,33.96400000000001
Q1125,2025-06-03 00:00:00,朱岗,武汉市,新洲区,30.7722,114.8658,39.5,1003.3,19.3,89,19.91359937505813,36.44599999999997
Q1126,2025-06-03 00:00:00,毛集,武汉市,新洲区,30.6581,114.6303,22.0,1003.9,21.0,93,23.11760647202531,48.29250000000001
Q1128,2025-06-03 00:00:00,王瓦,武汉市,新洲区,30.7972,114.6519,13.8,1005.3,21.0,86,21.37757157628147,32.89999999999996
Q1129,2025-06-03 00:00:00,四道沟,武汉市,新洲区,30.73,114.7775,20.2,1005.5,21.0,89,22.123300817314544,38.631499999999946
Q1130,2025-06-03 00:00:00,道观河水库,武汉市,新洲区,30.8692,115.0061,92.7,997.0,21.1,76,19.008308310327727,40.99900000000002
Q1131,2025-06-03 00:00:00,大屋冲,武汉市,新洲区,30.9228,115.0169,109.7,995.1,20.9,81,20.01119204909277,44.99750000000003
Q1132,2025-06-03 00:00:00,凤凰镇中心小学,武汉市,新洲区,30.9228,114.7528,34.0,1002.5,21.2,80,20.132040812406157,30.170999999999964
Q1133,2025-06-03 00:00:00,旧街利河小学,武汉市,新洲区,30.8536,114.9625,31.0,1002.8,20.7,84,20.498269809355712,28.8195
Q1134,2025-06-03 00:00:00,双柳汉昕小学,武汉市,新洲区,30.6467,114.8336,15.0,1005.5,21.5,81,20.76225747868308,38.95349999999996
Q1135,2025-06-03 00:00:00,刘六,武汉市,新洲区,30.8819,114.8447,32.0,1003.2,20.5,83,20.005890324147845,30.727000000000004
Q1136,2025-06-03 00:00:00,涨渡湖湿地森林公园,武汉市,新洲区,30.6756,114.7642,28.8,1005.7,21.5,85,21.78755414429706,37.92450000000001
Q1191,2025-06-03 00:00:00,紫薇都市田园,武汉市,江岸区,30.8192,114.6042,35.7,1003.8,21.0,88,21.87472440363685,53.902999999999984
Q1201,2025-06-03 00:00:00,姚家集,武汉市,黄陂区,31.2047,114.3831,48.5,1002.8,20.2,85,20.111584392578404,36.03800000000005
Q1202,2025-06-03 00:00:00,蔡家榨,武汉市,黄陂区,30.9883,114.5211,88.0,998.1,22.0,81,21.40691095057454,35.90149999999997
Q1203,2025-06-03 00:00:00,李家集,武汉市,黄陂区,30.9947,114.2333,37.5,1002.4,23.5,77,22.289461913259984,32.35299999999998
Q1204,2025-06-03 00:00:00,天河机场,武汉市,黄陂区,30.8131,114.2119,35.0,1003.5,22.5,79,21.524128796962884,30.182
Q1207,2025-06-03 00:00:00,蔡店,武汉市,黄陂区,31.2856,114.3106,67.0,1000.5,20.1,90,21.16321541969736,38.68400000000002
Q1208,2025-06-03 00:00:00,祁家湾,武汉市,黄陂区,30.8853,114.2261,41.0,1003.6,20.7,84,20.498269809355712,39.69499999999994
Q1209,2025-06-03 00:00:00,横店,武汉市,黄陂区,30.8003,114.2903,38.0,1002.9,21.1,83,20.75907354943686,44.98349999999995
Q1210,2025-06-03 00:00:00,盘龙城,武汉市,黄陂区,30.7506,114.3008,30.0,1003.4,21.7,85,22.05597496501046,46.834
Q1212,2025-06-03 00:00:00,夏家寺水库,武汉市,黄陂区,31.0553,114.4678,49.0,1001.3,19.7,90,20.644689636427216,42.54950000000001
Q1213,2025-06-03 00:00:00,刘家山,武汉市,黄陂区,31.3047,114.2033,537.0,948.4,21.1,66,16.507215111600395,32.15000000000002
Q1214,2025-06-03 00:00:00,三里桥,武汉市,江岸区,30.7583,114.4194,23.0,1005.9,21.5,89,22.81285080991104,43.243000000000045
Q1215,2025-06-03 00:00:00,罗汉寺,武汉市,黄陂区,30.9933,114.3361,48.0,1002.6,20.3,85,20.23636315140472,33.04650000000001
Q1216,2025-06-03 00:00:00,长轩岭,武汉市,黄陂区,31.1075,114.3617,49.0,1002.8,19.2,97,21.568742668315814,34.06599999999999
Q1217,2025-06-03 00:00:00,现代农展中心,武汉市,江岸区,30.7003,114.5036,21.0,1005.6,22.8,82,22.75234695142673,34.19150000000002
Q1218,2025-06-03 00:00:00,源泉,武汉市,黄陂区,31.2347,114.23,100.2,994.8,18.7,99,21.33654024364826,48.46999999999996
Q1219,2025-06-03 00:00:00,矿巴水库,武汉市,黄陂区,31.0919,114.2014,105.3,997.2,21.8,78,20.36375300807319,39.84700000000002
Q1220,2025-06-03 00:00:00,武湖,武汉市,江岸区,30.7003,114.4181,29.0,1005.2,21.1,82,20.50896422956412,35.85449999999997
Q1221,2025-06-03 00:00:00,滠口,武汉市,黄陂区,30.7122,114.3606,17.3,1004.6,23.5,80,23.157882507283105,43.93399999999999
Q1222,2025-06-03 00:00:00,农科院北区,武汉市,江岸区,30.7164,114.4722,28.0,1005.4,21.5,90,23.06917497631453,45.33799999999992
Q1224,2025-06-03 00:00:00,崇杰,武汉市,黄陂区,31.2561,114.3842,50.2,1002.4,19.2,92,20.45695180912428,41.37149999999996
Q1225,2025-06-03 00:00:00,梅店水库,武汉市,黄陂区,31.1831,114.3153,65.1,1000.4,21.4,85,21.654421091330303,38.95450000000002
Q1226,2025-06-03 00:00:00,道士冲,武汉市,黄陂区,31.2664,114.2336,106.9,995.5,21.2,83,20.88699234287138,43.96
Q1227,2025-06-03 00:00:00,姚家老屋,武汉市,黄陂区,31.2417,114.2836,87.3,997.7,21.2,83,20.88699234287138,36.620000000000026
Q1228,2025-06-03 00:00:00,双墩,武汉市,黄陂区,30.8536,114.1789,22.0,1003.8,21.8,81,21.146974277614465,32.508500000000026
Q1229,2025-06-03 00:00:00,红旗,武汉市,黄陂区,30.9553,114.1625,21.6,1003.7,20.3,91,21.66481231503329,41.58650000000001
Q1230,2025-06-03 00:00:00,同兴集,武汉市,黄陂区,31.1272,114.4814,46.7,1001.0,19.6,91,20.744778358939225,48.893999999999984
Q1231,2025-06-03 00:00:00,磨盘,武汉市,黄陂区,31.1839,114.4325,61.2,999.1,19.2,98,21.79110084015412,32.99849999999995
Q1232,2025-06-03 00:00:00,吊箭楼,武汉市,黄陂区,31.1419,114.4219,73.8,997.6,18.5,99,21.070934009328244,30.578499999999984
Q1233,2025-06-03 00:00:00,卧虎,武汉市,黄陂区,31.035,114.3906,29.0,1002.9,20.1,84,19.75233439171754,36.90649999999993
Q1234,2025-06-03 00:00:00,院基寺水库,武汉市,黄陂区,31.0972,114.315,48.5,1000.5,21.0,85,21.128995162603776,48.26750000000007
Q1235,2025-06-03 00:00:00,彭家冲,武汉市,黄陂区,31.0725,114.2422,86.4,998.5,22.2,78,20.86706477230561,31.827999999999975
Q1236,2025-06-03 00:00:00,红十月水库,武汉市,黄陂区,30.9511,114.4708,49.0,1000.8,19.9,92,21.367042480224427,35.23049999999998
Q1237,2025-06-03 00:00:00,北新,武汉市,黄陂区,31.0414,114.3053,60.4,999.1,21.2,83,20.88699234287138,40.86996666666668
Q1238,2025-06-03 00:00:00,余家冲水库,武汉市,黄陂区,31.3386,114.2825,96.0,994.9,18.6,98,20.98919643138556,52.3324999999999
Q1239,2025-06-03 00:00:00,官家砦,武汉市,黄陂区,31.0269,114.1628,34.0,1002.3,22.6,79,21.65536547310567,51.67099999999997
Q1243,2025-06-03 00:00:00,定正,武汉市,黄陂区,30.9133,114.4825,21.0,1003.6,20.7,92,22.450485981675303,45.80850000000007
Q1244,2025-06-03 00:00:00,黄陂石门,武汉市,黄陂区,31.1486,114.3,62.7,999.4,19.7,98,22.479773159665196,52.721
Q1245,2025-06-03 00:00:00,仁和,武汉市,黄陂区,31.25,114.3386,27.9,1002.4,18.7,96,20.68997841808316,39.72850000000002
Q1246,2025-06-03 00:00:00,帽子村,武汉市,黄陂区,31.1961,114.4222,55.1,999.8,18.5,98,20.858096292062303,36.444
Q1247,2025-06-03 00:00:00,白庙集,武汉市,黄陂区,30.9967,114.2653,53.0,1002.5,22.2,78,20.86706477230561,39.47100000000002
Q1248,2025-06-03 00:00:00,白龙寺,武汉市,黄陂区,30.9969,114.4553,28.8,1004.2,21.4,83,21.14490530094606,40.56250000000004
Q1250,2025-06-03 00:00:00,童家湖,武汉市,黄陂区,30.7614,114.1772,14.3,1005.1,23.5,75,21.710514850577905,35.31400000000004
Q1251,2025-06-03 00:00:00,艾馆,武汉市,黄陂区,30.9539,114.6003,55.1,999.8,20.7,84,20.498269809355712,46.93000000000006
Q1252,2025-06-03 00:00:00,全华,武汉市,黄陂区,30.8608,114.2969,43.9,1001.5,21.2,84,21.138642853026457,45.949500000000015
Q1253,2025-06-03 00:00:00,下店,武汉市,黄陂区,30.9294,114.3856,35.8,1002.5,22.2,82,21.93717065806487,46.95499999999995
Q1254,2025-06-03 00:00:00,黄陂郑店,武汉市,黄陂区,30.9661,114.2142,32.9,1002.2,22.8,80,22.197411659928527,34.39499999999998
Q1255,2025-06-03 00:00:00,茶庙,武汉市,黄陂区,31.2994,114.4211,65.4,998.8,19.5,94,21.295839563808343,34.28299999999994
Q1270,2025-06-03 00:00:00,木兰天池,武汉市,黄陂区,31.1797,114.2817,337.8,970.8,17.7,97,19.63252533699146,36.55200000000001
Q1271,2025-06-03 00:00:00,云雾山,武汉市,黄陂区,31.1264,114.2086,122.0,993.8,19.0,99,21.740462260123145,40.304499999999976
Q1301,2025-06-03 00:00:00,老屋汤,武汉市,江夏区,30.3508,114.4364,20.5,1005.4,21.0,92,22.86903005834762,46.84450000000003
Q1302,2025-06-03 00:00:00,安山,武汉市,江夏区,30.1533,114.2303,42.0,1003.0,21.0,92,22.86903005834762,43.451000000000086
Q1304,2025-06-03 00:00:00,郑店,武汉市,江夏区,30.285,114.2281,32.6,1004.7,21.2,92,23.15184693426708,54.92550000000002
Q1305,2025-06-03 00:00:00,法泗,武汉市,江夏区,30.1131,114.1917,24.0,1005.0,21.7,90,23.3533852570699,51.76000000000002
Q1306,2025-06-03 00:00:00,五里界,武汉市,江夏区,30.3058,114.4239,38.2,1003.6,20.8,95,23.32585370704353,54.3170000000001
Q1307,2025-06-03 00:00:00,山坡,武汉市,江夏区,30.0333,114.3808,40.0,1002.9,20.9,89,21.987606078632798,40.89250000000006
Q1308,2025-06-03 00:00:00,湖泗,武汉市,江夏区,30.0231,114.4622,40.8,1003.4,20.4,91,21.79912561743728,52.14533333333331
Q1309,2025-06-03 00:00:00,舒安,武汉市,江夏区,30.1494,114.5,32.3,1003.8,20.0,98,22.902081809383144,46.51699999999997
Q1310,2025-06-03 00:00:00,乌龙泉,武汉市,江夏区,30.2106,114.3286,35.0,1003.6,20.7,97,23.670621089375047,56.31449999999993
Q1311,2025-06-03 00:00:00,庙山,武汉市,江夏区,30.4372,114.3781,19.7,1005.6,22.1,85,22.60152771233459,47.62900000000006
Q1313,2025-06-03 00:00:00,梁子湖,武汉市,江夏区,30.2603,114.4494,22.8,1005.5,21.1,91,22.75994810841873,42.526000000000046
Q1314,2025-06-03 00:00:00,庙山天玺湾,武汉市,江夏区,30.3864,114.38,22.0,1005.7,23.4,83,23.881675158535977,42.91600000000001
Q1316,2025-06-03 00:00:00,中央大公园,武汉市,江夏区,30.3872,114.3056,26.0,1005.5,22.3,80,21.532906153388183,38.04400000000001
Q1317,2025-06-03 00:00:00,郑店海吉星,武汉市,江夏区,30.3178,114.2592,28.0,1005.2,20.8,98,24.06245961358175,54.14000000000001
Q1318,2025-06-03 00:00:00,五里界锦绣,武汉市,江夏区,30.3278,114.3869,27.0,1003.7,20.3,98,23.33133633926662,47.581
Q1319,2025-06-03 00:00:00,舒安未来家园,武汉市,江夏区,30.1294,114.4775,35.0,1005.3,20.3,89,21.188662593823768,31.66599999999997
Q1320,2025-06-03 00:00:00,湖泗祝祠,武汉市,江夏区,30.005,114.5111,55.0,1002.8,21.9,82,21.539268638580133,48.6443571428572
Q1321,2025-06-03 00:00:00,舒安嗣孟,武汉市,江夏区,30.0417,114.5383,49.0,1003.5,20.5,92,22.175203732790383,49.73807142857144
Q1322,2025-06-03 00:00:00,乌龙泉茗泉谷,武汉市,江夏区,30.2406,114.3142,66.0,1001.7,20.1,98,23.044390123670464,44.55550000000004
Q1323,2025-06-03 00:00:00,山坡光星,武汉市,江夏区,30.0956,114.3458,24.0,1005.6,20.4,98,23.475981434163216,44.04150000000001
Q1324,2025-06-03 00:00:00,乌龙泉杨湖,武汉市,江夏区,30.2308,114.4347,24.0,1005.6,21.3,98,24.813602209138327,50.991000000000014
Q1325,2025-06-03 00:00:00,金口南岸,武汉市,江夏区,30.2164,114.0742,24.0,1005.4,21.9,86,22.589964669730385,43.95500000000001
Q1326,2025-06-03 00:00:00,金水花篮棚,武汉市,江夏区,30.2019,114.1539,21.0,1005.6,21.0,92,22.86903005834762,50.10300000000002
Q1327,2025-06-03 00:00:00,法泗花莲湖,武汉市,江夏区,30.2031,114.1856,23.0,1005.5,23.4,82,23.593944132529515,42.79000000000006
Q1328,2025-06-03 00:00:00,东湖路学校,武汉市,江夏区,30.3664,114.3228,23.0,1005.4,22.8,69,19.145267556688356,39.17899999999995
Q1329,2025-06-03 00:00:00,金口长江,武汉市,江夏区,30.2903,114.0978,21.1,1005.2,21.2,97,24.41009948504245,53.09400000000001
Q1330,2025-06-03 00:00:00,马蹄口,武汉市,江夏区,30.2444,114.1503,23.7,1005.2,21.8,91,23.75771184275205,50.02000000000001
Q1331,2025-06-03 00:00:00,三门口,武汉市,江夏区,30.2861,114.1775,43.3,1002.8,19.9,98,22.760545250673847,39.51000000000001
Q1332,2025-06-03 00:00:00,塘口,武汉市,江夏区,30.1914,114.4686,20.9,1005.6,20.5,93,22.41623855597289,49.31200000000016
Q1333,2025-06-03 00:00:00,三合,武汉市,江夏区,30.1481,114.36,34.1,1004.1,20.2,94,22.24104626943965,37.96199999999999
Q1334,2025-06-03 00:00:00,乌龙泉五星,武汉市,江夏区,30.1872,114.3167,41.0,1003.2,20.2,99,23.424080645473676,38.10024999999998
Q1335,2025-06-03 00:00:00,邓家洲,武汉市,江夏区,30.0183,114.25,21.7,1005.3,22.0,79,20.878345248091215,41.82549999999999
Q1336,2025-06-03 00:00:00,前途,武汉市,江夏区,30.0481,114.3033,35.5,1003.8,21.4,91,23.18296846248304,50.908
Q1337,2025-06-03 00:00:00,涂洲,武汉市,江夏区,30.2183,114.2303,28.3,1004.6,20.6,99,24.01016055714804,47.778000000000056
Q1338,2025-06-03 00:00:00,合心,武汉市,江夏区,30.1039,114.2444,31.2,1004.3,20.6,99,24.01016055714804,47.61100000000007
Q1339,2025-06-03 00:00:00,沿湖,武汉市,江夏区,30.1778,114.3586,32.5,1004.3,19.9,99,22.99279571241541,46.55099999999995
Q1340,2025-06-03 00:00:00,长岭,武汉市,江夏区,30.2194,114.3758,21.5,1005.5,20.6,99,24.01016055714804,49.00750000000002
Q1341,2025-06-03 00:00:00,祝庙,武汉市,江夏区,30.1742,114.5003,39.8,1003.3,20.4,99,23.715532265124068,47.30099999999995
Q1342,2025-06-03 00:00:00,陈六,武汉市,江夏区,30.0381,114.4119,39.1,1003.7,19.6,100,22.796459735098047,43.71949999999996
Q1343,2025-06-03 00:00:00,金口花园,武汉市,江夏区,30.3275,114.1272,27.9,1004.7,21.8,86,22.452343060183257,47.03899999999998
Q1344,2025-06-03 00:00:00,安山青春,武汉市,江夏区,30.1744,114.2619,26.9,1004.8,20.3,99,23.569411199871386,43.98425
Q1345,2025-06-03 00:00:00,安山英雄,武汉市,江夏区,30.1472,114.3175,41.3,1003.2,20.0,99,23.135776521723788,38.9795
Q1346,2025-06-03 00:00:00,周李家,武汉市,江夏区,30.0914,114.3069,40.7,1003.2,20.1,97,22.809243285673823,50.4235
Q1347,2025-06-03 00:00:00,狮子山,武汉市,江夏区,30.2844,114.3825,35.2,1003.7,20.0,98,22.902081809383144,46.48199999999997
Q1348,2025-06-03 00:00:00,凉亭,武汉市,江夏区,30.3039,114.1303,26.0,1005.2,22.8,81,22.47487930567764,47.05250000000001
Q1349,2025-06-03 00:00:00,金港,武汉市,江夏区,30.3728,114.1886,24.9,1005.2,22.5,78,21.25167147041905,42.31399999999999
Q1350,2025-06-03 00:00:00,山坡东方红,武汉市,江夏区,30.0536,114.2386,22.2,1005.3,21.5,88,22.556526643507546,44.11649999999999
Q1351,2025-06-03 00:00:00,新生,武汉市,江夏区,30.1067,114.4064,42.6,1003.2,20.7,93,22.694513003215253,48.15899999999999
Q1352,2025-06-03 00:00:00,官堤,武汉市,江夏区,30.0669,114.4333,38.5,1003.8,20.1,95,22.33894960968055,53.12903333333335
Q1353,2025-06-03 00:00:00,八分山,武汉市,江夏区,30.3608,114.2928,262.0,977.8,22.2,73,19.52943241510653,37.41299999999994
Q1354,2025-06-03 00:00:00,普生园,武汉市,江夏区,30.4092,114.3656,20.7,1004.4,23.2,75,21.320516864508267,38.57699999999996
Q1401,2025-06-03 00:00:00,东山,武汉市,东西湖区,30.7736,114.0089,20.9,1005.5,20.6,94,22.797526185574903,43.26249999999999
Q1402,2025-06-03 00:00:00,柏泉,武汉市,东西湖区,30.7692,114.1272,33.6,1004.5,22.9,76,21.215825442666304,36.75299999999996
Q1403,2025-06-03 00:00:00,郁金香公园,武汉市,东西湖区,30.7053,114.0806,21.0,1005.8,22.9,86,24.0073814219645,45.22950000000004
Q1404,2025-06-03 00:00:00,走马岭,武汉市,东西湖区,30.6506,114.0136,13.0,1005.1,23.3,76,21.735826366995635,35.977
Q1405,2025-06-03 00:00:00,辛安渡,武汉市,东西湖区,30.7461,113.9286,31.3,1005.1,21.3,94,23.80080211896941,58.0175
Q1406,2025-06-03 00:00:00,径河,武汉市,东西湖区,30.6808,114.1228,23.0,1005.1,22.2,75,20.06448535798616,36.57199999999997
Q1407,2025-06-03 00:00:00,将军路,武汉市,东西湖区,30.6642,114.2636,16.0,1005.1,21.5,84,21.531229977893567,42.50549999999993
Q1408,2025-06-03 00:00:00,杜公湖,武汉市,东西湖区,30.7228,114.145,25.0,1005.5,21.4,85,21.654421091330303,40.59200000000001
Q1410,2025-06-03 00:00:00,新沟,武汉市,东西湖区,30.6897,113.9931,22.0,1005.5,20.2,98,23.18747377026687,41.46099999999996
Q1411,2025-06-03 00:00:00,塔尔头,武汉市,东西湖区,30.6919,114.1892,32.0,1005.4,23.7,69,20.21605411899585,40.68500000000002
Q1412,2025-06-03 00:00:00,金银湖,武汉市,东西湖区,30.6422,114.1814,23.0,1005.4,24.0,67,19.98780384228158,42.640499999999975
Q1413,2025-06-03 00:00:00,红星合作社,武汉市,东西湖区,30.7642,113.9464,32.0,1005.3,22.6,81,22.203602573690628,41.28799999999997
Q1501,2025-06-03 00:00:00,成功闸,武汉市,蔡甸区,30.3908,113.7656,21.0,1005.0,21.7,86,22.315457023422347,43.87166666666666
Q1502,2025-06-03 00:00:00,大集,武汉市,蔡甸区,30.5081,114.0531,30.0,1004.3,23.3,73,20.87783322093001,42.810499999999976
Q1503,2025-06-03 00:00:00,索河,武汉市,蔡甸区,30.5236,113.8964,41.3,1003.4,21.9,86,22.589964669730385,47.89849999999989
Q1504,2025-06-03 00:00:00,桐湖农场,武汉市,蔡甸区,30.3917,113.9786,35.0,1005.1,22.5,81,22.069043450050557,38.35550000000005
Q1506,2025-06-03 00:00:00,消泗,武汉市,蔡甸区,30.3169,113.7728,27.0,1005.3,22.2,87,23.274803015263952,41.10849999999996
Q1507,2025-06-03 00:00:00,永安,武汉市,蔡甸区,30.4617,113.9281,48.6,1002.4,22.4,78,21.122784699346056,41.19999999999995
Q1509,2025-06-03 00:00:00,奓山,武汉市,蔡甸区,30.4297,114.0436,31.3,1004.0,23.0,76,21.34479306313838,41.09450000000002
Q1510,2025-06-03 00:00:00,侏儒,武汉市,蔡甸区,30.4525,113.8792,26.5,1005.0,21.4,95,24.20200004325152,40.29299999999999
Q1512,2025-06-03 00:00:00,沉湖湿地,武汉市,蔡甸区,30.3242,113.8619,25.0,1004.8,22.0,96,25.37115371919945,47.26750000000003
Q1513,2025-06-03 00:00:00,千子山,武汉市,蔡甸区,30.4078,114.0333,37.2,1003.5,22.8,76,21.0875410769321,35.42300000000003
Q1514,2025-06-03 00:00:00,九真山,武汉市,蔡甸区,30.4839,113.9544,122.0,993.7,19.8,100,23.081404983815023,49.754000000000026
Q1515,2025-06-03 00:00:00,绿茵园,武汉市,蔡甸区,30.4467,114.0142,27.3,1004.6,23.5,74,21.421041319236867,35.929500000000026
Q1516,2025-06-03 00:00:00,时光农场,武汉市,蔡甸区,30.4086,113.8017,21.5,1005.4,22.5,85,23.15887275622589,33.67649999999999
Q1517,2025-06-03 00:00:00,农耕园,武汉市,蔡甸区,30.4275,113.9525,22.7,1005.2,22.9,83,23.16991462817504,25.172
Q1518,2025-06-03 00:00:00,花博汇,武汉市,蔡甸区,30.4956,114.0656,32.4,1005.4,22.9,79,22.05329223645576,38.149999999999984
Q1519,2025-06-03 00:00:00,鸽翅岭,武汉市,蔡甸区,30.5394,113.9619,32.0,1004.0,22.5,81,22.069043450050557,42.081500000000005
Q1520,2025-06-03 00:00:00,景秀大地,武汉市,蔡甸区,30.4989,113.9781,22.3,1005.2,22.1,78,20.74022543014233,34.507499999999986
Q1521,2025-06-03 00:00:00,七沟,武汉市,蔡甸区,30.4289,113.7733,23.2,1005.2,22.0,87,22.99260805802451,43.48666666666662
Q1522,2025-06-03 00:00:00,香草花田,武汉市,蔡甸区,30.5133,113.8858,27.1,1004.7,20.3,98,23.33133633926662,30.38749999999996
Q1523,2025-06-03 00:00:00,金龙水寨,武汉市,蔡甸区,30.54,113.9247,22.2,1005.2,22.5,80,21.79658612350672,37.57750000000004
Q1524,2025-06-03 00:00:00,谢八家,武汉市,蔡甸区,30.6244,113.9264,24.8,1004.9,21.2,88,22.145244893646765,41.8385
Q1525,2025-06-03 00:00:00,蔡甸野生动物王国,武汉市,蔡甸区,30.5567,113.9353,23.3,1005.1,21.0,86,21.37757157628147,41.82949999999995
Q1526,2025-06-03 00:00:00,长江大学,武汉市,蔡甸区,30.5292,114.0256,21.5,1005.3,22.0,79,20.878345248091215,38.286
Q1527,2025-06-03 00:00:00,蔡甸汉江堤防,武汉市,蔡甸区,30.6311,113.9797,26.1,1004.8,21.3,82,20.76240184846268,40.477
Q1528,2025-06-03 00:00:00,后官湖湿地公园,武汉市,蔡甸区,30.5306,114.0786,24.3,1005.0,21.5,86,22.043878310700556,41.66150000000002
Q1529,2025-06-03 00:00:00,张家大湖,武汉市,蔡甸区,30.3156,113.8164,23.3,1005.3,21.9,91,23.903334708668204,36.61633333333332
Q1599,2025-06-03 00:00:00,孙家畈,武汉市,蔡甸区,30.5664,114.0289,17.8,1004.9,23.6,73,21.25944490721188,36.45350000000002
Q1701,2025-06-03 00:00:00,藏龙岛,武汉市,江夏区,30.4017,114.4189,30.0,1004.9,23.7,73,21.387999285314446,43.40699999999998
Q1702,2025-06-03 00:00:00,东湖高新射击场,武汉市,洪山区,30.5039,114.4608,40.0,1003.9,24.9,70,22.040023089883352,35.22349999999998
Q1703,2025-06-03 00:00:00,武汉欢乐谷,武汉市,洪山区,30.5972,114.3886,30.0,1005.4,21.9,78,20.488572607429887,41.24400000000005
Q1704,2025-06-03 00:00:00,东湖湖心亭,武汉市,武昌区,30.57,114.39,30.0,1005.3,22.0,84,22.19975950429952,46.261500000000005
Q1706,2025-06-03 00:00:00,青山沙排中心,武汉市,青山区,30.6508,114.3919,30.0,1005.1,22.3,95,25.570326057148463,52.71166666666671
Q1707,2025-06-03 00:00:00,驿山高尔夫,武汉市,洪山区,30.5,114.5006,50.0,1001.2,22.1,84,22.335627386307127,38.50699999999994
Q1708,2025-06-03 00:00:00,华科,武汉市,武昌区,30.5094,114.4117,40.0,1003.9,23.3,67,19.16184692879878,43.61250000000005
Q1709,2025-06-03 00:00:00,省奥体中心,武汉市,市辖区,30.4739,114.4547,40.0,1002.8,22.9,82,22.890759030245217,40.28600000000001
Q1710,2025-06-03 00:00:00,洪山体育馆,武汉市,武昌区,30.5489,114.3281,30.0,1003.9,23.6,71,20.676994361808816,44.54249999999999
Q1711,2025-06-03 00:00:00,武汉体育学院,武汉市,洪山区,30.5219,114.3725,30.0,1005.0,22.5,78,21.25167147041905,43.564499999999946
Q1712,2025-06-03 00:00:00,武大,武汉市,武昌区,30.5383,114.3511,30.0,1005.1,23.7,70,20.50904041057549,31.23750000000005
Q1713,2025-06-03 00:00:00,武汉软件职院,武汉市,市辖区,30.4508,114.4231,30.0,1004.2,23.4,77,22.15528900249723,43.80350000000005
Q1714,2025-06-03 00:00:00,武汉理工大学,武汉市,洪山区,30.5058,114.325,30.0,1005.5,23.3,68,19.447844644153992,39.19099999999999
Q1715,2025-06-03 00:00:00,武汉城市职院,武汉市,洪山区,30.4414,114.3086,20.0,1005.7,22.3,87,23.41703544180965,50.8041666666667
Q1716,2025-06-03 00:00:00,武汉体育中心,武汉市,汉南区,30.5061,114.1683,30.0,1005.3,23.4,67,19.27797874243265,39.5745
Q1717,2025-06-03 00:00:00,武汉商学院,武汉市,汉南区,30.4664,114.08,30.0,1005.2,23.3,71,20.30583779021961,34.53200000000005
Q1718,2025-06-03 00:00:00,江汉大学,武汉市,汉南区,30.5208,114.1497,30.0,1005.3,23.1,78,22.03956405110401,39.89750000000002
Q1720,2025-06-03 00:00:00,全民健身中心,武汉市,江岸区,30.6472,114.2831,30.0,1005.8,23.6,67,19.512093271002684,35.46099999999997
Q1721,2025-06-03 00:00:00,汉口文体中心,武汉市,江汉区,30.6028,114.2636,30.0,1005.6,22.7,75,20.68414824798442,36.66800000000001
Q1722,2025-06-03 00:00:00,汉阳沙排中心,武汉市,汉阳区,30.5017,114.2308,30.0,1004.8,23.4,75,21.579826950484318,45.55750000000005
Q1723,2025-06-03 00:00:00,军山,武汉市,汉南区,30.3978,114.1156,40.0,1003.2,22.5,92,25.066074042032728,46.158500000000046
Q1724,2025-06-03 00:00:00,蔡甸国防园,武汉市,蔡甸区,30.4764,113.9647,60.0,1001.9,22.3,75,20.187099518801418,40.383500000000005
Q1725,2025-06-03 00:00:00,海工大木兰校区,武汉市,黄陂区,31.1183,114.4642,50.0,1002.1,20.5,100,24.103482318250418,50.77199999999993
Q1726,2025-06-03 00:00:00,体育中心,武汉市,东西湖区,30.6378,114.1269,20.0,1004.7,24.3,63,19.13622323388568,29.40199999999998
Q1727,2025-06-03 00:00:00,东湖帆船基地,武汉市,武昌区,30.5425,114.3689,30.0,1005.7,23.8,80,23.58053036932895,41.74750000000001
Q1728,2025-06-03 00:00:00,雷神山,武汉市,江夏区,30.4408,114.2756,20.0,1005.5,22.6,86,23.574195325153006,48.59450000000001
Q1729,2025-06-03 00:00:00,桂子米业,武汉市,江夏区,30.1603,114.1839,47.0,1002.9,21.2,97,24.41009948504245,50.73199999999997
Q1730,2025-06-03 00:00:00,天子山教育基地,武汉市,江夏区,30.1494,114.4292,40.0,1004.0,21.3,99,25.066802231680555,50.09649999999996
Q1745,2025-06-03 00:00:00,中法生态城,武汉市,蔡甸区,30.5631,114.07,22.1,1004.9,22.0,83,21.93547665305786,40.57499999999995
Q1753,2025-06-03 00:00:00,高新大道,武汉市,市辖区,30.4872,114.4561,50.0,1002.0,22.4,80,21.664394563431856,38.44874999999997
Q1754,2025-06-03 00:00:00,天兴洲大桥,武汉市,洪山区,30.6575,114.4003,60.0,1000.2,21.6,79,20.374011094684736,41.48400000000003
Q1755,2025-06-03 00:00:00,知音桥,武汉市,硚口区,30.5811,114.2161,35.0,1004.1,23.9,63,18.68178870202269,32.21150000000001
Q1756,2025-06-03 00:00:00,晴川桥,武汉市,硚口区,30.5656,114.2783,15.0,1003.5,23.1,74,20.90932999720124,37.52612499999999
Q1759,2025-06-03 00:00:00,长江二桥,武汉市,江岸区,30.6036,114.3217,20.0,1001.7,23.1,69,19.49653742982278,31.02250000000004
Q1760,2025-06-03 00:00:00,二七长江大桥,武汉市,江岸区,30.6294,114.3394,25.0,1001.1,22.7,75,20.68414824798442,40.50550000000006
Q1761,2025-06-03 00:00:00,杨泗港长江大桥,武汉市,汉阳区,30.5069,114.2625,30.0,1000.5,23.7,64,18.7511226610976,35.56649999999998
Q1762,2025-06-03 00:00:00,鹦鹉洲大桥,武汉市,汉阳区,30.5339,114.2764,40.0,1001.5,21.8,72,18.797310468990634,33.127499999999976
Q1763,2025-06-03 00:00:00,古田桥,武汉市,硚口区,30.5872,114.1797,25.0,1003.4,23.9,60,17.792179716212082,32.07599999999995
Q1764,2025-06-03 00:00:00,月湖桥,武汉市,硚口区,30.5644,114.2483,35.0,1003.9,23.9,66,19.571397687833294,38.45199999999997
Q1766,2025-06-03 00:00:00,青化立交,武汉市,洪山区,30.6058,114.43,20.0,1003.8,22.5,75,20.43429949078755,31.673999999999975
Q1767,2025-06-03 00:00:00,欢乐大道,武汉市,市辖区,30.6017,114.41,22.0,1004.1,21.9,73,19.17520256849207,34.002
Q1768,2025-06-03 00:00:00,姑嫂树立交,武汉市,东西湖区,30.6386,114.2514,26.0,1003.7,22.9,67,18.703425061297924,33.63899999999998
Q1769,2025-06-03 00:00:00,楚康路出口,武汉市,洪山区,30.5097,114.3594,18.0,1003.8,23.1,65,18.36630337592001,35.646500000000046
Q1770,2025-06-03 00:00:00,长丰大道,武汉市,硚口区,30.6083,114.2083,22.0,1004.1,23.2,65,18.477781282573837,29.074500000000008
Q1779,2025-06-03 00:00:00,青菱立交,武汉市,洪山区,30.4628,114.2886,13.0,1004.6,22.2,83,22.204697129504687,43.89750000000001
Q2004,2025-06-03 00:00:00,红卫,十堰市,张湾区,32.6525,110.7253,336.4,970.4,20.1,87,20.457774905707453,32.037000000000006
Q2022,2025-06-03 00:00:00,小川,十堰市,茅箭区,32.4628,110.7172,643.8,937.7,19.2,79,17.56629557522628,30.401999999999976
Q2023,2025-06-03 00:00:00,黄龙,十堰市,张湾区,32.6861,110.5586,186.4,987.0,20.8,86,21.11603598742888,32.793499999999995
Q2031,2025-06-03 00:00:00,紫霄宫,十堰市,丹江口市,32.4253,111.0228,851.0,914.7,19.2,76,16.899221059711362,28.087999999999983
Q2032,2025-06-03 00:00:00,八仙观,十堰市,丹江口市,32.4308,111.0567,588.0,945.1,20.4,68,16.289456505337746,27.34349999999999
Q2033,2025-06-03 00:00:00,太子坡,十堰市,丹江口市,32.4489,111.0708,558.0,946.7,19.3,77,17.228619684039057,28.442499999999978
Q2034,2025-06-03 00:00:00,元和观,十堰市,丹江口市,32.4978,111.0942,396.0,963.2,19.4,79,17.786539268900576,28.31049999999998
Q2050,2025-06-03 00:00:00,火车站小学,十堰市,茅箭区,32.6017,110.7742,310.0,974.2,20.7,77,18.79008065857607,29.42666666666673
Q2204,2025-06-03 00:00:00,习家店,十堰市,丹江口市,32.7708,111.1592,253.1,979.7,20.9,82,20.25824380278527,36.28250000000004
Q2205,2025-06-03 00:00:00,石鼓,十堰市,丹江口市,32.7553,111.3811,297.0,974.4,21.8,75,19.58053173853191,29.911500000000004
Q2206,2025-06-03 00:00:00,丁家营,十堰市,丹江口市,32.4447,111.2453,186.0,987.7,18.7,98,21.12101963512656,41.70450000000009
Q2236,2025-06-03 00:00:00,蒿口新村,十堰市,丹江口市,32.5219,111.0364,179.1,988.3,19.7,86,19.727147874808228,29.556499999999968
Q2261,2025-06-03 00:00:00,马鞍山,十堰市,丹江口市,32.3306,111.1797,503.1,952.2,19.5,81,18.350670262430597,24.36000000000001
Q2266,2025-06-03 00:00:00,大坝街道,十堰市,丹江口市,32.5486,111.5125,133.4,992.8,22.9,70,19.54089185508738,38.53300000000007
Q2309,2025-06-03 00:00:00,茶店,十堰市,郧阳区,32.7992,110.8847,212.2,984.5,21.3,85,21.52200191608936,36.40849999999998
Q2324,2025-06-03 00:00:00,安阳,十堰市,郧阳区,32.8525,111.0044,221.0,982.5,21.3,82,20.76240184846268,38.74749999999999
Q2326,2025-06-03 00:00:00,五峰,十堰市,郧阳区,32.8278,110.3708,193.5,987.3,20.0,88,20.5651346859767,31.86499999999998
Q2334,2025-06-03 00:00:00,塘上,十堰市,郧阳区,33.0756,110.735,834.7,916.1,16.1,93,17.005725424931015,29.16199999999997
Q2350,2025-06-03 00:00:00,韩家沟,十堰市,郧阳区,32.8653,110.6186,244.8,981.8,19.0,100,21.96006288901328,45.32225000000007
Q2353,2025-06-03 00:00:00,毛河,十堰市,郧阳区,32.5125,110.4669,537.4,949.1,16.9,99,19.048520419648103,40.94650000000001
Q2401,2025-06-03 00:00:00,上津,十堰市,郧西县,33.0742,110.0211,273.4,979.2,19.4,89,20.037999935850017,37.77800000000001
Q2402,2025-06-03 00:00:00,马安,十堰市,郧西县,33.0053,110.2311,374.2,967.1,18.5,97,20.64525857479636,38.22283333333335
Q2403,2025-06-03 00:00:00,土门,十堰市,郧西县,33.0589,110.3233,364.3,967.9,19.0,94,20.64245911567248,42.65450000000003
Q2405,2025-06-03 00:00:00,六郎,十堰市,郧西县,32.9978,110.0711,264.9,976.8,19.7,86,19.727147874808228,38.74549999999995
Q2409,2025-06-03 00:00:00,三官,十堰市,郧西县,33.1683,110.5619,838.1,915.9,14.7,92,15.376981267723473,27.302000000000035
Q2411,2025-06-03 00:00:00,槐树,十堰市,郧西县,33.2025,109.9003,794.0,921.6,17.8,87,17.71991032761027,32.817499999999995
Q2423,2025-06-03 00:00:00,河夹,十堰市,郧西县,32.9303,110.5283,273.0,975.5,19.8,86,19.85000828608092,40.89500000000008
Q2424,2025-06-03 00:00:00,湖北口,十堰市,郧西县,33.1942,109.575,890.6,911.2,15.1,88,15.09246514634516,26.08650000000004
Q2433,2025-06-03 00:00:00,包耳场,十堰市,郧西县,33.1864,109.75,640.0,938.2,16.2,93,17.11460354594165,28.90799999999996
Q2502,2025-06-03 00:00:00,土城,十堰市,房县,32.2775,110.6972,669.3,934.7,15.5,97,17.06903301264472,33.45350000000006
Q2503,2025-06-03 00:00:00,沙河,十堰市,房县,32.1378,111.0931,843.6,915.8,18.6,79,16.91986242938224,23.078500000000016
Q2504,2025-06-03 00:00:00,卧牛观,十堰市,房县,32.2108,110.9142,711.4,930.1,16.1,97,17.73715447546568,33.33550000000002
Q2505,2025-06-03 00:00:00,门古寺,十堰市,房县,32.0058,110.4417,624.2,940.4,16.2,98,18.03474352152991,35.59950000000003
Q2507,2025-06-03 00:00:00,军店,十堰市,房县,32.0336,110.6253,495.7,953.8,18.1,86,17.850141535591344,38.893
Q2509,2025-06-03 00:00:00,中坝,十堰市,房县,32.0064,110.28,795.4,921.1,15.6,93,16.47041975356484,53.20250000000001
Q2524,2025-06-03 00:00:00,三里坪,十堰市,房县,31.9419,110.9697,415.0,963.1,18.1,89,18.472820891484066,33.810499999999976
Q2528,2025-06-03 00:00:00,白鹤,十堰市,房县,32.0997,110.7728,464.5,957.4,17.8,90,18.33094171821752,35.855000000000096
Q2530,2025-06-03 00:00:00,汪家河,十堰市,房县,32.1044,110.5331,563.7,946.5,17.1,96,18.70701660209354,36.533500000000046
Q2532,2025-06-03 00:00:00,对寺河,十堰市,房县,32.3347,110.3903,265.0,981.2,18.5,97,20.64525857479636,44.07774999999998
Q2541,2025-06-03 00:00:00,三座庵,十堰市,房县,31.8828,110.5647,991.9,902.5,13.9,97,15.394376857042555,27.14450000000004
Q2546,2025-06-03 00:00:00,南潭,十堰市,房县,31.9833,110.7353,737.0,927.6,15.5,97,17.06903301264472,33.45350000000006
Q2548,2025-06-03 00:00:00,白鸡,十堰市,房县,32.2303,110.7133,592.3,943.2,15.7,96,17.11099790640054,33.050000000000075
Q2559,2025-06-03 00:00:00,东蒿,十堰市,房县,31.8842,110.7753,1359.0,862.8,15.0,99,16.87008959256981,30.301000000000045
Q2605,2025-06-03 00:00:00,柳林,十堰市,竹山县,31.7169,110.0508,523.7,953.2,16.5,91,17.06976478046901,35.634999999999984
Q2623,2025-06-03 00:00:00,秦古,十堰市,竹山县,32.4331,109.82,580.3,945.0,16.0,97,17.624229178092538,38.181
Q2624,2025-06-03 00:00:00,擂鼓,十堰市,竹山县,32.3533,109.9286,513.9,952.4,16.7,100,18.99810753623445,33.48025000000002
Q2626,2025-06-03 00:00:00,溢水,十堰市,竹山县,32.2786,110.0842,508.8,952.8,17.1,99,19.29161087090896,33.27799999999999
Q2628,2025-06-03 00:00:00,深河,十堰市,竹山县,32.1117,110.2306,361.0,970.2,17.3,96,18.94538042620303,36.08
Q2655,2025-06-03 00:00:00,潘口,十堰市,竹山县,32.23,110.1844,273.8,979.3,18.6,97,20.775020957595917,31.040999999999983
Q2676,2025-06-03 00:00:00,北大街,十堰市,竹山县,32.2256,110.2261,307.0,975.7,19.4,92,20.71343813593485,46.28674999999995
Q2701,2025-06-03 00:00:00,龙坝,十堰市,竹溪县,32.3569,109.6453,563.6,946.5,16.5,96,18.007663944231044,36.49750000000002
Q2721,2025-06-03 00:00:00,泉溪,十堰市,竹溪县,32.0428,109.6986,849.5,916.1,14.9,100,16.93108210778884,56.13060000000002
Q2745,2025-06-03 00:00:00,界牌沟,十堰市,竹溪县,32.1683,109.5989,655.4,938.3,17.0,79,15.297054862029992,44.579499999999946
Q2748,2025-06-03 00:00:00,天宝,十堰市,竹溪县,31.9983,109.7814,498.9,953.2,16.6,99,18.68893267344181,35.43549999999999
Q2757,2025-06-03 00:00:00,高子河,十堰市,竹溪县,31.8119,109.7686,1063.6,894.4,13.2,100,15.163313209563768,51.71849999999995
Q2903,2025-06-03 00:00:00,新华,省直辖县级行政区划,神农架林区,31.5953,110.8861,716.7,930.1,15.3,87,15.1140519787501,26.84199999999998
Q2906,2025-06-03 00:00:00,徐家庄,省直辖县级行政区划,神农架林区,31.5622,110.5533,1398.1,859.4,10.6,97,12.390302234572252,21.971916666666672
Q2910,2025-06-03 00:00:00,木鱼,省直辖县级行政区划,神农架林区,31.4828,110.3786,1245.0,872.7,13.0,83,12.422135836445207,20.202
Q2912,2025-06-03 00:00:00,神农架机场,省直辖县级行政区划,神农架林区,31.6119,110.3383,2597.4,745.0,9.3,55,6.439562247188224,9.307500000000008
Q2916,2025-06-03 00:00:00,板桥,省直辖县级行政区划,神农架林区,31.4089,110.1781,1026.6,897.0,13.9,96,15.235671940990573,30.01750000000005
Q2923,2025-06-03 00:00:00,牛场坪,省直辖县级行政区划,神农架林区,31.5508,110.3911,2285.0,773.3,11.2,53,7.045464133348415,12.01750000000002
Q2925,2025-06-03 00:00:00,九冲,省直辖县级行政区划,神农架林区,31.4083,110.5553,699.8,932.1,15.5,90,15.837247125134278,29.85699999999997
Q2933,2025-06-03 00:00:00,大九湖,省直辖县级行政区划,神农架林区,31.4958,109.9953,1752.0,824.8,10.5,100,12.68863622877745,22.864000000000004
Q2940,2025-06-03 00:00:00,红花,省直辖县级行政区划,神农架林区,31.3992,110.475,819.5,919.4,13.9,88,13.966032612574692,26.065500000000025
Q2950,2025-06-03 00:00:00,阳日,省直辖县级行政区划,神农架林区,31.7328,110.8061,498.0,954.5,16.4,86,16.029475373796995,27.194499999999945
Q2957,2025-06-03 00:00:00,青天袍,省直辖县级行政区划,神农架林区,31.5144,110.3881,1569.0,843.8,16.0,47,8.539574962580922,14.413500000000006
Q3005,2025-06-03 00:00:00,隆中,襄阳市,襄城区,31.9889,112.0322,107.3,995.7,19.7,96,22.021002278855697,39.231499999999954
Q3008,2025-06-03 00:00:00,襄阳老站,襄阳市,襄城区,32.0283,112.1664,68.6,1000.2,22.1,83,22.06972706027966,41.30700000000006
Q3012,2025-06-03 00:00:00,刘集小学,襄阳市,襄州区,32.1517,112.2992,70.1,999.6,22.9,75,20.93666984473648,41.04200000000005
Q3100,2025-06-03 00:00:00,东津,襄阳市,襄州区,32.0631,112.2203,69.7,999.7,22.2,91,24.344908901023214,42.02249999999997
Q3101,2025-06-03 00:00:00,朱集,襄阳市,襄州区,32.2967,112.3483,79.0,999.2,22.3,90,24.224519422561706,42.69049999999996
Q3103,2025-06-03 00:00:00,峪山,襄阳市,襄州区,31.9919,112.3706,93.0,998.1,21.3,95,24.05400214151164,48.27249999999998
Q3104,2025-06-03 00:00:00,龙王,襄阳市,襄州区,32.2089,111.9589,86.0,996.9,21.0,100,24.85764136776915,53.2615
Q3106,2025-06-03 00:00:00,黄龙,襄阳市,襄州区,31.9858,112.4556,84.6,995.6,20.8,92,22.58924780050532,46.68349999999997
Q3107,2025-06-03 00:00:00,石桥,襄阳市,襄州区,32.3633,111.9611,110.7,995.3,23.4,71,20.428902846458485,38.241500000000016
Q3108,2025-06-03 00:00:00,程河,襄阳市,襄州区,32.2664,112.4508,114.6,995.8,22.7,80,22.06309146451672,41.93349999999997
Q3109,2025-06-03 00:00:00,伙牌,襄阳市,襄州区,32.1878,112.1847,108.3,995.3,22.4,80,21.664394563431856,47.699000000000005
Q3112,2025-06-03 00:00:00,张湾,襄阳市,襄州区,32.0886,112.1903,65.4,1000.2,22.4,81,21.935199495474752,42.6355
Q3113,2025-06-03 00:00:00,黄集,襄阳市,襄州区,32.3253,112.1328,142.2,991.7,23.3,71,20.30583779021961,39.525999999999925
Q3202,2025-06-03 00:00:00,枣阳吴店,襄阳市,枣阳市,31.9703,112.75,167.5,988.6,21.3,86,21.77520193863159,50.55399999999998
Q3203,2025-06-03 00:00:00,七方,襄阳市,枣阳市,32.2017,112.5589,131.0,992.7,22.2,90,24.077382429583395,50.7974999999999
Q3206,2025-06-03 00:00:00,枣阳新市,襄阳市,枣阳市,32.3414,112.9942,241.1,980.2,22.8,69,19.145267556688356,40.04450000000004
Q3207,2025-06-03 00:00:00,刘升榆树,襄阳市,枣阳市,32.12,112.8781,156.0,989.4,22.8,81,22.47487930567764,38.5636666666667
Q3212,2025-06-03 00:00:00,琚湾,襄阳市,枣阳市,32.0417,112.5906,72.0,997.9,20.4,95,22.75732894128067,51.92374999999996
Q3217,2025-06-03 00:00:00,姚棚水库,襄阳市,枣阳市,32.3253,112.8719,177.3,987.5,22.5,77,20.979214143875215,32.759499999999946
Q3218,2025-06-03 00:00:00,唐店,襄阳市,枣阳市,31.8503,112.8028,140.0,991.4,20.1,100,23.514683799663736,51.57950000000009
Q3222,2025-06-03 00:00:00,耿集,襄阳市,枣阳市,31.9303,112.5761,156.0,989.4,20.8,94,23.08031840486413,64.35950000000008
Q3237,2025-06-03 00:00:00,王城,襄阳市,枣阳市,31.9519,112.9217,115.0,994.5,19.8,92,21.234892585109822,49.95149999999997
Q3240,2025-06-03 00:00:00,北城,襄阳市,枣阳市,32.1411,112.7553,125.5,993.6,23.0,73,20.50223544222502,31.31750000000001
Q3305,2025-06-03 00:00:00,老河口半店,襄阳市,老河口市,32.4536,111.7536,153.1,989.8,22.7,76,20.959936891290884,36.56949999999997
Q3309,2025-06-03 00:00:00,方营,襄阳市,老河口市,32.3367,111.7022,90.0,998.1,21.9,93,24.428682724243327,41.693500000000014
Q3311,2025-06-03 00:00:00,老河口黄营,襄阳市,老河口市,32.3472,111.6742,80.3,998.5,21.3,85,21.52200191608936,37.4175
Q3314,2025-06-03 00:00:00,农垦示范园,襄阳市,老河口市,32.4319,111.8458,148.3,990.9,23.0,71,19.94053036161612,36.11249999999997
Q3315,2025-06-03 00:00:00,老河口黑虎山水库,襄阳市,老河口市,32.5408,111.6622,163.3,989.0,23.0,72,20.22138290192057,25.341499999999986
Q3317,2025-06-03 00:00:00,古城水库,襄阳市,老河口市,32.5203,111.7786,145.2,991.1,23.5,72,20.84209425655479,39.56449999999997
Q3318,2025-06-03 00:00:00,老河口西关,襄阳市,老河口市,32.4217,111.6878,84.4,997.2,22.2,77,20.599538300865795,32.68749999999997
Q3321,2025-06-03 00:00:00,老河口老站,襄阳市,老河口市,32.38,111.67,90.0,997.9,22.5,76,20.706756817331385,38.90549999999997
Q3326,2025-06-03 00:00:00,白鹤岗,襄阳市,老河口市,32.2931,111.7247,89.0,998.1,22.5,77,20.979214143875215,37.313000000000045
Q3401,2025-06-03 00:00:00,五山,襄阳市,谷城县,32.2931,111.3314,180.0,988.8,19.5,90,20.38963362492288,37.18849999999995
Q3404,2025-06-03 00:00:00,谷城南河,襄阳市,谷城县,32.1678,111.4981,146.4,991.3,24.1,61,18.30756261795425,27.858999999999966
Q3405,2025-06-03 00:00:00,赵湾,襄阳市,谷城县,31.9917,111.4303,518.0,951.3,17.8,86,17.51623319740785,30.79550000000001
Q3409,2025-06-03 00:00:00,薤山,襄阳市,谷城县,32.1725,111.4061,701.7,930.3,22.2,54,14.44642945775004,19.483999999999995
Q3413,2025-06-03 00:00:00,茨河,襄阳市,谷城县,32.0483,111.8314,158.0,989.7,20.7,78,19.034107680116016,32.44199999999998
Q3420,2025-06-03 00:00:00,紫金,襄阳市,谷城县,32.1342,111.3078,247.7,978.1,21.8,68,17.753015442935602,31.718499999999977
Q3501,2025-06-03 00:00:00,寺坪,襄阳市,保康县,31.9906,111.1233,275.0,979.0,18.2,100,20.886837264075304,38.27779166666674
Q3516,2025-06-03 00:00:00,两峪,襄阳市,保康县,31.5581,111.3953,660.0,934.3,15.2,92,15.880292255113616,29.541000000000032
Q3517,2025-06-03 00:00:00,歇马毛家岭,襄阳市,保康县,31.6419,111.1967,796.0,919.5,19.1,56,12.374634945990204,15.83799999999999
Q3520,2025-06-03 00:00:00,保康天宝寨,襄阳市,保康县,31.4017,111.2936,997.0,899.1,16.9,68,13.083832207435062,22.628499999999995
Q3525,2025-06-03 00:00:00,马良产业园,襄阳市,保康县,31.4942,111.3539,292.0,976.4,16.4,100,18.63892485325232,44.60599999999995
Q3545,2025-06-03 00:00:00,尧治河,襄阳市,保康县,31.8447,110.8022,1576.0,841.3,15.8,63,11.301208689465286,24.067000000000007
Q3555,2025-06-03 00:00:00,团结,襄阳市,保康县,31.68,111.0128,1064.0,889.8,19.0,58,12.7368364756277,15.750000000000014
Q3606,2025-06-03 00:00:00,武镇,襄阳市,南漳县,31.6647,111.9922,120.0,994.4,19.0,100,21.96006288901328,50.21549999999996
Q3608,2025-06-03 00:00:00,东巩,襄阳市,南漳县,31.3292,111.8253,183.0,983.2,17.2,95,18.629764196246217,39.327499999999965
Q3617,2025-06-03 00:00:00,薛坪,襄阳市,南漳县,31.6231,111.6778,820.0,918.0,20.8,62,15.223188735123149,24.53450000000003
Q3618,2025-06-03 00:00:00,长坪,襄阳市,南漳县,31.7775,111.5617,254.0,981.8,19.5,86,19.48342768603742,33.39800000000002
Q3623,2025-06-03 00:00:00,南漳大坪,襄阳市,南漳县,31.5489,111.8342,343.2,968.9,19.1,94,20.771708659340696,36.298499999999954
Q3632,2025-06-03 00:00:00,赵店,襄阳市,南漳县,31.9058,111.6194,271.6,977.2,19.3,90,20.137347682643053,32.63099999999999
Q3641,2025-06-03 00:00:00,漫云,襄阳市,南漳县,31.4556,111.6847,342.0,968.6,16.7,89,16.90831570724866,26.2625
Q3748,2025-06-03 00:00:00,高楼,襄阳市,宜城市,31.6356,112.5942,141.0,991.8,21.7,81,21.01804673136291,41.27000000000002
Q3750,2025-06-03 00:00:00,孔湾,襄阳市,宜城市,31.5681,112.2661,55.0,1001.7,20.5,95,22.898308202337898,40.18899999999994
Q3751,2025-06-03 00:00:00,二库,襄阳市,宜城市,31.7467,112.4303,89.0,997.2,22.2,86,23.007276543824133,38.404
Q3752,2025-06-03 00:00:00,小南河,襄阳市,宜城市,31.4622,111.9878,177.5,987.6,20.1,96,22.574096447677185,47.91099999999999
Q3760,2025-06-03 00:00:00,刘猴,襄阳市,宜城市,31.4853,112.0169,159.0,990.4,19.0,93,20.42285848678235,32.58199999999994
Q3770,2025-06-03 00:00:00,谭湾,襄阳市,宜城市,31.7736,112.0389,94.0,996.6,20.7,94,22.9385400247552,51.59000000000002
Q3782,2025-06-03 00:00:00,联合,襄阳市,宜城市,31.8692,112.2653,86.0,997.7,20.2,94,22.24104626943965,31.584999999999912
Q3792,2025-06-03 00:00:00,流水,襄阳市,宜城市,31.5683,112.455,62.0,1001.4,20.5,92,22.175203732790383,39.197500000000005
Q3802,2025-06-03 00:00:00,殷店,随州市,随县,32.0808,113.5014,145.6,991.0,19.4,96,21.614022402714625,38.70050000000004
Q3803,2025-06-03 00:00:00,洪山,随州市,随县,31.6611,112.9072,154.4,990.2,20.2,92,21.76783251902604,40.48000000000002
Q3804,2025-06-03 00:00:00,柳林,随州市,随县,31.5336,113.2278,120.0,993.9,20.3,94,22.379036896847573,29.10350000000001
Q3805,2025-06-03 00:00:00,唐镇,随州市,随县,32.0003,113.105,127.7,993.6,19.2,98,21.79110084015412,49.975166666666674
Q3807,2025-06-03 00:00:00,厉山,随州市,随县,31.8839,113.3125,92.0,997.8,19.1,97,21.434635531447316,36.05937499999995
Q3809,2025-06-03 00:00:00,淮河,随州市,随县,32.3436,113.6333,153.8,989.7,19.1,98,21.655611155482852,51.313499999999976
Q3812,2025-06-03 00:00:00,万店,随州市,曾都区,31.8386,113.5169,115.0,994.4,19.5,91,20.61618510964425,38.20049999999991
Q3815,2025-06-03 00:00:00,澴潭,随州市,随县,31.8106,113.0514,115.3,994.6,18.8,99,21.47044245277617,37.41113333333337
Q3820,2025-06-03 00:00:00,吴山,随州市,随县,32.1531,113.0822,215.4,983.2,21.8,83,21.66912179064198,42.517499999999984
Q3823,2025-06-03 00:00:00,南郊,随州市,曾都区,31.7278,113.2831,64.1,1000.5,18.8,99,21.47044245277617,48.97100000000014
Q3829,2025-06-03 00:00:00,大堰坡,随州市,曾都区,31.61,113.4317,85.0,998.9,18.7,99,21.33654024364826,42.52016666666668
Q3830,2025-06-03 00:00:00,长岗,随州市,随县,31.53,112.9711,228.2,981.7,19.1,99,21.876586779518394,40.74000000000008
Q3831,2025-06-03 00:00:00,雷达站,随州市,曾都区,31.7164,113.3869,96.2,996.9,19.7,100,22.938544040474685,39.0795
Q3832,2025-06-03 00:00:00,府河,随州市,曾都区,31.4911,113.5678,65.8,1000.2,19.7,98,22.479773159665196,39.479166666666686
Q3836,2025-06-03 00:00:00,新城,随州市,随县,32.3561,113.1931,215.4,983.0,21.0,87,21.62614798995916,49.3195
Q3844,2025-06-03 00:00:00,东庄畈,随州市,随县,31.5131,113.0106,274.3,976.5,19.8,91,21.004078535271677,44.97350000000003
Q3845,2025-06-03 00:00:00,城南新区,随州市,曾都区,31.6922,113.3744,78.4,998.9,19.9,89,20.670291094999715,32.27799999999996
Q3847,2025-06-03 00:00:00,金顶,随州市,随县,31.4867,112.9781,1042.0,893.1,18.4,72,15.228525920754942,32.48699999999997
Q3852,2025-06-03 00:00:00,王家河,随州市,随县,31.9353,113.3081,122.2,993.9,19.1,100,22.097562403553933,40.148500000000034
Q3853,2025-06-03 00:00:00,银杏谷,随州市,曾都区,31.4347,113.2972,175.7,987.1,19.6,96,21.88460134569413,38.27150000000004
Q3854,2025-06-03 00:00:00,自在谷,随州市,随县,31.4703,112.9844,467.3,954.9,23.5,59,17.078938349121287,30.06799999999996
Q3855,2025-06-03 00:00:00,状元台,随州市,随县,31.4778,112.9647,981.1,900.1,18.7,78,16.810607464692566,32.093500000000006
Q3856,2025-06-03 00:00:00,北郊,随州市,曾都区,31.7839,113.3958,105.4,995.8,20.0,90,21.032524110657988,39.18800000000001
Q3857,2025-06-03 00:00:00,西城,随州市,曾都区,31.7206,113.3617,64.5,1000.5,20.5,87,20.970029616877863,37.122500000000045
Q3901,2025-06-03 00:00:00,余店,随州市,广水市,31.7872,113.6322,109.6,995.3,18.8,98,21.25356929668752,44.63499999999996
Q3902,2025-06-03 00:00:00,长岭,随州市,广水市,31.4711,113.5781,47.3,1002.2,19.6,99,22.568495137747068,49.35683333333337
Q3909,2025-06-03 00:00:00,蔡河,随州市,广水市,31.7264,113.8322,120.0,994.3,18.7,96,20.68997841808316,34.08750000000002
Q3911,2025-06-03 00:00:00,太平,随州市,广水市,31.4608,113.9217,46.4,1000.4,21.8,84,21.93019554715574,42.04050000000001
Q3913,2025-06-03 00:00:00,武胜关,随州市,广水市,31.7358,114.0353,100.0,995.4,18.0,99,20.419582093647964,44.975
Q3918,2025-06-03 00:00:00,应山,随州市,广水市,31.62,113.82,93.3,996.9,21.2,79,19.880390302251072,35.8245
Q3924,2025-06-03 00:00:00,尹家湾,随州市,广水市,32.0019,113.7164,203.6,984.5,18.2,98,20.4691005187938,41.59749999999998
Q4000,2025-06-03 00:00:00,葛洲坝,宜昌市,西陵区,30.7433,111.2694,67.8,1000.2,20.6,86,20.85731119105789,48.21100000000002
Q4001,2025-06-03 00:00:00,王家河公园,宜昌市,伍家岗区,30.6589,111.3303,56.3,1001.9,21.9,76,19.96322459185476,45.97200000000007
Q4002,2025-06-03 00:00:00,窑湾,宜昌市,西陵区,30.7186,111.3436,160.0,988.2,20.6,82,19.887203693799385,49.43000000000002
Q4003,2025-06-03 00:00:00,猇亭,宜昌市,猇亭区,30.5061,111.4444,42.6,1002.4,21.2,84,21.138642853026457,46.63850000000003
Q4005,2025-06-03 00:00:00,土城,宜昌市,点军区,30.6931,111.0022,615.0,938.9,18.7,84,18.103731115822765,25.9655
Q4015,2025-06-03 00:00:00,白龙岗公园,宜昌市,西陵区,30.7067,111.2972,116.6,993.1,21.1,80,20.008745589818663,48.43400000000005
Q4019,2025-06-03 00:00:00,艾家小学,宜昌市,点军区,30.6183,111.3422,87.0,997.9,20.8,84,20.624965383070077,46.972500000000046
Q4022,2025-06-03 00:00:00,猇亭古战场,宜昌市,猇亭区,30.5697,111.3964,78.5,998.9,20.0,92,21.49991353533928,51.39450000000001
Q4023,2025-06-03 00:00:00,长岭,宜昌市,点军区,30.6519,111.205,100.0,996.5,19.7,92,21.103460517236712,50.02500000000002
Q4025,2025-06-03 00:00:00,鸣翠谷,宜昌市,点军区,30.7389,111.2333,98.8,996.6,20.3,92,21.902887175638053,37.64749999999998
Q4026,2025-06-03 00:00:00,沙河公园,宜昌市,西陵区,30.7417,111.3144,86.3,998.2,20.7,83,20.25424278781576,48.0545
Q4032,2025-06-03 00:00:00,宜昌一中,宜昌市,点军区,30.7086,111.2361,78.9,998.9,19.8,89,20.54245043559537,48.82550000000008
Q4033,2025-06-03 00:00:00,水井湾,宜昌市,伍家岗区,30.6853,111.3367,84.3,998.3,19.8,98,22.619776884138723,50.2985000000001
Q4034,2025-06-03 00:00:00,龙盘湖,宜昌市,伍家岗区,30.6161,111.4,62.5,1000.8,19.6,99,22.568495137747068,54.79150000000007
Q4035,2025-06-03 00:00:00,碧桂园公园,宜昌市,伍家岗区,30.6478,111.3658,88.6,997.7,21.1,88,22.00962014880053,39.99799999999996
Q4036,2025-06-03 00:00:00,夷陵中学,宜昌市,夷陵区,30.6967,111.3817,113.0,994.9,20.4,85,20.361820631672177,26.110999999999983
Q4037,2025-06-03 00:00:00,李家咀,宜昌市,点军区,30.7214,111.1625,389.1,963.8,19.8,83,19.15756613656647,29.444499999999945
Q4105,2025-06-03 00:00:00,太平溪,宜昌市,夷陵区,30.8789,110.9697,215.0,984.1,19.6,92,20.972742956290205,45.49300000000001
Q4109,2025-06-03 00:00:00,樟村坪林场,宜昌市,夷陵区,31.2667,111.15,1162.0,883.5,14.4,88,14.426050683161742,24.6415
Q4111,2025-06-03 00:00:00,鸦鹊岭,宜昌市,夷陵区,30.6117,111.5211,109.2,995.4,20.5,80,19.282785854600338,27.501500000000007
Q4112,2025-06-03 00:00:00,王家垭,宜昌市,夷陵区,30.9667,110.9878,990.0,899.8,19.2,52,11.562624935591984,21.55299999999996
Q4113,2025-06-03 00:00:00,古村坪,宜昌市,夷陵区,30.9228,110.9672,855.0,913.5,17.5,84,16.788108017539734,33.81400000000004
Q4115,2025-06-03 00:00:00,百里荒,宜昌市,夷陵区,30.96,111.5114,1251.8,871.7,19.4,47,10.581865134662369,16.298000000000034
Q4120,2025-06-03 00:00:00,秀水,宜昌市,夷陵区,31.1456,111.0747,1068.2,891.4,15.6,87,15.4078120275284,34.678500000000014
Q4127,2025-06-03 00:00:00,十字沟,宜昌市,夷陵区,31.0511,111.4406,402.0,962.7,18.8,88,19.08483773580104,30.131500000000013
Q4131,2025-06-03 00:00:00,二户坪,宜昌市,夷陵区,31.0117,111.3114,945.0,905.4,19.7,44,10.092959377808862,16.567999999999994
Q4140,2025-06-03 00:00:00,三峡大瀑布,宜昌市,夷陵区,30.9325,111.3158,169.1,986.8,18.3,99,20.808235898159182,29.736999999999984
Q4146,2025-06-03 00:00:00,沙坪,宜昌市,夷陵区,30.9192,111.0428,403.0,963.0,18.9,87,18.98628415860313,36.15850000000002
Q4148,2025-06-03 00:00:00,黄金河,宜昌市,夷陵区,31.0078,110.9369,705.9,929.6,18.3,80,16.814736079320557,37.02000000000008
Q4150,2025-06-03 00:00:00,古村,宜昌市,夷陵区,31.4353,111.2158,1098.9,888.6,15.5,91,16.01321653763577,28.9785
Q4153,2025-06-03 00:00:00,马卧泥,宜昌市,夷陵区,31.2117,111.2406,1073.1,890.9,20.0,50,11.684735617032215,23.841999999999988
Q4154,2025-06-03 00:00:00,青龙,宜昌市,夷陵区,30.7428,111.5075,108.8,995.5,18.7,91,19.612375375474663,35.5205
Q4201,2025-06-03 00:00:00,傅家堰,宜昌市,五峰土家族自治县,30.3053,110.4817,705.3,929.7,16.7,90,17.098296782611005,32.75350000000004
Q4202,2025-06-03 00:00:00,长乐坪,宜昌市,五峰土家族自治县,30.1778,110.8722,1004.1,898.6,16.0,89,16.17068450361068,29.15400000000001
Q4203,2025-06-03 00:00:00,湾潭,宜昌市,五峰土家族自治县,30.0528,110.4344,1139.2,882.9,14.3,87,14.170119778641748,28.55599999999998
Q4204,2025-06-03 00:00:00,仁和坪,宜昌市,五峰土家族自治县,30.1022,111.2453,591.9,941.7,19.3,81,18.12361291437875,26.657499999999995
Q4205,2025-06-03 00:00:00,牛庄,宜昌市,五峰土家族自治县,30.2381,110.3611,1830.5,815.6,14.2,47,7.6057042296689135,13.004500000000002
Q4206,2025-06-03 00:00:00,采花,宜昌市,五峰土家族自治县,30.2056,110.445,506.8,953.1,17.2,92,18.041455853206863,35.78999999999999
Q4207,2025-06-03 00:00:00,渔关,宜昌市,五峰土家族自治县,30.1831,111.075,255.1,978.9,18.9,89,19.422750461099756,27.772000000000045
Q4208,2025-06-03 00:00:00,清水湾,宜昌市,五峰土家族自治县,30.0797,110.9669,853.1,913.2,17.4,82,16.28516591897536,32.0885
Q4209,2025-06-03 00:00:00,后河,宜昌市,五峰土家族自治县,30.0789,110.6214,952.7,904.4,14.4,98,16.065374624430124,29.883999999999997
Q4210,2025-06-03 00:00:00,水浕司,宜昌市,五峰土家族自治县,30.2494,110.6283,564.8,946.3,17.1,94,18.31728708954992,26.4515
Q4213,2025-06-03 00:00:00,北风垭,宜昌市,五峰土家族自治县,30.14,110.5681,2213.7,779.4,11.2,50,6.646664276743788,16.421000000000024
Q4214,2025-06-03 00:00:00,涨水坪,宜昌市,五峰土家族自治县,30.2553,111.02,737.6,926.4,16.0,99,17.987615346713007,32.90099999999998
Q4215,2025-06-03 00:00:00,三教庙,宜昌市,五峰土家族自治县,30.2011,110.9022,1031.0,894.6,15.0,98,16.699684647190317,33.389499999999984
Q4218,2025-06-03 00:00:00,大龙坪,宜昌市,五峰土家族自治县,30.3589,110.4706,1157.3,883.3,13.1,96,14.46200417887063,31.02799999999996
Q4238,2025-06-03 00:00:00,万里,宜昌市,五峰土家族自治县,30.1997,110.4069,1174.1,881.2,15.8,84,15.06827825262038,23.650499999999997
Q4249,2025-06-03 00:00:00,柴埠溪,宜昌市,五峰土家族自治县,30.2219,110.8947,1259.0,872.6,15.7,81,14.43740448352546,25.289499999999997
Q4252,2025-06-03 00:00:00,万马池,宜昌市,五峰土家族自治县,30.2056,110.665,619.4,940.3,16.5,95,17.82008411147864,30.514999999999983
Q4309,2025-06-03 00:00:00,胡家畈,宜昌市,枝江市,30.5808,111.6733,125.7,992.8,20.2,88,20.82140501819882,50.78849999999999
Q4321,2025-06-03 00:00:00,雅畈,宜昌市,枝江市,30.3967,111.5886,68.0,1000.2,20.9,93,22.97581309340281,39.63300000000002
Q4323,2025-06-03 00:00:00,马家店,宜昌市,枝江市,30.43,111.7592,44.5,1002.9,21.9,75,19.7005505840672,42.33049999999999
Q4325,2025-06-03 00:00:00,万福垴,宜昌市,枝江市,30.4386,111.4522,55.9,1001.6,20.8,88,21.60710659178769,48.60250000000002
Q4326,2025-06-03 00:00:00,田家河,宜昌市,枝江市,30.3369,111.5311,57.0,1001.5,20.4,100,23.95508309608492,44.89350000000004
Q4327,2025-06-03 00:00:00,姚家港工业园,宜昌市,枝江市,30.4011,111.6131,87.7,997.9,21.2,83,20.88699234287138,34.492000000000054
Q4401,2025-06-03 00:00:00,社坪,宜昌市,长阳土家族自治县,30.63,110.5428,506.0,952.6,15.8,98,17.579657961390442,34.86949999999998
Q4403,2025-06-03 00:00:00,渔峡口,宜昌市,长阳土家族自治县,30.4286,110.4992,380.0,968.0,18.2,88,18.380416792386267,26.15150000000002
Q4404,2025-06-03 00:00:00,高家堰,宜昌市,长阳土家族自治县,30.6069,111.0583,167.0,989.1,18.4,95,20.09319392321833,40.80900000000006
Q4406,2025-06-03 00:00:00,大堰,宜昌市,长阳土家族自治县,30.3353,111.0731,631.0,937.6,16.5,98,18.38282360973586,30.049499999999984
Q4411,2025-06-03 00:00:00,横山,宜昌市,长阳土家族自治县,30.3692,110.9569,473.0,954.9,17.7,95,19.22773100014628,30.696
Q4415,2025-06-03 00:00:00,火烧坪,宜昌市,长阳土家族自治县,30.4944,110.7997,1546.9,843.5,13.9,69,10.950639207586974,22.73500000000001
Q4425,2025-06-03 00:00:00,榔坪,宜昌市,长阳土家族自治县,30.6219,110.4972,490.0,956.7,16.1,98,17.920011738099348,33.46349999999998
Q4437,2025-06-03 00:00:00,中岭,宜昌市,长阳土家族自治县,30.6211,110.8139,1055.0,893.2,15.6,91,16.11621717821936,28.329500000000003
Q4441,2025-06-03 00:00:00,龙池山,宜昌市,长阳土家族自治县,30.5814,111.0614,680.0,931.7,19.2,68,15.120355685004904,25.137
Q4443,2025-06-03 00:00:00,清江画廊,宜昌市,长阳土家族自治县,30.4703,111.1336,190.3,986.6,18.5,92,19.58106998846665,38.02799999999995
Q4446,2025-06-03 00:00:00,三洞水,宜昌市,长阳土家族自治县,30.3936,111.1128,220.0,985.1,19.8,87,20.08082233591907,40.444
Q4447,2025-06-03 00:00:00,都镇湾,宜昌市,长阳土家族自治县,30.4117,110.97,290.0,977.0,18.2,96,20.05136377351229,34.5095
Q4453,2025-06-03 00:00:00,崩尖子,宜昌市,长阳土家族自治县,30.3731,110.7244,283.3,977.3,17.6,97,19.509055068795323,32.039500000000004
Q4510,2025-06-03 00:00:00,九道河,宜昌市,宜都市,30.1967,111.4717,199.8,985.2,20.8,75,18.415147663455414,30.82233333333329
Q4519,2025-06-03 00:00:00,陆城,宜昌市,宜都市,30.3839,111.4547,74.1,999.7,21.5,80,20.505933312279588,33.094499999999975
Q4604,2025-06-03 00:00:00,草埠湖,宜昌市,当阳市,30.5725,111.9686,74.0,1001.2,20.5,91,21.934168909607884,44.32249999999999
Q4606,2025-06-03 00:00:00,王店,宜昌市,当阳市,30.7075,111.675,158.6,989.3,19.6,91,20.744778358939225,39.19799999999998
Q4610,2025-06-03 00:00:00,红旗岗,宜昌市,当阳市,31.0844,111.9219,102.3,993.7,19.6,84,19.14902617748236,33.626000000000005
Q4611,2025-06-03 00:00:00,淯溪光明,宜昌市,当阳市,30.9275,111.9269,58.0,1001.4,19.5,94,21.295839563808343,49.49745000000003
Q4612,2025-06-03 00:00:00,向家草坝,宜昌市,当阳市,30.9167,111.685,96.0,996.8,19.3,93,20.808592605397823,31.610499999999952
Q4614,2025-06-03 00:00:00,长坂雄风,宜昌市,当阳市,30.8369,111.7611,70.0,999.9,20.2,83,19.6383706421648,34.028999999999975
Q4701,2025-06-03 00:00:00,嫘祖,宜昌市,远安县,31.1906,111.4081,553.8,945.9,16.4,85,15.843086125264472,30.98250000000001
Q4708,2025-06-03 00:00:00,茅坪场,宜昌市,远安县,31.1481,111.6794,179.8,986.8,18.9,87,18.98628415860313,32.42350000000001
Q4709,2025-06-03 00:00:00,洋坪,宜昌市,远安县,31.2208,111.5594,152.4,991.1,18.5,91,19.36823227120071,32.55700000000001
Q4710,2025-06-03 00:00:00,晓坪水库,宜昌市,远安县,31.1881,111.7553,391.9,963.3,17.9,95,19.47159879675177,36.42400000000001
Q4718,2025-06-03 00:00:00,芭芒店,宜昌市,远安县,31.2361,111.5361,186.0,984.8,19.1,92,20.329757411269615,39.909000000000034
Q4729,2025-06-03 00:00:00,龙凤,宜昌市,远安县,30.9167,111.5608,723.5,924.5,19.0,72,15.81124528008956,31.08750000000001
Q4801,2025-06-03 00:00:00,高桥,宜昌市,兴山县,31.2092,110.53,992.5,899.8,15.8,80,14.35074119297179,26.10349999999999
Q4802,2025-06-03 00:00:00,昭君,宜昌市,兴山县,31.2261,110.7697,286.0,978.1,18.6,83,17.776564324540832,35.06599999999996
Q4804,2025-06-03 00:00:00,峡口,宜昌市,兴山县,31.1192,110.7786,266.0,981.3,19.5,88,19.93653065548015,33.849000000000025
Q4806,2025-06-03 00:00:00,榛子,宜昌市,兴山县,31.5008,111.0083,1281.0,870.0,12.4,88,12.66251137985089,21.62550000000001
Q4808,2025-06-03 00:00:00,南对河,宜昌市,兴山县,31.1778,111.0017,644.1,938.1,15.4,96,16.78501490666256,37.02699999999998
Q4818,2025-06-03 00:00:00,观音河,宜昌市,兴山县,31.5183,110.8078,498.7,957.1,16.6,89,16.801161696326474,34.68649999999996
Q4837,2025-06-03 00:00:00,和平,宜昌市,兴山县,31.4728,110.9975,1301.6,869.0,11.3,100,13.381754831564797,24.435999999999986
Q4901,2025-06-03 00:00:00,彭家坡,宜昌市,秭归县,31.0306,110.6972,190.3,987.5,19.8,89,20.54245043559537,50.328499999999984
Q4902,2025-06-03 00:00:00,郭家坝,宜昌市,秭归县,30.9564,110.7569,351.0,971.2,18.8,94,20.386076672332926,42.54550000000004
Q4903,2025-06-03 00:00:00,两河口,宜昌市,秭归县,30.8722,110.5756,620.5,940.1,17.3,90,17.76129414956534,28.646000000000026
Q4905,2025-06-03 00:00:00,杨林桥,宜昌市,秭归县,30.7458,110.7553,421.8,962.8,16.7,100,18.99810753623445,31.35450000000002
Q4909,2025-06-03 00:00:00,沙镇溪,宜昌市,秭归县,30.9614,110.6022,420.0,962.8,17.7,92,18.620539494878503,40.67749999999998
Q4911,2025-06-03 00:00:00,九畹溪,宜昌市,秭归县,30.8442,110.7836,499.0,954.0,16.8,98,18.736796182546502,43.999
Q4918,2025-06-03 00:00:00,金缸城,宜昌市,秭归县,30.8361,110.9464,547.7,946.6,17.8,100,20.367713020241688,42.06999999999999
Q4920,2025-06-03 00:00:00,烟墩堡,宜昌市,秭归县,30.9039,110.7792,918.0,907.9,15.7,100,17.823956152500564,41.03499999999996
Q4921,2025-06-03 00:00:00,芝兰,宜昌市,秭归县,30.7814,110.7939,271.1,979.4,17.2,96,18.82586697725933,32.718000000000075
Q4932,2025-06-03 00:00:00,九岭头,宜昌市,秭归县,30.9803,110.8039,1385.0,859.9,13.7,100,15.665537368825712,37.99149999999998
Q4941,2025-06-03 00:00:00,高潮,宜昌市,秭归县,30.9881,110.4783,753.0,927.3,16.9,98,18.85611112247994,41.0029999999999
Q4945,2025-06-03 00:00:00,七甲,宜昌市,秭归县,30.7944,110.4961,1330.0,865.6,14.5,97,16.004600941210903,30.58900000000005
Q4950,2025-06-03 00:00:00,雁落坪,宜昌市,秭归县,30.8117,110.3497,985.0,900.8,15.6,93,16.47041975356484,26.217500000000037
Q4957,2025-06-03 00:00:00,三台寺,宜昌市,秭归县,30.6814,110.7139,1085.0,891.4,15.7,83,14.79388360657547,20.122000000000025
Q4962,2025-06-03 00:00:00,吴家沟,宜昌市,秭归县,30.9811,110.7606,209.2,984.5,19.8,90,20.77326448543352,43.03450000000001
Q5102,2025-06-03 00:00:00,白杨坪,恩施土家族苗族自治州,恩施市,30.4808,109.5828,638.9,938.3,17.4,100,19.85995843777483,36.82199999999992
Q5106,2025-06-03 00:00:00,三岔,恩施土家族苗族自治州,恩施市,30.2978,109.6278,1054.7,893.8,15.6,99,17.53302747960128,36.92300000000001
Q5109,2025-06-03 00:00:00,芭蕉,恩施土家族苗族自治州,恩施市,30.1222,109.3956,599.8,942.4,18.4,95,20.09319392321833,47.45949999999999
Q5116,2025-06-03 00:00:00,金龙坝,恩施土家族苗族自治州,恩施市,30.0906,109.1692,881.0,913.2,16.6,94,17.745047184884143,35.37599999999997
Q5122,2025-06-03 00:00:00,望城坡,恩施土家族苗族自治州,恩施市,30.3303,109.4231,1113.0,887.8,15.2,92,15.880292255113616,33.84199999999996
Q5133,2025-06-03 00:00:00,小卫家山,恩施土家族苗族自治州,恩施市,30.3539,109.6558,1312.4,867.9,14.8,99,16.654065400206427,36.547500000000014
Q5135,2025-06-03 00:00:00,神堂,恩施土家族苗族自治州,恩施市,30.3583,109.8217,1567.0,842.1,14.7,72,12.03415925300098,24.656999999999957
Q5150,2025-06-03 00:00:00,大峡谷顶,恩施土家族苗族自治州,恩施市,30.4167,109.1628,1615.0,835.2,13.9,62,9.839704795223078,10.778499999999998
Q5153,2025-06-03 00:00:00,马者滑坡点,恩施土家族苗族自治州,恩施市,30.3733,109.3019,946.0,906.5,16.6,88,16.612384598614945,36.530000000000015
Q5206,2025-06-03 00:00:00,宜影古镇,恩施土家族苗族自治州,利川市,30.3353,109.1053,1025.3,898.2,15.2,98,16.91596348914276,31.72649999999999
Q5207,2025-06-03 00:00:00,元堡,恩施土家族苗族自治州,利川市,30.2233,109.0339,1088.3,888.9,15.0,97,16.52927970181082,30.952000000000016
Q5208,2025-06-03 00:00:00,黄泥塘,恩施土家族苗族自治州,利川市,30.0775,108.8592,1469.7,856.6,13.2,97,14.708413813276854,26.73750000000004
Q5209,2025-06-03 00:00:00,龙桥,恩施土家族苗族自治州,利川市,29.9294,108.7097,474.0,956.0,18.4,98,20.72771583658312,39.438
Q5210,2025-06-03 00:00:00,福宝山,恩施土家族苗族自治州,利川市,30.2089,108.7014,1479.9,849.5,14.3,99,16.124619058454403,29.98150000000006
Q5211,2025-06-03 00:00:00,建南,恩施土家族苗族自治州,利川市,30.4353,108.5392,676.0,934.4,17.4,96,19.065560100263838,38.048000000000044
Q5214,2025-06-03 00:00:00,南坪,恩施土家族苗族自治州,利川市,30.43,108.7925,1129.0,886.3,15.4,97,16.959858811940297,31.977500000000013
Q5222,2025-06-03 00:00:00,凉雾,恩施土家族苗族自治州,利川市,30.2664,108.805,1092.5,888.6,15.5,97,17.06903301264472,39.94200000000008
Q5226,2025-06-03 00:00:00,利川团堡,恩施土家族苗族自治州,利川市,30.3353,109.1494,986.8,900.7,15.7,96,17.11099790640054,35.451000000000064
Q5241,2025-06-03 00:00:00,小河,恩施土家族苗族自治州,利川市,30.0786,108.6025,1074.0,892.6,15.4,97,16.959858811940297,25.8255
Q5249,2025-06-03 00:00:00,铁峰,恩施土家族苗族自治州,利川市,30.4533,108.6578,1558.5,842.0,13.4,100,15.362475112897163,31.618999999999986
Q5250,2025-06-03 00:00:00,药材,恩施土家族苗族自治州,利川市,30.4922,108.7469,1406.0,855.9,14.0,100,15.97385113092459,35.24863214285716
Q5301,2025-06-03 00:00:00,黄金洞,恩施土家族苗族自治州,咸丰县,29.9539,109.0781,788.1,921.0,17.0,99,19.16972697899961,43.17200000000008
Q5307,2025-06-03 00:00:00,朝阳寺,恩施土家族苗族自治州,咸丰县,29.6125,108.9175,468.0,956.9,19.2,97,21.568742668315814,43.84049999999999
Q5309,2025-06-03 00:00:00,坪坝营,恩施土家族苗族自治州,咸丰县,29.3997,108.9803,1268.8,871.5,15.0,100,17.0404945379493,31.514766666666656
Q5310,2025-06-03 00:00:00,茅坝,恩施土家族苗族自治州,咸丰县,29.7658,108.8233,723.6,929.1,17.2,98,19.21807253928557,42.81849999999999
Q5326,2025-06-03 00:00:00,李子溪,恩施土家族苗族自治州,咸丰县,29.8839,108.9089,832.0,917.9,17.2,100,19.61027810131181,36.97725000000001
Q5327,2025-06-03 00:00:00,中心场,恩施土家族苗族自治州,咸丰县,29.9194,108.9083,847.0,916.2,16.9,99,19.048520419648103,35.74100000000004
Q5330,2025-06-03 00:00:00,八家台,恩施土家族苗族自治州,咸丰县,29.8736,108.8114,869.0,911.3,16.7,97,18.428164310147416,35.01099999999999
Q5338,2025-06-03 00:00:00,柏杨坪,恩施土家族苗族自治州,咸丰县,29.8175,109.0397,872.4,910.3,17.2,98,19.21807253928557,37.23900000000001
Q5409,2025-06-03 00:00:00,翔凤,恩施土家族苗族自治州,来凤县,29.4669,109.4019,458.0,957.7,19.7,95,21.79161683845095,44.43099999999997
Q5421,2025-06-03 00:00:00,兴隆坳,恩施土家族苗族自治州,来凤县,29.3261,109.2883,602.0,939.7,18.4,97,20.516208532128186,40.91349999999993
Q5422,2025-06-03 00:00:00,沙坝水库,恩施土家族苗族自治州,来凤县,29.4094,109.3228,512.0,951.2,19.1,97,21.434635531447316,45.49599999999997
Q5508,2025-06-03 00:00:00,沙道,恩施土家族苗族自治州,宣恩县,29.6986,109.5653,589.0,942.7,18.9,92,20.07744991484469,39.73650000000002
Q5509,2025-06-03 00:00:00,椿木营,恩施土家族苗族自治州,宣恩县,30.0575,109.8269,1681.0,830.4,12.7,94,13.794803966483418,31.45987499999999
Q5515,2025-06-03 00:00:00,中间河,恩施土家族苗族自治州,宣恩县,30.1294,109.6347,664.8,935.0,17.8,95,19.3493273692296,36.097000000000016
Q5516,2025-06-03 00:00:00,长潭北,恩施土家族苗族自治州,宣恩县,30.0081,109.5883,490.9,953.9,19.2,94,20.90166815280089,33.49549999999998
Q5517,2025-06-03 00:00:00,荆竹坪,恩施土家族苗族自治州,宣恩县,29.96,109.3461,1134.7,885.2,15.8,99,17.75904222630259,34.69399999999999
Q5530,2025-06-03 00:00:00,洗草坝,恩施土家族苗族自治州,宣恩县,29.9867,109.3608,743.4,926.8,17.0,96,18.588826161454165,33.97650000000001
Q5532,2025-06-03 00:00:00,金盆村,恩施土家族苗族自治州,宣恩县,29.8356,109.6717,655.8,936.1,17.9,91,18.6517420053096,37.06299999999994
Q5539,2025-06-03 00:00:00,竹园,恩施土家族苗族自治州,宣恩县,29.9019,109.26,1180.2,880.9,15.2,99,17.088575361480952,35.484500000000104
Q5543,2025-06-03 00:00:00,彭家寨,恩施土家族苗族自治州,宣恩县,29.6717,109.6153,582.9,942.9,18.2,93,19.424758655590036,39.39199999999999
Q5601,2025-06-03 00:00:00,江坪河,恩施土家族苗族自治州,鹤峰县,29.7383,110.3472,467.0,955.5,19.5,97,21.97549401797244,42.48625000000002
Q5603,2025-06-03 00:00:00,蛤蟆颈,恩施土家族苗族自治州,鹤峰县,30.0658,110.2706,1382.0,858.3,13.6,96,14.941379444712291,29.013500000000025
Q5605,2025-06-03 00:00:00,清湖,恩施土家族苗族自治州,鹤峰县,30.0139,110.2697,1300.0,866.3,14.5,90,14.84962973926785,25.728
Q5610,2025-06-03 00:00:00,五里,恩施土家族苗族自治州,鹤峰县,29.8969,110.3406,1142.0,884.9,15.7,93,16.576279221825526,29.545
Q5620,2025-06-03 00:00:00,堰塘,恩施土家族苗族自治州,鹤峰县,29.8628,109.8564,1175.0,880.9,15.0,97,16.52927970181082,27.504499999999982
Q5621,2025-06-03 00:00:00,云蒙,恩施土家族苗族自治州,鹤峰县,30.0564,110.0675,1011.3,897.7,15.4,99,17.309546622495766,35.65305000000001
Q5626,2025-06-03 00:00:00,龚家垭,恩施土家族苗族自治州,鹤峰县,30.1083,110.1294,1215.7,877.0,14.1,100,16.07780277181553,30.32750000000004
Q5628,2025-06-03 00:00:00,马家,恩施土家族苗族自治州,鹤峰县,29.7681,110.5636,509.0,949.5,18.7,95,20.47445780956146,40.86853333333332
Q5629,2025-06-03 00:00:00,细杉,恩施土家族苗族自治州,鹤峰县,29.8014,110.6133,673.7,932.9,18.3,93,19.547130692210143,37.59549999999996
Q5630,2025-06-03 00:00:00,堰垭,恩施土家族苗族自治州,鹤峰县,29.7203,110.2667,912.3,907.7,17.2,93,18.237558634219983,36.083999999999925
Q5632,2025-06-03 00:00:00,上六峰,恩施土家族苗族自治州,鹤峰县,29.9206,110.4636,1194.0,878.7,14.7,91,15.209840166987348,25.9655
Q5633,2025-06-03 00:00:00,中坪,恩施土家族苗族自治州,鹤峰县,29.9917,110.4858,1137.0,882.5,14.4,94,15.40964504792277,25.434
Q5634,2025-06-03 00:00:00,水泉,恩施土家族苗族自治州,鹤峰县,29.9133,110.2561,606.5,940.8,18.7,94,20.25893720103976,40.820999999999984
Q5706,2025-06-03 00:00:00,溪丘湾,恩施土家族苗族自治州,巴东县,31.1572,110.4386,741.0,926.4,16.5,100,18.757983275240672,39.42300000000002
Q5707,2025-06-03 00:00:00,大支坪,恩施土家族苗族自治州,巴东县,30.6875,110.1708,1411.0,856.9,14.4,82,13.442456318400712,27.017500000000013
Q5708,2025-06-03 00:00:00,朱砂土,恩施土家族苗族自治州,巴东县,30.8936,110.3064,1166.0,880.4,15.4,93,16.26048319082936,25.6215
Q5709,2025-06-03 00:00:00,玉米塘,恩施土家族苗族自治州,巴东县,30.6925,110.2486,1570.6,839.1,15.4,49,8.567351358609017,16.167500000000008
Q5710,2025-06-03 00:00:00,茅山岭,恩施土家族苗族自治州,巴东县,31.2233,110.2003,942.7,903.6,15.6,100,17.71012876727402,31.848391666666725
Q5712,2025-06-03 00:00:00,税家,恩施土家族苗族自治州,巴东县,30.9331,110.2219,1150.3,884.0,15.3,93,16.156400391077693,26.80599999999998
Q5720,2025-06-03 00:00:00,高家坡,恩施土家族苗族自治州,巴东县,31.1225,110.4797,735.0,927.6,16.8,98,18.736796182546502,40.011499999999984
Q5730,2025-06-03 00:00:00,麻沙坪,恩施土家族苗族自治州,巴东县,30.7125,110.4111,1234.0,873.7,15.2,87,15.017232893422657,32.32949999999993
Q5732,2025-06-03 00:00:00,庙坪,恩施土家族苗族自治州,巴东县,30.6672,110.2142,1261.9,871.0,14.2,89,14.402290988096452,26.9965
Q5736,2025-06-03 00:00:00,倒卜龙,恩施土家族苗族自治州,巴东县,30.4069,110.1308,950.0,903.6,15.9,95,17.150865736826756,34.89700000000001
Q5751,2025-06-03 00:00:00,绿葱坡滑雪场,恩施土家族苗族自治州,巴东县,30.8117,110.2419,1663.0,831.0,13.7,73,11.435842279242769,22.533999999999992
Q5802,2025-06-03 00:00:00,茅田,恩施土家族苗族自治州,建始县,30.8097,109.8839,1364.3,861.3,13.3,98,14.957355921431356,29.21600000000004
Q5804,2025-06-03 00:00:00,高坪,恩施土家族苗族自治州,建始县,30.5989,110.0597,1239.1,871.2,13.9,99,15.711786689146528,31.530500000000004
Q5819,2025-06-03 00:00:00,封竹,恩施土家族苗族自治州,建始县,30.8222,109.9811,1731.3,825.0,11.8,72,9.958831427168295,15.150500000000012
Q5823,2025-06-03 00:00:00,石垭子,恩施土家族苗族自治州,建始县,30.6128,110.0208,777.3,922.4,15.9,91,16.428724021591947,25.33800000000002
Q5824,2025-06-03 00:00:00,落水洞,恩施土家族苗族自治州,建始县,30.5825,109.9603,917.0,906.5,15.9,94,16.970330308018053,34.950500000000005
Q5827,2025-06-03 00:00:00,冷竹,恩施土家族苗族自治州,建始县,30.5347,109.9972,1227.8,874.4,13.0,99,14.8167644314226,28.297500000000017
Q5829,2025-06-03 00:00:00,粟谷坝,恩施土家族苗族自治州,建始县,30.3572,110.0744,754.5,923.7,16.3,93,17.224094129729487,34.48450000000003
Q5831,2025-06-03 00:00:00,竹园坝,恩施土家族苗族自治州,建始县,30.2125,109.9622,1551.0,842.9,14.3,90,14.65874459859491,25.287500000000005
Q5836,2025-06-03 00:00:00,野三河景区,恩施土家族苗族自治州,建始县,30.6983,110.0806,896.7,911.0,14.8,93,15.64472810322422,28.14150000000003
Q6080,2025-06-03 00:00:00,掇刀,荆门市,掇刀区,30.975,112.2028,108.5,994.8,21.8,82,21.40804803412822,42.648500000000034
Q6082,2025-06-03 00:00:00,麻城,荆门市,掇刀区,30.9114,112.2447,85.0,998.0,20.8,92,22.58924780050532,41.71400000000007
Q6083,2025-06-03 00:00:00,樊桥,荆门市,掇刀区,30.7958,112.2522,82.0,998.5,21.4,94,23.947242148059395,48.02200000000004
Q6084,2025-06-03 00:00:00,凤凰,荆门市,掇刀区,30.9525,112.1789,106.0,995.4,21.7,86,22.315457023422347,40.538000000000046
Q6085,2025-06-03 00:00:00,龙泉,荆门市,掇刀区,30.8675,112.0964,97.5,996.4,21.3,89,22.534802006258275,37.771
Q6086,2025-06-03 00:00:00,仙女,荆门市,掇刀区,31.0422,112.1217,190.0,986.0,21.3,85,21.52200191608936,39.56600000000005
Q6111,2025-06-03 00:00:00,后港,荆门市,沙洋县,30.5242,112.3883,31.2,1004.2,21.3,90,22.788002028800506,49.94550000000001
Q6113,2025-06-03 00:00:00,高阳,荆门市,沙洋县,30.7592,112.46,65.0,1000.4,21.5,91,23.325499142718037,43.754500000000014
Q6114,2025-06-03 00:00:00,五里,荆门市,沙洋县,30.7297,112.2397,67.0,1000.2,20.9,96,23.716968354480315,46.544500000000106
Q6115,2025-06-03 00:00:00,十里,荆门市,沙洋县,30.6244,112.1758,56.2,1001.3,20.8,99,24.30799491576116,41.93850000000008
Q6117,2025-06-03 00:00:00,拾回桥,荆门市,沙洋县,30.5508,112.275,36.5,1003.8,21.1,93,23.260166748164192,47.36399999999997
Q6118,2025-06-03 00:00:00,曾集,荆门市,沙洋县,30.7172,112.3717,71.0,999.7,21.2,93,23.40349744442215,42.20699999999999
Q6122,2025-06-03 00:00:00,雷集,荆门市,掇刀区,30.8122,112.2886,104.0,995.7,21.3,94,23.80080211896941,46.25450000000004
Q6125,2025-06-03 00:00:00,双堰,荆门市,沙洋县,30.8186,112.4253,60.1,1001.0,21.5,88,22.556526643507546,47.448
Q6128,2025-06-03 00:00:00,港口,荆门市,沙洋县,30.4275,112.3442,40.0,1003.3,21.8,89,23.235564329724536,47.91800000000006
Q6129,2025-06-03 00:00:00,姚集,荆门市,沙洋县,30.8017,112.6122,40.0,1003.2,22.0,87,22.99260805802451,48.09000000000002
Q6160,2025-06-03 00:00:00,石桥驿,荆门市,东宝区,31.2861,112.1533,98.0,996.6,19.9,92,21.367042480224427,43.52750000000002
Q6162,2025-06-03 00:00:00,仙居,荆门市,东宝区,31.3903,112.0286,129.0,993.0,19.5,96,21.74894253325107,45.02449999999995
Q6163,2025-06-03 00:00:00,马河,荆门市,东宝区,31.1444,111.935,134.0,992.6,18.7,91,19.612375375474663,49.69649999999993
Q6164,2025-06-03 00:00:00,栗溪,荆门市,东宝区,31.2678,111.9847,231.2,981.3,17.1,99,19.29161087090896,40.15300000000005
Q6167,2025-06-03 00:00:00,观音寺,荆门市,东宝区,31.0697,111.925,129.0,992.6,19.2,88,19.56751912177105,33.67600000000004
Q6168,2025-06-03 00:00:00,东宝,荆门市,东宝区,31.0633,112.2033,110.0,995.1,21.5,100,25.632416640349483,47.30750000000002
Q6169,2025-06-03 00:00:00,岩垱,荆门市,东宝区,31.2031,112.1422,112.5,995.0,19.7,92,21.103460517236712,48.58800000000006
Q6170,2025-06-03 00:00:00,象河,荆门市,东宝区,31.3072,112.1028,121.0,993.9,20.2,87,20.584798142992017,48.74700000000003
Q6171,2025-06-03 00:00:00,安河,荆门市,东宝区,31.0814,112.1022,246.3,979.6,21.5,82,21.018581645086574,52.63750000000004
Q6172,2025-06-03 00:00:00,圣境山,荆门市,东宝区,31.12,112.1464,355.3,967.4,21.0,75,18.64323102582686,33.14049999999997
Q6173,2025-06-03 00:00:00,东宝八角,荆门市,东宝区,31.1497,112.2619,70.8,999.2,20.5,91,21.934168909607884,34.225000000000016
Q6174,2025-06-03 00:00:00,文丰,荆门市,东宝区,31.1786,112.0386,179.5,986.8,18.8,95,20.602949828421576,41.523500000000006
Q6175,2025-06-03 00:00:00,琵琶洲,荆门市,东宝区,31.135,111.9811,156.5,989.6,19.4,92,20.71343813593485,44.90100000000001
Q6176,2025-06-03 00:00:00,铁坪,荆门市,东宝区,31.2347,111.9575,270.2,976.8,18.0,97,20.007065283675274,40.88900000000005
Q6210,2025-06-03 00:00:00,长寿,荆门市,钟祥市,31.4994,112.5936,124.4,993.5,21.7,87,22.57493908183424,47.79050000000002
Q6213,2025-06-03 00:00:00,客店,荆门市,钟祥市,31.4353,112.8739,207.8,984.0,23.2,70,19.899149073541047,37.50050000000001
Q6217,2025-06-03 00:00:00,张集,荆门市,钟祥市,31.5064,112.72,136.9,992.1,19.4,93,20.938584202629794,48.68550000000002
Q6218,2025-06-03 00:00:00,洋梓,荆门市,钟祥市,31.2917,112.6356,56.0,1002.4,20.5,94,22.65727337915539,51.035
Q6219,2025-06-03 00:00:00,柴湖,荆门市,钟祥市,30.9944,112.5881,40.0,1003.1,23.3,79,22.59381951306125,42.2835
Q6220,2025-06-03 00:00:00,磷矿,荆门市,钟祥市,31.2944,112.4272,47.9,1002.2,20.1,98,23.044390123670464,48.732
Q6223,2025-06-03 00:00:00,九里,荆门市,钟祥市,31.1669,112.6503,53.0,1002.4,22.1,83,22.06972706027966,48.475
Q6224,2025-06-03 00:00:00,文集,荆门市,钟祥市,31.1594,112.5319,54.6,1002.3,21.0,100,24.85764136776915,47.12450000000002
Q6235,2025-06-03 00:00:00,洪山寺,荆门市,钟祥市,31.4969,112.5197,56.0,1000.6,23.0,76,21.34479306313838,41.02649999999997
Q6236,2025-06-03 00:00:00,北山,荆门市,钟祥市,31.2022,112.4103,93.0,997.2,21.1,90,22.50983878854599,39.86149999999995
Q6237,2025-06-03 00:00:00,陈坡,荆门市,钟祥市,31.0467,112.4686,43.0,1002.0,22.1,86,22.867428038362057,40.07499999999999
Q6260,2025-06-03 00:00:00,钟祥杨集,荆门市,钟祥市,31.3961,112.4883,59.0,1001.9,21.4,88,22.41869477690667,40.9635
Q6263,2025-06-03 00:00:00,明显陵,荆门市,钟祥市,31.2106,112.6344,65.0,1000.7,20.3,97,23.09326147866186,46.50474999999997
Q6264,2025-06-03 00:00:00,郢中,荆门市,钟祥市,31.1667,112.5667,65.8,1000.5,22.4,78,21.122784699346056,40.38200000000008
Q6317,2025-06-03 00:00:00,宋河,荆门市,京山市,31.1814,113.3008,77.2,998.7,20.0,92,21.49991353533928,32.814000000000014
Q6319,2025-06-03 00:00:00,永兴,荆门市,京山市,30.9697,113.2225,63.0,999.6,23.2,76,21.604790422701715,43.5185
Q6320,2025-06-03 00:00:00,钱场,荆门市,京山市,30.8547,113.0992,49.6,1001.9,23.5,77,22.289461913259984,39.62000000000003
Q6321,2025-06-03 00:00:00,石龙,荆门市,京山市,30.8972,112.8411,34.0,1002.9,22.1,80,21.272026082197268,43.11000000000004
Q6322,2025-06-03 00:00:00,永漋,荆门市,京山市,30.7744,112.8278,33.9,1003.6,22.9,77,21.494981040596123,37.4695
Q6323,2025-06-03 00:00:00,坪坝,荆门市,京山市,31.2839,113.3547,73.0,998.8,19.8,93,21.46570663494797,43.74649999999997
Q6324,2025-06-03 00:00:00,屈家岭,荆门市,市辖区,30.8344,112.945,77.0,998.7,23.7,71,20.80202670215515,41.720999999999975
Q6333,2025-06-03 00:00:00,三阳,荆门市,京山市,31.3436,113.1756,203.2,984.2,22.5,85,23.15887275622589,39.72150000000005
Q6335,2025-06-03 00:00:00,三台,荆门市,京山市,31.2819,112.9369,174.2,987.3,19.2,95,21.1240263246392,43.14149999999995
Q6336,2025-06-03 00:00:00,将军岭,荆门市,京山市,31.2428,112.9794,208.9,983.9,20.7,86,20.986323852435607,34.6475
Q6339,2025-06-03 00:00:00,空山洞,荆门市,京山市,30.9928,113.045,105.0,995.6,22.0,92,24.31402231423281,52.39550000000009
Q6343,2025-06-03 00:00:00,四股泉,荆门市,京山市,31.1531,113.2286,226.5,981.5,22.3,83,22.34039013414024,42.34700000000009
Q6344,2025-06-03 00:00:00,马岭,荆门市,京山市,31.0558,113.4464,45.0,1001.4,19.8,94,21.696520684786123,44.36299999999999
Q6349,2025-06-03 00:00:00,中南山,荆门市,京山市,30.9269,113.0072,111.0,994.9,24.0,72,21.47943099469065,46.59699999999996
Q6353,2025-06-03 00:00:00,黄台,荆门市,京山市,31.1539,112.8736,115.4,994.3,21.4,88,22.41869477690667,43.159999999999975
Q6358,2025-06-03 00:00:00,绿林寨,荆门市,京山市,31.3367,113.0661,174.0,988.5,20.7,84,20.498269809355712,32.26749999999998
Q6370,2025-06-03 00:00:00,罗汉寺,荆门市,市辖区,30.9961,112.6831,38.0,1003.3,22.1,81,21.53792640822473,47.900499999999965
Q6371,2025-06-03 00:00:00,长滩办事处,荆门市,市辖区,30.9972,112.7556,57.0,1001.5,22.0,86,22.728325206782845,39.2795
Q6372,2025-06-03 00:00:00,月宝山,荆门市,市辖区,30.9675,112.7822,89.0,997.3,23.5,75,21.710514850577905,38.69600000000003
Q6373,2025-06-03 00:00:00,牙谷山,荆门市,市辖区,30.9711,112.8208,105.0,995.5,23.6,78,22.715571270719543,42.88500000000006
Q6374,2025-06-03 00:00:00,刘台,荆门市,市辖区,30.8964,112.7422,38.5,1003.5,23.6,79,23.006796543421075,39.03849999999997
Q6375,2025-06-03 00:00:00,种业基地,荆门市,市辖区,30.8661,112.8697,73.3,999.4,22.8,76,21.0875410769321,40.05599999999995
Q6376,2025-06-03 00:00:00,蔡垱,荆门市,市辖区,30.7656,112.8836,33.1,1003.6,22.7,85,23.44203468104901,52.657000000000096
Q6401,2025-06-03 00:00:00,洈水,荆州市,松滋市,29.9694,111.5644,100.3,997.4,22.4,74,20.03956497117446,42.68550000000004
Q6402,2025-06-03 00:00:00,沙道观,荆州市,松滋市,30.1794,111.9433,38.4,1003.1,21.3,94,23.80080211896941,51.018
Q6403,2025-06-03 00:00:00,纸厂河,荆州市,松滋市,30.0286,111.8453,52.1,1002.9,21.0,90,22.371877230992236,50.50199999999996
Q6404,2025-06-03 00:00:00,南海,荆州市,松滋市,30.1169,111.85,48.2,1003.6,21.4,90,22.92821056729091,46.74350000000001
Q6406,2025-06-03 00:00:00,卸甲坪,荆州市,松滋市,30.03,111.37,136.0,994.0,19.5,87,19.709979170758785,37.925249999999934
Q6407,2025-06-03 00:00:00,北干渠,荆州市,松滋市,30.0261,111.6894,43.0,1001.6,20.7,86,20.986323852435607,44.9235
Q6408,2025-06-03 00:00:00,北河,荆州市,松滋市,30.0728,111.6294,164.0,989.1,21.0,79,19.63753668053763,23.50449999999999
Q6409,2025-06-03 00:00:00,陈店,荆州市,松滋市,30.2792,111.6517,122.0,993.1,21.2,90,22.64854591395692,45.99045833333339
Q6411,2025-06-03 00:00:00,涴市,荆州市,松滋市,30.2714,112.0189,50.1,1003.1,21.2,91,22.900196424112,51.083
Q6412,2025-06-03 00:00:00,杨林市,荆州市,松滋市,29.9758,111.7756,69.2,1000.4,21.9,84,22.064616654155262,36.15850000000008
Q6414,2025-06-03 00:00:00,八宝,荆州市,松滋市,30.18,111.8686,46.1,1003.4,21.5,92,23.581823309121525,49.62599999999994
Q6415,2025-06-03 00:00:00,万家,荆州市,松滋市,29.9686,111.6961,76.2,1000.8,21.0,90,22.371877230992236,41.12019999999998
Q6417,2025-06-03 00:00:00,三堰淌,荆州市,松滋市,30.0903,111.4008,626.8,938.1,20.8,76,18.660682965634827,27.63199999999999
Q6418,2025-06-03 00:00:00,卸甲坪村,荆州市,松滋市,30.0397,111.3681,220.0,982.5,18.8,91,19.735457204066982,38.56100000000005
Q6426,2025-06-03 00:00:00,新江口,荆州市,松滋市,30.1769,111.7736,69.5,1000.2,22.4,74,20.03956497117446,34.85699999999999
Q6494,2025-06-03 00:00:00,南平,荆州市,公安县,29.9206,112.0969,44.0,1003.6,21.9,84,22.064616654155262,42.81900000000002
Q6495,2025-06-03 00:00:00,狮子口,荆州市,公安县,29.99,112.0072,48.0,1003.0,22.0,85,22.46404235554118,43.9235
Q6496,2025-06-03 00:00:00,杨家厂,荆州市,公安县,30.0592,112.3197,30.0,1004.1,21.7,87,22.57493908183424,34.27949999999996
Q6497,2025-06-03 00:00:00,孟家溪,荆州市,公安县,29.8575,112.0914,40.0,1004.2,21.9,84,22.064616654155262,37.94150000000005
Q6498,2025-06-03 00:00:00,麻豪口,荆州市,公安县,29.9631,112.3392,40.0,1004.0,22.6,80,21.92948402339815,41.21249999999996
Q6499,2025-06-03 00:00:00,夹竹园,荆州市,公安县,29.99,112.1083,37.0,1003.9,21.7,89,23.09390319865801,38.13100000000001
Q6500,2025-06-03 00:00:00,甘厂,荆州市,公安县,29.7447,112.0739,36.9,1004.2,22.0,79,20.878345248091215,34.90200000000001
Q6502,2025-06-03 00:00:00,斑竹垱,荆州市,公安县,30.0544,112.0081,39.5,1003.8,21.6,95,24.500393088544936,50.92950000000008
Q6503,2025-06-03 00:00:00,埠河,荆州市,公安县,30.2919,112.2406,44.0,1003.1,21.4,85,21.654421091330303,43.54750000000001
Q6577,2025-06-03 00:00:00,大垸,荆州市,石首市,29.8425,112.4731,35.7,1004.1,22.6,98,26.86361792866273,51.76059999999996
Q6651,2025-06-03 00:00:00,监利汪桥,荆州市,监利市,29.98,112.7044,26.1,1004.8,22.3,83,22.34039013414024,46.68199999999998
Q6656,2025-06-03 00:00:00,监利上车,荆州市,监利市,29.8086,113.0083,26.5,1005.1,21.8,86,22.452343060183257,36.033499999999925
Q6657,2025-06-03 00:00:00,监利周老嘴,荆州市,监利市,30.0322,112.9767,25.1,1004.7,22.1,85,22.60152771233459,43.58800000000002
Q6658,2025-06-03 00:00:00,监利朱河,荆州市,监利市,29.7317,113.1064,24.9,1005.1,22.3,84,22.60955146105759,33.82000000000003
Q6659,2025-06-03 00:00:00,监利福田,荆州市,监利市,29.9039,113.0831,24.7,1005.1,22.3,88,23.686196768727,43.93649999999999
Q6660,2025-06-03 00:00:00,监利黄歇口,荆州市,监利市,30.0361,112.8011,26.1,1004.9,23.3,79,22.59381951306125,45.777
Q6661,2025-06-03 00:00:00,监利大垸,荆州市,监利市,29.8486,112.7075,24.2,1004.3,22.8,80,22.197411659928527,41.56249999999998
Q6662,2025-06-03 00:00:00,监利网市,荆州市,监利市,30.1097,113.1147,25.8,1004.9,23.3,77,22.02182408235084,50.61050000000003
Q6665,2025-06-03 00:00:00,监利分盐,荆州市,监利市,29.9844,113.0503,31.9,1004.8,21.7,93,24.131831432305564,51.84750000000004
Q6667,2025-06-03 00:00:00,监利柘木,荆州市,监利市,29.59,113.1403,26.4,1005.1,21.9,87,22.85263867751795,37.51449999999994
Q6668,2025-06-03 00:00:00,监利汴河,荆州市,监利市,29.8086,113.0872,25.1,1005.2,22.2,83,22.204697129504687,42.263000000000005
Q6670,2025-06-03 00:00:00,三洲,荆州市,监利市,29.545,112.9406,29.0,1004.8,21.7,95,24.650795549129334,44.609000000000016
Q6750,2025-06-03 00:00:00,曹市,荆州市,洪湖市,29.8625,113.5478,29.8,1004.7,24.2,76,22.94683286881217,38.812000000000005
Q6751,2025-06-03 00:00:00,黄家口,荆州市,洪湖市,30.0486,113.5617,20.0,1005.0,22.0,94,24.84258801671613,43.842499999999966
Q6753,2025-06-03 00:00:00,瞿家湾渡口,荆州市,洪湖市,29.9325,113.2267,30.0,1004.9,23.1,83,23.45235661848248,42.438499999999976
Q6754,2025-06-03 00:00:00,洪狮渔场,荆州市,洪湖市,29.9217,113.29,20.0,1005.0,22.9,83,23.16991462817504,44.86649999999997
Q6755,2025-06-03 00:00:00,瞿家湾,荆州市,洪湖市,29.9614,113.1831,23.5,1004.8,22.1,87,23.133328364389527,38.28200000000002
Q6756,2025-06-03 00:00:00,八卦洲,荆州市,洪湖市,29.8175,113.4078,34.0,1005.4,22.0,100,26.4282851241661,50.74199999999988
Q6757,2025-06-03 00:00:00,螺山,荆州市,洪湖市,29.6706,113.3161,26.7,1005.0,22.3,74,19.917938191884065,39.326000000000015
Q6758,2025-06-03 00:00:00,乌林,荆州市,洪湖市,29.9078,113.6072,30.0,1005.1,21.5,88,22.556526643507546,41.92349999999998
Q6759,2025-06-03 00:00:00,大沙,荆州市,洪湖市,30.0072,113.8642,30.0,1005.3,21.1,90,22.50983878854599,47.67200000000002
Q6760,2025-06-03 00:00:00,燕窝,荆州市,洪湖市,30.0958,113.9672,30.0,1004.9,21.7,89,23.09390319865801,49.29499999999999
Q6761,2025-06-03 00:00:00,汊河,荆州市,洪湖市,29.9578,113.4517,27.6,1005.1,22.8,82,22.75234695142673,33.53450000000001
Q6764,2025-06-03 00:00:00,大同湖,荆州市,洪湖市,30.0467,113.7133,23.7,1005.2,23.4,80,23.018482080516605,44.648
Q6767,2025-06-03 00:00:00,峰口,荆州市,洪湖市,30.1211,113.3494,25.3,1005.0,21.8,83,21.66912179064198,42.42099999999999
Q6769,2025-06-03 00:00:00,土地湖,荆州市,洪湖市,29.9361,113.3403,20.0,1005.9,22.3,86,23.147874114892293,41.59500000000011
Q6770,2025-06-03 00:00:00,袁新泵站,荆州市,洪湖市,29.7106,113.3156,20.0,1005.1,21.7,86,22.315457023422347,33.13349999999996
Q6771,2025-06-03 00:00:00,府场,荆州市,洪湖市,30.1222,113.1589,31.2,1004.7,21.5,93,23.83814747552502,40.708666666666666
Q6772,2025-06-03 00:00:00,洪湖龙口,荆州市,洪湖市,29.9878,113.7756,25.1,1005.1,21.5,86,22.043878310700556,35.4714999999999
Q6773,2025-06-03 00:00:00,洪湖经开区,荆州市,洪湖市,29.8489,113.4908,23.2,1005.1,22.5,77,20.979214143875215,40.654
Q6847,2025-06-03 00:00:00,江滩公园,荆州市,洪湖市,29.8033,113.4594,28.5,1004.3,21.6,92,23.72669646469615,42.20299999999992
Q6853,2025-06-03 00:00:00,纪南,荆州市,荆州区,30.4272,112.2525,33.0,1003.7,21.5,90,23.06917497631453,47.60850000000004
Q6856,2025-06-03 00:00:00,荆州中学,荆州市,荆州区,30.3653,112.2097,32.0,1004.1,22.1,81,21.53792640822473,48.838
Q6862,2025-06-03 00:00:00,乐居,荆州市,荆州区,30.3531,112.1147,38.6,1004.3,21.0,96,23.863335713058383,49.71732500000001
Q6863,2025-06-03 00:00:00,麋鹿,荆州市,石首市,29.7822,112.5547,35.4,1004.2,21.5,100,25.632416640349483,54.744
Q6901,2025-06-03 00:00:00,观音垱,荆州市,沙市区,30.3797,112.4003,28.0,1004.0,21.7,85,22.05597496501046,45.41550000000002
Q6951,2025-06-03 00:00:00,秦市,荆州市,江陵县,29.9672,112.6025,30.3,1004.8,21.7,95,24.650795549129334,44.609000000000016
Q6953,2025-06-03 00:00:00,沙岗,荆州市,江陵县,30.0603,112.6308,30.0,1004.6,22.4,81,21.935199495474752,32.28950000000003
Q6954,2025-06-03 00:00:00,熊河,荆州市,江陵县,30.1106,112.44,30.1,1004.5,22.7,78,21.5115141779038,41.574000000000005
Q6957,2025-06-03 00:00:00,三湖,荆州市,江陵县,30.1967,112.5561,26.0,1005.0,22.2,84,22.472223600944503,49.364
Q6958,2025-06-03 00:00:00,郝穴,荆州市,江陵县,29.9919,112.4553,31.3,1004.4,22.4,84,22.747614291603444,47.575500000000005
Q6960,2025-06-03 00:00:00,江北农场,荆州市,江陵县,30.1814,112.3494,30.0,1004.4,22.6,86,23.574195325153006,42.26450000000002
Q7030,2025-06-03 00:00:00,悟峰山,孝感市,大悟县,31.7775,114.1636,92.4,997.0,19.4,93,20.938584202629794,38.02466666666673
Q7038,2025-06-03 00:00:00,新城,孝感市,大悟县,31.4925,114.2794,120.0,992.5,20.1,85,19.987481229714174,48.47599999999996
Q7087,2025-06-03 00:00:00,河口茶园,孝感市,大悟县,31.3186,114.3764,56.4,999.7,18.9,97,21.168615671086247,38.394166666666656
Q7092,2025-06-03 00:00:00,大悟城关,孝感市,大悟县,31.5711,114.1214,74.9,998.2,21.1,75,18.758198990454996,33.6675
Q7138,2025-06-03 00:00:00,雷公,孝感市,安陆市,31.2953,113.515,101.0,995.9,21.8,93,24.27985935577957,64.82328690476184
Q7165,2025-06-03 00:00:00,接官,孝感市,安陆市,31.4175,113.7522,68.6,999.7,19.4,100,22.5146066694944,39.5615
Q7166,2025-06-03 00:00:00,辛榨,孝感市,安陆市,31.1122,113.6156,45.9,1002.1,22.3,93,25.03200340331376,42.93899999999995
Q7167,2025-06-03 00:00:00,府河,孝感市,安陆市,31.2575,113.6686,36.4,1003.3,21.4,92,23.437726357675157,41.068583333333294
Q7218,2025-06-03 00:00:00,田店,孝感市,应城市,31.0317,113.4494,52.5,1001.6,19.9,98,22.760545250673847,40.421000000000056
Q7266,2025-06-03 00:00:00,义和,孝感市,应城市,30.7686,113.4944,28.9,1004.3,23.2,79,22.45761109728204,39.54600000000004
Q7315,2025-06-03 00:00:00,城隍,孝感市,汉川市,30.6261,113.7594,24.9,1004.8,23.9,74,21.943688316661568,38.565
Q7316,2025-06-03 00:00:00,华严农场,孝感市,汉川市,30.6256,113.6964,24.1,1005.1,22.4,81,21.935199495474752,37.400000000000055
Q7317,2025-06-03 00:00:00,回龙,孝感市,汉川市,30.565,113.4961,24.3,1004.8,20.8,96,23.571389009222937,42.54529999999997
Q7318,2025-06-03 00:00:00,脉旺,孝感市,汉川市,30.5175,113.5933,23.9,1004.8,21.5,85,21.78755414429706,43.55
Q7350,2025-06-03 00:00:00,庙头,孝感市,汉川市,30.5944,113.7875,27.0,1004.8,23.2,80,22.741884655475488,39.62150000000001
Q7354,2025-06-03 00:00:00,刘家隔,孝感市,汉川市,30.7539,113.8008,25.0,1004.9,22.9,89,24.84484821575396,56.55950000000004
Q7358,2025-06-03 00:00:00,麻河,孝感市,汉川市,30.775,113.6914,22.2,1005.0,23.9,84,24.90905160269692,42.15299999999996
Q7378,2025-06-03 00:00:00,南河,孝感市,汉川市,30.4967,113.7769,25.0,1004.5,21.0,89,22.123300817314544,43.63949999999998
Q7387,2025-06-03 00:00:00,新河,孝感市,汉川市,30.6956,113.9111,30.0,1004.9,23.7,76,22.2669581600534,39.35400000000001
Q7392,2025-06-03 00:00:00,西江,孝感市,汉川市,30.4806,113.6775,24.0,1005.0,21.6,89,22.95299984084736,45.14849999999991
Q7393,2025-06-03 00:00:00,韩集,孝感市,汉川市,30.6742,113.5964,28.0,1005.0,22.0,82,21.6711938018162,32.52999999999995
Q7426,2025-06-03 00:00:00,周巷,孝感市,孝昌县,31.2169,114.1108,105.8,995.5,23.7,76,22.2669581600534,40.03600000000002
Q7432,2025-06-03 00:00:00,丰和,孝感市,孝昌县,31.1422,114.1475,85.0,997.7,24.1,61,18.30756261795425,27.65949999999998
Q7442,2025-06-03 00:00:00,花西,孝感市,孝昌县,31.1939,113.8561,72.2,999.2,21.4,100,25.475789519212125,52.98361666666669
Q7461,2025-06-03 00:00:00,双峰山景区,孝感市,孝昌县,31.2011,114.1914,582.5,943.1,19.8,69,15.926169438832364,42.54049999999993
Q7538,2025-06-03 00:00:00,隔蒲潭,孝感市,云梦县,30.9461,113.7253,28.7,1004.2,22.9,80,22.332447834385583,38.04400000000001
Q7546,2025-06-03 00:00:00,倒店,孝感市,云梦县,31.1844,113.7389,58.9,1000.6,22.3,81,21.80206748030553,37.50150000000005
Q7554,2025-06-03 00:00:00,清明河,孝感市,云梦县,31.0272,113.6944,34.0,1003.9,23.0,83,23.310760845269545,40.28450000000005
Q7618,2025-06-03 00:00:00,杨店,孝感市,孝南区,31.025,114.1083,52.0,1002.5,21.2,90,22.64854591395692,48.92649999999996
Q7622,2025-06-03 00:00:00,陡岗,孝感市,孝南区,31.0397,113.8556,30.1,1003.5,20.6,94,22.797526185574903,41.44699999999999
Q7626,2025-06-03 00:00:00,肖港,孝感市,孝南区,31.0981,113.975,46.5,1001.9,23.4,80,23.018482080516605,47.64300000000002
Q7630,2025-06-03 00:00:00,毛陈,孝感市,孝南区,30.8239,113.9908,23.2,1005.0,22.9,81,22.6116034323154,52.91650000000005
Q7642,2025-06-03 00:00:00,新铺,孝感市,孝南区,30.9806,113.98,46.2,1002.2,21.2,87,21.89359438349169,49.7795
Q7650,2025-06-03 00:00:00,卧龙,孝感市,孝南区,30.8961,113.9025,27.1,1004.8,23.3,78,22.307821797706044,43.0425
Q7654,2025-06-03 00:00:00,闵集,孝感市,孝南区,30.8508,114.1303,46.2,1004.1,20.2,97,22.950866895060063,38.61349999999996
Q7658,2025-06-03 00:00:00,东山头,孝感市,孝南区,30.7981,114.0183,25.3,1005.1,23.3,81,23.165814943771665,48.95300000000003
Q7659,2025-06-03 00:00:00,朱湖,孝感市,孝南区,30.8081,113.9397,19.7,1005.2,20.8,93,22.834783102684725,46.94150000000004
Q7663,2025-06-03 00:00:00,郑家河,孝感市,市辖区,31.3603,113.2903,96.0,996.4,21.7,80,20.758564672951024,27.949500000000004
Q7701,2025-06-03 00:00:00,拖市,省直辖县级行政区划,天门市,30.7267,112.8314,40.0,1003.7,22.0,89,23.52117376050783,46.05699999999997
Q7704,2025-06-03 00:00:00,佛子山,省直辖县级行政区划,天门市,30.7503,113.0092,35.2,1003.3,22.6,83,22.75183967427558,39.655333333333374
Q7705,2025-06-03 00:00:00,汪场,省直辖县级行政区划,天门市,30.61,113.0192,26.7,1004.3,21.1,99,24.760822667400596,54.89075000000003
Q7708,2025-06-03 00:00:00,岳口,省直辖县级行政区划,天门市,30.5239,113.0894,38.0,1003.8,21.8,88,22.974490573210776,45.40849999999997
Q7709,2025-06-03 00:00:00,九真,省直辖县级行政区划,天门市,30.7694,113.2297,29.7,1004.3,23.0,85,23.872465925878448,55.76000000000001
Q7712,2025-06-03 00:00:00,皂市,省直辖县级行政区划,天门市,30.8636,113.3256,39.0,1004.3,22.3,84,22.60955146105759,38.12750000000006
Q7713,2025-06-03 00:00:00,净潭,省直辖县级行政区划,天门市,30.6522,113.4097,30.0,1004.9,22.6,79,21.65536547310567,34.15899999999996
Q7716,2025-06-03 00:00:00,麻洋,省直辖县级行政区划,天门市,30.4411,113.2611,33.5,1004.4,21.7,91,23.61286731548179,56.03449999999992
Q7725,2025-06-03 00:00:00,石家河,省直辖县级行政区划,天门市,30.7561,113.0772,27.0,1004.2,24.1,77,23.10954625545045,40.508000000000045
Q7726,2025-06-03 00:00:00,沉湖,省直辖县级行政区划,天门市,30.5094,113.3708,24.6,1005.0,22.1,89,23.665129016444457,38.108999999999945
Q7727,2025-06-03 00:00:00,卢市,省直辖县级行政区划,天门市,30.6589,113.3403,25.7,1004.7,22.8,91,25.2495557631687,45.20809999999999
Q7729,2025-06-03 00:00:00,蒋湖,省直辖县级行政区划,天门市,30.6411,112.8431,31.2,1004.0,21.5,89,22.81285080991104,53.29699999999996
Q7799,2025-06-03 00:00:00,竟陵,省直辖县级行政区划,天门市,30.67,113.17,34.1,1004.0,22.8,81,22.47487930567764,37.76400000000005
Q7800,2025-06-03 00:00:00,高石碑,省直辖县级行政区划,潜江市,30.5497,112.6531,30.0,1003.8,21.2,89,22.39689540380184,39.543500000000016
Q7802,2025-06-03 00:00:00,浩口,省直辖县级行政区划,潜江市,30.375,112.6408,28.0,1004.5,21.2,89,22.39689540380184,45.10350000000003
Q7807,2025-06-03 00:00:00,白鹭湖,省直辖县级行政区划,潜江市,30.1111,112.7681,27.0,1005.0,22.7,78,21.5115141779038,37.16500000000002
Q7811,2025-06-03 00:00:00,后湖农场,省直辖县级行政区划,潜江市,30.3944,112.7186,29.0,1004.5,21.5,90,23.06917497631453,59.16725000000001
Q7814,2025-06-03 00:00:00,熊农,省直辖县级行政区划,潜江市,30.2667,112.7583,29.0,1004.6,21.7,98,25.429241724365003,51.41249999999997
Q7816,2025-06-03 00:00:00,园林,省直辖县级行政区划,潜江市,30.435,112.8725,32.0,1004.1,21.1,97,24.260604027655123,42.37399999999999
Q7817,2025-06-03 00:00:00,经济开发区,省直辖县级行政区划,潜江市,30.4786,112.87,30.0,1004.0,22.0,94,24.84258801671613,52.75399999999999
Q7818,2025-06-03 00:00:00,广华,省直辖县级行政区划,潜江市,30.4772,112.6597,28.0,1004.2,21.3,93,23.547602096427187,47.958500000000015
