Station_Id_C,Datetime,Station_Name,City,Cnty,Lat,Lon,Alti,PRS,TEM,RHU,VAP,PWV
57264,2025-06-03 19:00:00,武当山,十堰市,丹江口市,32.4261,111.0153,1017.5,897.5,21.3,42.0,10.634400946773567,19.953500000000005
57351,2025-06-03 19:00:00,坛子岭,宜昌市,夷陵区,30.8333,111.0167,231.0,983.1,20.5,99.0,23.862447495067915,62.70200000000003
57352,2025-06-03 19:00:00,三斗坪,宜昌市,夷陵区,30.8092,111.0003,185.3,988.4,20.9,86.0,21.24645081755528,47.35250000000004
57353,2025-06-03 19:00:00,苏家坳,宜昌市,夷陵区,30.8378,111.0164,191.8,987.6,21.7,90.0,23.3533852570699,44.772499999999965
57354,2025-06-03 19:00:00,神农顶,省直辖县级行政区划,神农架林区,31.4558,110.2711,2948.1,714.9,6.7,43.0,4.218423329373693,7.573999999999999
57367,2025-06-03 19:00:00,大老岭,宜昌市,夷陵区,31.0836,110.9406,1910.0,809.6,15.5,21.0,3.695357662531332,12.563500000000005
57451,2025-06-03 19:00:00,绿葱坡,恩施土家族苗族自治州,巴东县,30.8131,110.2539,1813.5,819.2,15.6,23.0,4.073329616473025,10.065499999999998
Q0004,2025-06-03 19:00:00,沪渝K1464,恩施土家族苗族自治州,利川市,30.2789,108.8711,1082.2,889.5,14.9,95.0,16.0845280023994,31.144000000000027
Q0005,2025-06-03 19:00:00,沪渝K1439,恩施土家族苗族自治州,利川市,30.2444,109.1197,1131.4,885.4,13.9,5.0,0.7935245802599258,5.246000000000005
Q0007,2025-06-03 19:00:00,沪渝K1412,恩施土家族苗族自治州,恩施市,30.2389,109.3664,706.7,929.5,17.9,78.0,15.987207433122508,36.139499999999984
Q0008,2025-06-03 19:00:00,沪渝K1407,恩施土家族苗族自治州,巴东县,30.2439,109.4128,545.1,946.1,18.3,85.0,17.865657084278087,37.05049999999999
Q0010,2025-06-03 19:00:00,沪渝K1375,恩施土家族苗族自治州,恩施市,30.4114,109.5864,729.9,926.5,17.2,99.0,19.41417532029869,43.95799999999995
Q0011,2025-06-03 19:00:00,沪渝K1369,恩施土家族苗族自治州,恩施市,30.455,109.6258,624.1,937.5,18.3,99.0,20.808235898159182,42.368999999999936
Q0013,2025-06-03 19:00:00,沪渝K1351,恩施土家族苗族自治州,恩施市,30.4628,109.7828,780.1,920.5,16.7,78.0,14.818523878262871,30.874499999999983
Q0014,2025-06-03 19:00:00,沪渝K1343,恩施土家族苗族自治州,恩施市,30.4997,109.8508,903.4,908.1,15.9,80.0,14.442834304696218,28.894499999999997
Q0015,2025-06-03 19:00:00,沪渝K1336,恩施土家族苗族自治州,建始县,30.55,109.8914,879.8,910.3,15.9,97.0,17.511936594444162,34.72500000000003
Q0019,2025-06-03 19:00:00,沪渝K1305,恩施土家族苗族自治州,巴东县,30.6308,110.1639,865.2,911.9,16.1,67.0,12.251436596455676,25.391499999999983
Q0021,2025-06-03 19:00:00,沪渝K1291,恩施土家族苗族自治州,巴东县,30.6119,110.3097,1104.2,887.0,14.3,99.0,16.124619058454403,31.65811904761905
Q0022,2025-06-03 19:00:00,沪渝k1283,恩施土家族苗族自治州,恩施市,30.6217,110.3864,923.0,896.2,17.0,73.0,14.135253226939106,26.902000000000022
Q0026,2025-06-03 19:00:00,沪渝K1262,宜昌市,长阳土家族自治县,30.6247,110.6047,597.8,940.2,16.2,74.0,13.618071638706258,25.87899999999997
Q0028,2025-06-03 19:00:00,沪渝K1179,宜昌市,市辖区,30.5711,111.4003,54.9,999.5,20.9,98.0,24.211071861865324,47.73400000000013
Q0030,2025-06-03 19:00:00,沪渝K1208,宜昌市,长阳土家族自治县,30.5589,111.1281,241.9,981.7,19.8,81.0,18.69593803689017,29.32350000000003
Q0032,2025-06-03 19:00:00,沪渝K1097,荆州市,荆州区,30.3922,112.195,25.4,1003.9,23.5,81.0,23.447356038624143,53.93799999999994
Q0033,2025-06-03 19:00:00,沪渝K1069,荆州市,荆州区,30.3353,112.4733,25.4,1004.5,24.2,96.0,28.98547309744695,57.34599999999993
Q0034,2025-06-03 19:00:00,沪渝K1065,省直辖县级行政区划,潜江市,30.3383,112.5164,24.4,1004.1,23.6,97.0,28.24885145204866,61.30483333333328
Q0037,2025-06-03 19:00:00,沪渝K933,武汉市,蔡甸区,30.4533,113.8225,17.0,1004.8,22.6,96.0,26.31538082807777,49.07100000000001
Q0039,2025-06-03 19:00:00,沪渝k959,省直辖县级行政区划,仙桃市,30.3486,113.5853,15.2,1004.6,23.6,88.0,25.627823997734872,42.84299999999998
Q0040,2025-06-03 19:00:00,沪渝K982,省直辖县级行政区划,仙桃市,30.3631,113.3619,9.0,1005.1,23.5,94.0,27.210511946057643,49.503
Q0047,2025-06-03 19:00:00,黄黄785,黄冈市,浠水县,30.2406,115.1297,19.8,1006.2,22.1,96.0,25.52643129863672,56.22800000000001
Q0049,2025-06-03 19:00:00,黄黄K761,黄冈市,蕲春县,30.1353,115.33,21.4,1005.7,23.5,88.0,25.47367075801141,60.74269999999998
Q0050,2025-06-03 19:00:00,黄黄K742,黄冈市,武穴市,30.0289,115.4664,41.4,1003.7,21.3,96.0,24.30720216405387,48.49525
Q0051,2025-06-03 19:00:00,黄黄K730,黄冈市,武穴市,30.0039,115.5917,38.0,1004.7,20.8,94.0,23.08031840486413,53.812000000000005
Q0052,2025-06-03 19:00:00,黄黄K722,黄冈市,武穴市,30.0161,115.6708,42.5,1003.3,21.1,89.0,22.259729468673257,46.80949999999999
Q0053,2025-06-03 19:00:00,黄黄K714,黄冈市,武穴市,30.0278,115.7514,22.2,1005.7,21.4,94.0,23.947242148059395,45.74000000000004
Q0054,2025-06-03 19:00:00,黄黄K708,黄冈市,黄梅县,30.0278,115.8164,23.1,1006.1,21.4,99.0,25.221031624020004,41.76050000000004
Q0055,2025-06-03 19:00:00,黄黄K700,黄冈市,黄梅县,30.0333,115.8986,25.2,1005.5,21.3,95.0,24.05400214151164,49.98950000000004
Q0058,2025-06-03 19:00:00,大广K2491,黄石市,市辖区,30.1703,114.9136,25.0,1004.4,21.8,93.0,24.27985935577957,55.24899999999996
Q0061,2025-06-03 19:00:00,大广K2520,黄石市,大冶市,29.9158,114.8833,57.7,1001.4,19.9,88.0,20.438040633258147,38.92750000000005
Q0064,2025-06-03 19:00:00,大广K2552,黄石市,阳新县,29.6617,114.9464,23.5,1005.4,19.9,90.0,20.902541556741287,37.42800000000004
Q0065,2025-06-03 19:00:00,大广K2560,黄石市,阳新县,29.6053,114.9322,37.1,1002.9,18.8,96.0,20.81982298451022,49.007583333333386
Q0066,2025-06-03 19:00:00,大广K2583,咸宁市,通山县,29.4306,114.8339,281.9,974.4,19.2,70.0,15.565072028681517,28.18849999999996
Q0067,2025-06-03 19:00:00,杭瑞K731,咸宁市,崇阳县,29.3742,113.8803,81.0,997.5,20.3,99.0,23.569411199871386,56.14499999999999
Q0069,2025-06-03 19:00:00,杭瑞K679,咸宁市,通山县,29.5817,114.3203,81.0,994.8,19.3,93.0,20.808592605397823,45.74549999999999
Q0071,2025-06-03 19:00:00,杭瑞K640,咸宁市,通山县,29.7172,114.6692,128.1,993.0,18.7,99.0,21.33654024364826,48.19099999999996
Q0072,2025-06-03 19:00:00,杭瑞K620,黄石市,阳新县,29.7147,114.8767,167.3,989.4,18.9,95.0,20.732149368589624,46.50550000000007
Q0074,2025-06-03 19:00:00,杭瑞K583,黄石市,阳新县,29.7067,115.2367,54.2,1001.4,18.8,99.0,21.47044245277617,42.91999999999998
Q0079,2025-06-03 19:00:00,福银K1447,十堰市,郧西县,33.08,110.3,444.3,958.6,17.1,91.0,17.732692820734503,33.19399999999998
Q0080,2025-06-03 19:00:00,福银K1421,十堰市,郧西县,32.95,110.5,395.1,963.3,17.3,87.0,17.169251011246498,28.397999999999964
Q0082,2025-06-03 19:00:00,福银K1398,十堰市,郧西县,32.82,110.7,205.1,983.2,20.5,93.0,22.41623855597289,46.362000000000016
Q0083,2025-06-03 19:00:00,福银K1338,十堰市,丹江口市,32.51,111.14,162.4,988.2,19.8,90.0,20.77326448543352,39.35799999999999
Q0087,2025-06-03 19:00:00,福银K1277,襄阳市,谷城县,32.28,111.66,73.4,997.8,23.4,70.0,20.141171820452023,34.103999999999985
Q0089,2025-06-03 19:00:00,福银K1234,襄阳市,市辖区,32.19,112.1,76.5,997.8,20.7,79.0,19.278134701655965,34.968500000000006
Q0093,2025-06-03 19:00:00,福银K1103,随州市,市辖区,31.67,113.26,101.0,995.9,19.8,93.0,21.46570663494797,39.02150000000002
Q0094,2025-06-03 19:00:00,福银K1093,随州市,市辖区,31.6,113.33,83.0,998.3,20.5,93.0,22.41623855597289,41.35900000000001
Q0095,2025-06-03 19:00:00,福银K1076,随州市,市辖区,31.48,113.43,110.0,995.2,19.5,98.0,22.202045502693807,39.50800000000012
Q0096,2025-06-03 19:00:00,福银K1064,孝感市,安陆市,31.39,113.51,97.7,997.5,20.5,94.0,22.65727337915539,55.00999999999997
Q0100,2025-06-03 19:00:00,福银K993,孝感市,市辖区,30.98,114.05,29.2,1003.9,22.0,96.0,25.37115371919945,41.58249999999998
Q0103,2025-06-03 19:00:00,襄荆K1620,荆门市,钟祥市,31.54,112.28,56.7,1000.2,22.6,5.0,1.3705927514623844,6.161499999999997
Q0104,2025-06-03 19:00:00,襄荆K1634,荆门市,钟祥市,31.42,112.34,68.6,1002.1,21.2,96.0,24.15844897488738,39.8175
Q0106,2025-06-03 19:00:00,襄荆K1685,荆门市,市辖区,30.99,112.27,51.3,1000.4,22.8,92.0,25.52702340891781,44.939999999999934
Q0107,2025-06-03 19:00:00,襄荆K1704,荆门市,市辖区,30.82,112.24,75.1,998.4,22.5,88.0,23.976244735857392,44.9294999999999
Q0108,2025-06-03 19:00:00,襄荆K1715交通气象站,荆门市,沙洋县,30.7,112.22,50.4,1001.5,22.4,5.0,1.354024660214491,8.3445
Q0109,2025-06-03 19:00:00,襄荆K1745,荆门市,沙洋县,30.45,112.21,42.3,1003.5,22.9,96.0,26.79893740126269,54.20050000000005
Q0600,2025-06-03 19:00:00,洪湖石码头,荆州市,洪湖市,29.8361,113.5272,26.0,1004.5,22.7,93.0,25.648343827500685,47.81339880952382
Q0603,2025-06-03 19:00:00,石首海事码头,荆州市,石首市,29.7378,112.4081,20.0,1004.1,22.3,100.0,26.916132691735225,54.1246
Q0604,2025-06-03 19:00:00,公安航道码头,荆州市,公安县,30.0744,112.215,11.0,1003.4,23.6,92.0,26.792725088541,53.389
Q0605,2025-06-03 19:00:00,江陵航道码头,荆州市,江陵县,30.03,112.4025,50.0,1003.4,23.2,85.0,24.1632524464427,38.97050000000001
Q0606,2025-06-03 19:00:00,杨林矶海事码头,荆州市,市辖区,30.3206,112.2025,15.0,1003.5,22.3,95.0,25.570326057148463,52.13295833333332
Q0607,2025-06-03 19:00:00,阳逻海事水上搜救中心,武汉市,新洲区,30.6586,114.5494,40.0,1004.9,24.6,58.0,17.93707247279219,32.06000000000003
Q0608,2025-06-03 19:00:00,金口航道码头,武汉市,江夏区,30.3672,114.1486,0.0,1004.8,23.0,89.0,24.99587608709626,43.98799999999995
Q0609,2025-06-03 19:00:00,嘉鱼簰洲湾海事站房,咸宁市,嘉鱼县,30.2064,113.9283,20.0,1004.7,22.8,94.0,26.081958700416017,48.324416666666686
Q0611,2025-06-03 19:00:00,秭归泄滩小学,宜昌市,秭归县,31.0047,110.6128,194.5,986.5,20.9,99.0,24.458123615557827,46.536000000000016
Q0612,2025-06-03 19:00:00,长江航道宜昌综合码头,宜昌市,宜都市,30.5539,111.39,40.0,1002.4,21.5,98.0,25.119768307542493,54.44950000000001
Q0613,2025-06-03 19:00:00,宜昌海事局孙家河执法队,宜昌市,宜都市,30.4106,111.5064,60.0,1002.8,21.6,95.0,24.500393088544936,54.72199999999992
Q0614,2025-06-03 19:00:00,松滋河口,宜昌市,宜都市,30.3075,111.6236,40.0,1002.7,22.9,66.0,18.424269463368105,37.15349999999997
Q0615,2025-06-03 19:00:00,枝江姚港,宜昌市,枝江市,30.3725,111.64,50.0,1003.1,21.9,96.0,25.216704747606013,49.32299999999995
Q0616,2025-06-03 19:00:00,枝江七星台,宜昌市,枝江市,30.4125,111.8875,40.0,1003.3,22.9,80.0,22.332447834385583,50.73224999999993
Q0617,2025-06-03 19:00:00,监利何王庙,荆州市,监利市,29.7708,113.0303,40.0,1004.0,22.9,88.0,24.56569261782414,56.54600000000005
Q0618,2025-06-03 19:00:00,监利三洲,荆州市,监利市,29.6517,112.9492,30.0,1004.2,21.3,2.0,0.5064000450844556,2.798500000000004
Q0619,2025-06-03 19:00:00,洪湖龙口汽渡码头,荆州市,洪湖市,29.9542,113.8303,30.0,1004.4,22.4,93.0,25.184858679989528,44.82150000000001
Q0701,2025-06-03 19:00:00,水口白灯船,武汉市,新洲区,30.6869,114.5175,4.0,1004.5,23.3,79.0,22.59381951306125,36.18899999999996
Q0702,2025-06-03 19:00:00,牧鹅洲白灯船,武汉市,新洲区,30.5583,114.6317,4.0,1004.5,24.2,70.0,21.13524080022173,39.81900000000001
Q0704,2025-06-03 19:00:00,沙市河段航道整治一期工程提示标,荆州市,沙市区,30.3142,112.2003,8.0,1002.7,22.4,100.0,27.080493204289816,65.10950000000007
Q0705,2025-06-03 19:00:00,公安大桥进口白泵船,荆州市,公安县,30.0753,112.3128,7.0,1002.6,23.2,88.0,25.016073121023037,46.97799999999996
Q0707,2025-06-03 19:00:00,桃花洲中提示标,荆州市,洪湖市,29.7636,112.6675,6.0,1003.2,22.3,100.0,26.916132691735225,61.13987500000004
Q0725,2025-06-03 19:00:00,天兴洲航道整治建筑物上提示标,武汉市,江岸区,30.6411,114.3525,4.0,1004.1,23.8,91.0,26.82285329511168,49.95174999999997
Q0729,2025-06-03 19:00:00,黄冈大桥#1红浮,黄冈市,市辖区,30.5308,114.8308,4.0,1004.2,23.1,85.0,24.01747364543386,39.82600000000004
Q0737,2025-06-03 19:00:00,李家洲#3红浮,黄冈市,市辖区,30.1289,115.2844,3.0,1004.8,22.3,87.0,23.41703544180965,48.77608333333331
Q1000,2025-06-03 19:00:00,江滩,武汉市,江岸区,30.5944,114.3017,28.8,1005.0,22.9,84.0,23.44907022610486,46.33150000000001
Q1001,2025-06-03 19:00:00,潘塘,武汉市,新洲区,30.9978,114.8886,62.0,1000.1,21.0,81.0,20.13468950789301,38.33000000000005
Q1002,2025-06-03 19:00:00,三店,武汉市,新洲区,30.9278,114.7925,28.0,1005.0,21.4,92.0,23.437726357675157,38.86849999999999
Q1003,2025-06-03 19:00:00,李集,武汉市,新洲区,30.8803,114.6789,24.6,1005.4,21.1,97.0,24.260604027655123,47.95700000000005
Q1004,2025-06-03 19:00:00,旧街,武汉市,新洲区,30.8169,114.8717,27.0,1005.0,20.2,94.0,22.24104626943965,45.857000000000056
Q1005,2025-06-03 19:00:00,辛冲,武汉市,新洲区,30.7997,114.8161,40.0,1003.8,21.2,93.0,23.40349744442215,35.864500000000035
Q1006,2025-06-03 19:00:00,汪集,武汉市,新洲区,30.8086,114.73,37.0,1003.7,21.9,91.0,23.903334708668204,41.04949999999998
Q1007,2025-06-03 19:00:00,仓埠,武汉市,江岸区,30.8736,114.6136,28.8,1002.9,22.3,93.0,25.03200340331376,44.26900000000003
Q1008,2025-06-03 19:00:00,凤凰,武汉市,新洲区,30.9403,114.7225,67.0,1001.6,20.6,98.0,23.767633682833413,46.81199999999997
Q1010,2025-06-03 19:00:00,化工,武汉市,洪山区,30.5064,114.3839,40.8,1003.9,23.1,86.0,24.30003215890955,39.131499999999946
Q1011,2025-06-03 19:00:00,五一大队,武汉市,东西湖区,30.7475,114.0272,26.0,1005.7,21.9,97.0,25.479378755393576,54.91399999999995
Q1013,2025-06-03 19:00:00,湖北省农科院,武汉市,洪山区,30.4836,114.3192,31.0,1005.1,23.0,83.0,23.310760845269545,47.30950000000001
Q1014,2025-06-03 19:00:00,花山工作基地,武汉市,市辖区,30.5325,114.5006,41.0,1003.1,22.4,80.0,21.664394563431856,34.98333333333336
Q1016,2025-06-03 19:00:00,湖北省预备役师,武汉市,洪山区,30.5333,114.5058,29.0,1004.3,20.8,89.0,21.8526418939671,41.6375
Q1017,2025-06-03 19:00:00,和平公园,武汉市,青山区,30.6381,114.3803,22.0,1005.1,21.6,87.0,22.43720209161484,41.98499999999997
Q1018,2025-06-03 19:00:00,纱帽,武汉市,汉南区,30.3322,114.0706,19.0,1005.2,22.7,89.0,24.54518925427485,39.5445
Q1019,2025-06-03 19:00:00,湘口,武汉市,汉南区,30.2669,113.8478,25.0,1005.2,21.9,87.0,22.85263867751795,40.49616666666665
Q1020,2025-06-03 19:00:00,邓南,武汉市,汉南区,30.3078,113.9783,27.0,1004.8,22.2,96.0,25.68254125822229,49.29450000000003
Q1021,2025-06-03 19:00:00,东荆,武汉市,汉南区,30.3461,113.9131,24.0,1005.2,22.3,91.0,24.493680749479054,39.67599999999996
Q1022,2025-06-03 19:00:00,气象预警中心,武汉市,东西湖区,30.6703,114.1803,32.0,1005.3,21.7,90.0,23.3533852570699,43.04683333333333
Q1023,2025-06-03 19:00:00,建和分校,武汉市,洪山区,30.4614,114.2383,23.2,1005.4,23.2,88.0,25.016073121023037,40.74400000000001
Q1024,2025-06-03 19:00:00,实验小学,武汉市,东西湖区,30.6242,114.1408,26.0,1005.5,23.4,80.0,23.018482080516605,40.97949999999999
Q1025,2025-06-03 19:00:00,白玉公园,武汉市,青山区,30.6014,114.4875,25.0,1005.6,20.7,95.0,23.182567046295148,57.771999999999935
Q1026,2025-06-03 19:00:00,沌阳,武汉市,汉南区,30.455,114.1294,28.0,1005.3,21.9,99.0,26.004726770968706,42.43950000000005
Q1027,2025-06-03 19:00:00,华师,武汉市,洪山区,30.5183,114.3594,43.1,1003.1,22.4,82.0,22.206004427517644,36.78199999999995
Q1028,2025-06-03 19:00:00,常青路,武汉市,东西湖区,30.6731,114.2292,24.0,1005.5,22.3,89.0,23.95535809564435,45.456500000000005
Q1029,2025-06-03 19:00:00,光谷二十七小学,武汉市,洪山区,30.5644,114.4858,26.8,1004.9,23.7,68.0,19.9230678274162,32.7075
Q1030,2025-06-03 19:00:00,材保所,武汉市,东西湖区,30.6772,114.2828,35.0,1005.5,22.2,87.0,23.274803015263952,48.731499999999976
Q1031,2025-06-03 19:00:00,湖北省第二师范,武汉市,洪山区,30.4789,114.4464,35.0,1004.0,21.5,89.0,22.81285080991104,41.04850000000003
Q1032,2025-06-03 19:00:00,百步亭社区,武汉市,江岸区,30.6644,114.3136,26.0,1005.6,22.0,88.0,23.25689090926617,51.35049999999998
Q1033,2025-06-03 19:00:00,南湖社区,武汉市,武昌区,30.5133,114.3114,19.0,1005.5,22.3,90.0,24.224519422561706,44.85166666666666
Q1036,2025-06-03 19:00:00,东湖落雁景区,武汉市,市辖区,30.5517,114.4369,23.0,1005.4,21.9,78.0,20.488572607429887,41.24400000000005
Q1038,2025-06-03 19:00:00,天兴洲,武汉市,洪山区,30.6708,114.41,25.0,1005.0,21.0,94.0,23.366182885703,50.755
Q1039,2025-06-03 19:00:00,光谷二十一小学,武汉市,洪山区,30.5031,114.4803,45.3,1003.3,22.6,80.0,21.92948402339815,35.60475000000003
Q1040,2025-06-03 19:00:00,五云,武汉市,江岸区,30.7594,114.6317,24.0,1003.8,21.8,98.0,25.585228138348366,60.065500000000114
Q1041,2025-06-03 19:00:00,鄢家湖,武汉市,江岸区,30.6386,114.5739,11.5,1005.5,20.4,96.0,22.99687977224152,56.14499999999992
Q1042,2025-06-03 19:00:00,席家岗,武汉市,江岸区,30.8764,114.4739,32.5,1004.0,20.8,96.0,23.571389009222937,43.694500000000055
Q1043,2025-06-03 19:00:00,六指中心福利院,武汉市,江岸区,30.8822,114.5217,39.2,1003.8,21.6,91.0,23.468797590079888,48.67350000000001
Q1044,2025-06-03 19:00:00,青华,武汉市,江岸区,30.8683,114.5803,42.3,1003.6,21.1,95.0,23.760385387909658,48.57650000000002
Q1045,2025-06-03 19:00:00,大咀,武汉市,江岸区,30.7972,114.4647,31.3,1003.7,22.5,94.0,25.610988695120398,42.14750000000001
Q1052,2025-06-03 19:00:00,武汉植物园,武汉市,洪山区,30.5447,114.42,23.3,1005.3,21.6,90.0,23.210898715463625,50.9655
Q1054,2025-06-03 19:00:00,湖大,武汉市,武昌区,30.5814,114.3311,23.0,1005.3,23.0,80.0,22.46820322435619,45.32149999999997
Q1057,2025-06-03 19:00:00,林业站,武汉市,洪山区,30.6369,114.5061,33.0,1005.7,20.2,94.0,22.24104626943965,35.99600000000001
Q1061,2025-06-03 19:00:00,青山,武汉市,青山区,30.6411,114.4039,33.5,1004.6,21.6,80.0,20.631909969301,40.63750000000002
Q1071,2025-06-03 19:00:00,士官学校,武汉市,洪山区,30.51,114.4581,35.0,1004.7,20.8,89.0,21.8526418939671,47.051
Q1072,2025-06-03 19:00:00,堤角公园,武汉市,江岸区,30.6664,114.335,27.0,1005.1,21.3,93.0,23.547602096427187,44.058999999999976
Q1073,2025-06-03 19:00:00,湖北省移动公司,武汉市,江汉区,30.6272,114.2394,25.0,1005.3,22.3,85.0,22.87871278797494,40.36449999999997
Q1081,2025-06-03 19:00:00,汉南,武汉市,汉南区,30.255,114.0589,22.1,1005.3,22.5,89.0,24.248702062401225,42.82949999999996
Q1082,2025-06-03 19:00:00,沌口,武汉市,汉南区,30.4769,114.1631,18.1,1005.0,22.2,95.0,25.415014786782475,46.876000000000005
Q1083,2025-06-03 19:00:00,春笋,武汉市,汉南区,30.4156,114.1306,21.6,1005.5,22.2,94.0,25.14748831534266,39.79699999999998
Q1084,2025-06-03 19:00:00,恒大农业,武汉市,汉南区,30.3267,114.0014,23.3,1005.3,21.7,92.0,23.87234937389368,40.299
Q1085,2025-06-03 19:00:00,武湖湿地,武汉市,汉南区,30.2131,113.8472,22.6,1005.5,22.4,94.0,25.455663612032428,56.524000000000086
Q1086,2025-06-03 19:00:00,喜鹊湖,武汉市,汉南区,30.22,113.8256,21.3,1005.6,21.9,94.0,24.69135673203089,47.88116666666668
Q1087,2025-06-03 19:00:00,龙灵山,武汉市,汉南区,30.4258,114.1092,33.7,1004.2,22.0,93.0,24.57830516547447,48.104499999999945
Q1088,2025-06-03 19:00:00,武汉西,武汉市,汉南区,30.4586,114.0606,29.0,1004.7,22.2,89.0,23.809855958143583,36.309500000000014
Q1101,2025-06-03 19:00:00,道观河,武汉市,新洲区,30.8781,114.9839,83.0,997.9,21.3,74.0,18.73680166812485,37.43000000000001
Q1102,2025-06-03 19:00:00,阳逻,武汉市,江岸区,30.6969,114.5339,25.0,1005.6,22.4,88.0,23.83083401977504,45.50625000000004
Q1103,2025-06-03 19:00:00,涨渡湖,武汉市,新洲区,30.6675,114.7861,18.7,1005.9,21.9,91.0,23.903334708668204,32.27350000000005
Q1104,2025-06-03 19:00:00,双柳,武汉市,新洲区,30.5964,114.6472,23.0,1005.3,22.3,89.0,23.95535809564435,43.1345
Q1105,2025-06-03 19:00:00,将军山,武汉市,新洲区,30.8894,115.0589,344.5,969.2,20.0,78.0,18.228187562570252,39.171999999999976
Q1106,2025-06-03 19:00:00,徐古,武汉市,新洲区,30.9481,114.9694,73.0,999.8,20.8,82.0,20.13389477871126,41.37000000000008
Q1107,2025-06-03 19:00:00,徐治湾,武汉市,新洲区,30.8731,114.7681,25.0,1005.0,21.5,94.0,24.094471641928514,44.32450000000005
Q1108,2025-06-03 19:00:00,方院,武汉市,新洲区,30.9156,114.6519,39.3,1003.7,20.3,97.0,23.09326147866186,52.36600000000004
Q1109,2025-06-03 19:00:00,杨裴,武汉市,江岸区,30.7858,114.5475,31.6,1004.3,22.0,92.0,24.31402231423281,51.108833333333365
Q1111,2025-06-03 19:00:00,陈家田,武汉市,新洲区,30.975,114.7111,51.1,1002.2,20.0,98.0,22.902081809383144,34.95150000000002
Q1112,2025-06-03 19:00:00,大雾山,武汉市,新洲区,30.8286,114.9725,196.4,985.7,23.1,62.0,17.518627835492932,30.328999999999997
Q1113,2025-06-03 19:00:00,王寨,武汉市,新洲区,30.8742,114.8856,30.1,1004.6,20.6,92.0,22.31247243694565,40.245250000000034
Q1114,2025-06-03 19:00:00,春光,武汉市,新洲区,30.9244,114.6972,55.4,1001.9,21.2,94.0,23.655147954577227,39.25800000000002
Q1115,2025-06-03 19:00:00,易河,武汉市,新洲区,30.9389,114.9081,36.0,1004.0,20.0,97.0,22.668387097042498,39.316500000000005
Q1116,2025-06-03 19:00:00,李岗,武汉市,新洲区,30.9575,114.87,60.0,1001.3,20.5,92.0,22.175203732790383,29.937500000000004
Q1117,2025-06-03 19:00:00,徐寨,武汉市,新洲区,30.9631,114.7978,28.0,1004.9,21.5,90.0,23.06917497631453,39.31899999999994
Q1118,2025-06-03 19:00:00,陈路,武汉市,新洲区,30.6256,114.7536,22.2,1005.6,22.8,87.0,24.139685180172272,40.593
Q1119,2025-06-03 19:00:00,滨湖,武汉市,新洲区,30.6903,114.705,26.5,1005.1,21.8,91.0,23.75771184275205,34.89549999999995
Q1120,2025-06-03 19:00:00,航天新城,武汉市,新洲区,30.5981,114.6917,22.5,1005.5,21.7,88.0,22.834421140246125,40.91750000000002
Q1121,2025-06-03 19:00:00,大泊,武汉市,新洲区,30.7686,114.6692,20.6,1005.6,22.2,97.0,25.950067729662106,55.10800000000007
Q1122,2025-06-03 19:00:00,冯铺,武汉市,新洲区,30.7528,114.7064,23.9,1005.3,22.4,92.0,24.91405374794663,40.16600000000005
Q1123,2025-06-03 19:00:00,人胜,武汉市,新洲区,30.8286,114.6825,23.6,1005.5,22.0,92.0,24.31402231423281,45.88450000000001
Q1124,2025-06-03 19:00:00,杨铺,武汉市,新洲区,30.7658,114.815,35.4,1004.0,21.7,82.0,21.277528789774795,40.51950000000004
Q1125,2025-06-03 19:00:00,朱岗,武汉市,新洲区,30.7722,114.8658,39.5,1003.6,20.9,87.0,21.493502571247788,39.55049999999999
Q1126,2025-06-03 19:00:00,毛集,武汉市,新洲区,30.6581,114.6303,22.0,1004.1,21.3,88.0,22.281601983716047,40.8595
Q1128,2025-06-03 19:00:00,王瓦,武汉市,新洲区,30.7972,114.6519,13.8,1005.5,21.8,95.0,24.802006868807087,45.80200000000001
Q1129,2025-06-03 19:00:00,四道沟,武汉市,新洲区,30.73,114.7775,20.2,1005.7,21.0,96.0,23.863335713058383,44.53050000000005
Q1130,2025-06-03 19:00:00,道观河水库,武汉市,新洲区,30.8692,115.0061,92.7,997.5,19.9,85.0,19.74128924803344,45.58449999999997
Q1131,2025-06-03 19:00:00,大屋冲,武汉市,新洲区,30.9228,115.0169,109.7,995.5,20.3,80.0,19.045988848380915,42.7625
Q1132,2025-06-03 19:00:00,凤凰镇中心小学,武汉市,新洲区,30.9228,114.7528,34.0,1002.7,22.0,91.0,24.049739462991152,37.78349999999997
Q1133,2025-06-03 19:00:00,旧街利河小学,武汉市,新洲区,30.8536,114.9625,31.0,1003.1,20.1,86.0,20.22262806771081,31.345500000000047
Q1134,2025-06-03 19:00:00,双柳汉昕小学,武汉市,新洲区,30.6467,114.8336,15.0,1005.7,22.0,90.0,23.78545661174949,42.22749999999999
Q1135,2025-06-03 19:00:00,刘六,武汉市,新洲区,30.8819,114.8447,32.0,1003.3,20.8,91.0,22.343712498325917,42.58182142857142
Q1136,2025-06-03 19:00:00,涨渡湖湿地森林公园,武汉市,新洲区,30.6756,114.7642,28.8,1005.8,22.3,92.0,24.76284207639641,41.78349999999995
Q1191,2025-06-03 19:00:00,紫薇都市田园,武汉市,江岸区,30.8192,114.6042,35.7,1003.9,21.5,95.0,24.35079580833201,46.7642500000001
Q1201,2025-06-03 19:00:00,姚家集,武汉市,黄陂区,31.2047,114.3831,48.5,1002.9,20.3,98.0,23.33133633926662,46.906999999999954
Q1202,2025-06-03 19:00:00,蔡家榨,武汉市,黄陂区,30.9883,114.5211,88.0,998.3,21.3,90.0,22.788002028800506,48.44449999999996
Q1203,2025-06-03 19:00:00,李家集,武汉市,黄陂区,30.9947,114.2333,37.5,1002.6,20.6,99.0,24.01016055714804,50.00700000000009
Q1204,2025-06-03 19:00:00,天河机场,武汉市,黄陂区,30.8131,114.2119,35.0,1003.6,22.5,90.0,24.52115938894506,46.67833333333324
Q1207,2025-06-03 19:00:00,蔡店,武汉市,黄陂区,31.2856,114.3106,67.0,1000.7,20.6,97.0,23.525106808518785,41.88099999999999
Q1208,2025-06-03 19:00:00,祁家湾,武汉市,黄陂区,30.8853,114.2261,41.0,1003.7,22.3,94.0,25.30116473023111,41.28600000000003
Q1209,2025-06-03 19:00:00,横店,武汉市,黄陂区,30.8003,114.2903,38.0,1002.8,23.5,85.0,24.60525016398829,47.85583333333335
Q1210,2025-06-03 19:00:00,盘龙城,武汉市,黄陂区,30.7506,114.3008,30.0,1003.4,22.6,84.0,23.02595822456805,41.30300000000007
Q1212,2025-06-03 19:00:00,夏家寺水库,武汉市,黄陂区,31.0553,114.4678,49.0,1001.6,21.5,92.0,23.581823309121525,38.86249999999999
Q1213,2025-06-03 19:00:00,刘家山,武汉市,黄陂区,31.3047,114.2033,537.0,949.2,20.4,83.0,19.88271896975048,48.794500000000006
Q1214,2025-06-03 19:00:00,三里桥,武汉市,江岸区,30.7583,114.4194,23.0,1005.8,20.9,96.0,23.716968354480315,55.62500000000001
Q1215,2025-06-03 19:00:00,罗汉寺,武汉市,黄陂区,30.9933,114.3361,48.0,1002.7,20.9,98.0,24.211071861865324,49.38450000000002
Q1216,2025-06-03 19:00:00,长轩岭,武汉市,黄陂区,31.1075,114.3617,49.0,1003.0,21.0,96.0,23.863335713058383,52.352500000000056
Q1217,2025-06-03 19:00:00,现代农展中心,武汉市,江岸区,30.7003,114.5036,21.0,1005.7,21.6,94.0,24.242494213928676,43.89258333333333
Q1218,2025-06-03 19:00:00,源泉,武汉市,黄陂区,31.2347,114.23,100.2,995.3,19.1,97.0,21.434635531447316,52.61549999999999
Q1219,2025-06-03 19:00:00,矿巴水库,武汉市,黄陂区,31.0919,114.2014,105.3,997.7,21.8,84.0,21.93019554715574,37.542499999999954
Q1220,2025-06-03 19:00:00,武湖,武汉市,江岸区,30.7003,114.4181,29.0,1005.3,22.7,85.0,23.44203468104901,50.524499999999904
Q1221,2025-06-03 19:00:00,滠口,武汉市,黄陂区,30.7122,114.3606,17.3,1004.6,22.0,92.0,24.31402231423281,46.58783333333332
Q1222,2025-06-03 19:00:00,农科院北区,武汉市,江岸区,30.7164,114.4722,28.0,1005.5,21.5,92.0,23.581823309121525,51.119500000000016
Q1224,2025-06-03 19:00:00,崇杰,武汉市,黄陂区,31.2561,114.3842,50.2,1002.6,20.6,97.0,23.525106808518785,45.58099999999996
Q1225,2025-06-03 19:00:00,梅店水库,武汉市,黄陂区,31.1831,114.3153,65.1,1000.7,20.9,96.0,23.716968354480315,49.42150000000001
Q1226,2025-06-03 19:00:00,道士冲,武汉市,黄陂区,31.2664,114.2336,106.9,995.8,19.6,96.0,21.88460134569413,45.65300000000005
Q1227,2025-06-03 19:00:00,姚家老屋,武汉市,黄陂区,31.2417,114.2836,87.3,998.0,19.9,95.0,22.06379386544913,40.751333333333335
Q1228,2025-06-03 19:00:00,双墩,武汉市,黄陂区,30.8536,114.1789,22.0,1003.8,22.6,94.0,25.767143727492822,45.694
Q1229,2025-06-03 19:00:00,红旗,武汉市,黄陂区,30.9553,114.1625,21.6,1003.8,21.3,96.0,24.30720216405387,49.20150000000005
Q1230,2025-06-03 19:00:00,同兴集,武汉市,黄陂区,31.1272,114.4814,46.7,1001.2,20.5,94.0,22.65727337915539,40.41750000000009
Q1231,2025-06-03 19:00:00,磨盘,武汉市,黄陂区,31.1839,114.4325,61.2,999.4,20.1,96.0,22.574096447677185,40.10299999999996
Q1232,2025-06-03 19:00:00,吊箭楼,武汉市,黄陂区,31.1419,114.4219,73.8,997.9,21.3,91.0,23.041202051342733,44.92750000000001
Q1233,2025-06-03 19:00:00,卧虎,武汉市,黄陂区,31.035,114.3906,29.0,1003.0,20.8,94.0,23.08031840486413,40.58000000000004
Q1234,2025-06-03 19:00:00,院基寺水库,武汉市,黄陂区,31.0972,114.315,48.5,1000.8,20.8,96.0,23.571389009222937,52.206499999999984
Q1235,2025-06-03 19:00:00,彭家冲,武汉市,黄陂区,31.0725,114.2422,86.4,998.9,20.6,92.0,22.31247243694565,45.73100000000002
Q1236,2025-06-03 19:00:00,红十月水库,武汉市,黄陂区,30.9511,114.4708,49.0,1000.9,21.5,93.0,23.83814747552502,44.57600000000005
Q1237,2025-06-03 19:00:00,北新,武汉市,黄陂区,31.0414,114.3053,60.4,999.4,21.1,92.0,23.01005742829146,56.11049999999996
Q1238,2025-06-03 19:00:00,余家冲水库,武汉市,黄陂区,31.3386,114.2825,96.0,995.3,20.4,97.0,23.236430603202365,60.44150000000005
Q1239,2025-06-03 19:00:00,官家砦,武汉市,黄陂区,31.0269,114.1628,34.0,1002.7,21.9,93.0,24.428682724243327,60.44050000000004
Q1243,2025-06-03 19:00:00,定正,武汉市,黄陂区,30.9133,114.4825,21.0,1003.7,20.8,97.0,23.816924311402342,57.60450000000012
Q1244,2025-06-03 19:00:00,黄陂石门,武汉市,黄陂区,31.1486,114.3,62.7,999.8,19.6,97.0,22.112565943045105,48.3250000000001
Q1245,2025-06-03 19:00:00,仁和,武汉市,黄陂区,31.25,114.3386,27.9,1002.7,20.1,96.0,22.574096447677185,48.50349999999996
Q1246,2025-06-03 19:00:00,帽子村,武汉市,黄陂区,31.1961,114.4222,55.1,1000.0,20.8,95.0,23.32585370704353,46.3205
Q1247,2025-06-03 19:00:00,白庙集,武汉市,黄陂区,30.9967,114.2653,53.0,1002.7,21.7,93.0,24.131831432305564,44.22200000000001
Q1248,2025-06-03 19:00:00,白龙寺,武汉市,黄陂区,30.9969,114.4553,28.8,1004.4,21.3,95.0,24.05400214151164,45.26950000000007
Q1250,2025-06-03 19:00:00,童家湖,武汉市,黄陂区,30.7614,114.1772,14.3,1005.0,22.8,88.0,24.417152825921377,46.7905
Q1251,2025-06-03 19:00:00,艾馆,武汉市,黄陂区,30.9539,114.6003,55.1,999.9,21.4,92.0,23.437726357675157,57.43800000000002
Q1252,2025-06-03 19:00:00,全华,武汉市,黄陂区,30.8608,114.2969,43.9,1001.5,21.9,97.0,25.479378755393576,63.252691666666806
Q1253,2025-06-03 19:00:00,下店,武汉市,黄陂区,30.9294,114.3856,35.8,1002.5,21.8,97.0,25.324154381834603,58.23500000000001
Q1254,2025-06-03 19:00:00,黄陂郑店,武汉市,黄陂区,30.9661,114.2142,32.9,1002.3,21.5,97.0,24.863444141139,52.17199999999999
Q1255,2025-06-03 19:00:00,茶庙,武汉市,黄陂区,31.2994,114.4211,65.4,999.0,21.0,93.0,23.11760647202531,46.71499999999998
Q1270,2025-06-03 19:00:00,木兰天池,武汉市,黄陂区,31.1797,114.2817,337.8,971.6,19.0,92.0,20.20325785789222,41.43449999999997
Q1271,2025-06-03 19:00:00,云雾山,武汉市,黄陂区,31.1264,114.2086,122.0,994.5,19.9,99.0,22.99279571241541,54.05350000000001
Q1301,2025-06-03 19:00:00,老屋汤,武汉市,江夏区,30.3508,114.4364,20.5,1005.5,21.7,98.0,25.429241724365003,46.47249999999999
Q1302,2025-06-03 19:00:00,安山,武汉市,江夏区,30.1533,114.2303,42.0,1003.5,22.2,87.0,23.274803015263952,46.79850000000004
Q1303,2025-06-03 19:00:00,金口,武汉市,江夏区,30.3481,114.1275,27.6,1005.1,22.4,100.0,27.080493204289816,47.601999999999954
Q1304,2025-06-03 19:00:00,郑店,武汉市,江夏区,30.285,114.2281,32.6,1004.9,21.0,93.0,23.11760647202531,54.11850000000005
Q1305,2025-06-03 19:00:00,法泗,武汉市,江夏区,30.1131,114.1917,24.0,1005.3,23.5,87.0,25.18419722667037,32.414499999999954
Q1306,2025-06-03 19:00:00,五里界,武汉市,江夏区,30.3058,114.4239,38.2,1003.8,21.1,97.0,24.260604027655123,54.4414999999999
Q1307,2025-06-03 19:00:00,山坡,武汉市,江夏区,30.0333,114.3808,40.0,1003.1,20.7,94.0,22.9385400247552,52.88600000000001
Q1308,2025-06-03 19:00:00,湖泗,武汉市,江夏区,30.0231,114.4622,40.8,1003.6,20.5,95.0,22.898308202337898,52.48366666666663
Q1309,2025-06-03 19:00:00,舒安,武汉市,江夏区,30.1494,114.5,32.3,1004.0,20.5,95.0,22.898308202337898,53.019000000000005
Q1310,2025-06-03 19:00:00,乌龙泉,武汉市,江夏区,30.2106,114.3286,35.0,1004.0,21.4,91.0,23.18296846248304,52.19550000000004
Q1311,2025-06-03 19:00:00,庙山,武汉市,江夏区,30.4372,114.3781,19.7,1005.6,21.8,94.0,24.54093311229333,48.95400000000004
Q1313,2025-06-03 19:00:00,梁子湖,武汉市,江夏区,30.2603,114.4494,22.8,1005.8,22.1,93.0,24.72873032055432,48.87550000000003
Q1314,2025-06-03 19:00:00,庙山天玺湾,武汉市,江夏区,30.3864,114.38,22.0,1005.6,22.1,89.0,23.665129016444457,46.29500000000001
Q1316,2025-06-03 19:00:00,中央大公园,武汉市,江夏区,30.3872,114.3056,26.0,1005.5,21.9,93.0,24.428682724243327,49.337500000000055
Q1317,2025-06-03 19:00:00,郑店海吉星,武汉市,江夏区,30.3178,114.2592,28.0,1005.3,20.6,96.0,23.28257993420416,54.44600000000001
Q1318,2025-06-03 19:00:00,五里界锦绣,武汉市,江夏区,30.3278,114.3869,27.0,1003.8,20.9,98.0,24.211071861865324,53.67750000000007
Q1319,2025-06-03 19:00:00,舒安未来家园,武汉市,江夏区,30.1294,114.4775,35.0,1005.5,21.8,86.0,22.452343060183257,46.29450000000001
Q1320,2025-06-03 19:00:00,湖泗祝祠,武汉市,江夏区,30.005,114.5111,55.0,1003.0,20.5,95.0,22.898308202337898,52.90149999999997
Q1321,2025-06-03 19:00:00,舒安嗣孟,武汉市,江夏区,30.0417,114.5383,49.0,1003.7,20.5,99.0,23.862447495067915,54.62250000000007
Q1322,2025-06-03 19:00:00,乌龙泉茗泉谷,武汉市,江夏区,30.2406,114.3142,66.0,1002.0,21.1,95.0,23.760385387909658,51.81566666666662
Q1323,2025-06-03 19:00:00,山坡光星,武汉市,江夏区,30.0956,114.3458,24.0,1005.9,20.2,100.0,23.66068752068048,39.40349999999999
Q1324,2025-06-03 19:00:00,乌龙泉杨湖,武汉市,江夏区,30.2308,114.4347,24.0,1005.9,20.8,95.0,23.32585370704353,53.00950000000002
Q1325,2025-06-03 19:00:00,金口南岸,武汉市,江夏区,30.2164,114.0742,24.0,1005.7,22.7,90.0,24.820977897581308,45.284999999999975
Q1326,2025-06-03 19:00:00,金水花篮棚,武汉市,江夏区,30.2019,114.1539,21.0,1005.8,23.0,91.0,25.55758116770517,42.55999999999995
Q1327,2025-06-03 19:00:00,法泗花莲湖,武汉市,江夏区,30.2031,114.1856,23.0,1005.7,23.0,92.0,25.838433708009617,41.19149999999994
Q1328,2025-06-03 19:00:00,东湖路学校,武汉市,江夏区,30.3664,114.3228,23.0,1005.5,23.6,75.0,21.841895452614946,40.217000000000056
Q1329,2025-06-03 19:00:00,金口长江,武汉市,江夏区,30.2903,114.0978,21.1,1005.5,21.7,97.0,25.169759665953112,41.447500000000055
Q1330,2025-06-03 19:00:00,马蹄口,武汉市,江夏区,30.2444,114.1503,23.7,1005.4,22.7,96.0,26.47570975742006,47.05549999999993
Q1331,2025-06-03 19:00:00,三门口,武汉市,江夏区,30.2861,114.1775,43.3,1003.0,21.8,95.0,24.802006868807087,49.85799999999997
Q1332,2025-06-03 19:00:00,塘口,武汉市,江夏区,30.1914,114.4686,20.9,1005.9,21.4,94.0,23.947242148059395,53.72949999999999
Q1333,2025-06-03 19:00:00,三合,武汉市,江夏区,30.1481,114.36,34.1,1004.5,21.1,95.0,23.760385387909658,57.12400000000005
Q1334,2025-06-03 19:00:00,乌龙泉五星,武汉市,江夏区,30.1872,114.3167,41.0,1003.5,20.7,95.0,23.182567046295148,54.89600000000008
Q1335,2025-06-03 19:00:00,邓家洲,武汉市,江夏区,30.0183,114.25,21.7,1005.7,22.6,87.0,23.848313875445488,40.836999999999925
Q1336,2025-06-03 19:00:00,前途,武汉市,江夏区,30.0481,114.3033,35.5,1004.1,20.6,97.0,23.525106808518785,52.69599999999995
Q1337,2025-06-03 19:00:00,涂洲,武汉市,江夏区,30.2183,114.2303,28.3,1004.9,20.9,94.0,23.222864847095316,54.36050000000013
Q1338,2025-06-03 19:00:00,合心,武汉市,江夏区,30.1039,114.2444,31.2,1004.7,20.7,97.0,23.670621089375047,55.031999999999954
Q1339,2025-06-03 19:00:00,沿湖,武汉市,江夏区,30.1778,114.3586,32.5,1004.6,20.6,96.0,23.28257993420416,55.092000000000034
Q1340,2025-06-03 19:00:00,长岭,武汉市,江夏区,30.2194,114.3758,21.5,1005.8,20.5,98.0,23.62141267188541,51.05849999999997
Q1341,2025-06-03 19:00:00,祝庙,武汉市,江夏区,30.1742,114.5003,39.8,1003.7,20.9,94.0,23.222864847095316,54.6245000000001
Q1342,2025-06-03 19:00:00,陈六,武汉市,江夏区,30.0381,114.4119,39.1,1003.8,20.5,95.0,22.898308202337898,54.36266666666665
Q1343,2025-06-03 19:00:00,金口花园,武汉市,江夏区,30.3275,114.1272,27.9,1004.9,22.3,95.0,25.570326057148463,50.31649999999995
Q1344,2025-06-03 19:00:00,安山青春,武汉市,江夏区,30.1744,114.2619,26.9,1005.1,20.5,95.0,22.898308202337898,52.58950000000002
Q1345,2025-06-03 19:00:00,安山英雄,武汉市,江夏区,30.1472,114.3175,41.3,1003.6,20.5,95.0,22.898308202337898,52.28700000000001
Q1346,2025-06-03 19:00:00,周李家,武汉市,江夏区,30.0914,114.3069,40.7,1003.6,21.5,93.0,23.83814747552502,50.23699999999991
Q1347,2025-06-03 19:00:00,狮子山,武汉市,江夏区,30.2844,114.3825,35.2,1003.9,20.5,94.0,22.65727337915539,50.08649999999997
Q1348,2025-06-03 19:00:00,凉亭,武汉市,江夏区,30.3039,114.1303,26.0,1005.5,22.8,92.0,25.52702340891781,41.61849999999994
Q1349,2025-06-03 19:00:00,金港,武汉市,江夏区,30.3728,114.1886,24.9,1005.3,21.9,91.0,23.903334708668204,48.7105
Q1350,2025-06-03 19:00:00,山坡东方红,武汉市,江夏区,30.0536,114.2386,22.2,1005.7,22.7,88.0,24.26940061096839,42.77949999999997
Q1351,2025-06-03 19:00:00,新生,武汉市,江夏区,30.1067,114.4064,42.6,1003.5,21.4,90.0,22.92821056729091,49.318500000000014
Q1352,2025-06-03 19:00:00,官堤,武汉市,江夏区,30.0669,114.4333,38.5,1003.9,20.6,94.0,22.797526185574903,52.97166666666664
Q1353,2025-06-03 19:00:00,八分山,武汉市,江夏区,30.3608,114.2928,262.0,978.2,22.2,76.0,20.33201182942598,39.41449999999998
Q1354,2025-06-03 19:00:00,普生园,武汉市,江夏区,30.4092,114.3656,20.7,1004.4,23.6,80.0,23.298021816122613,41.69949999999994
Q1401,2025-06-03 19:00:00,东山,武汉市,东西湖区,30.7736,114.0089,20.9,1005.6,22.1,92.0,24.462829994526857,58.53150000000006
Q1402,2025-06-03 19:00:00,柏泉,武汉市,东西湖区,30.7692,114.1272,33.6,1004.6,22.0,93.0,24.57830516547447,48.07349999999994
Q1403,2025-06-03 19:00:00,郁金香公园,武汉市,东西湖区,30.7053,114.0806,21.0,1005.8,21.2,97.0,24.41009948504245,43.85049999999998
Q1404,2025-06-03 19:00:00,走马岭,武汉市,东西湖区,30.6506,114.0136,13.0,1005.2,22.7,84.0,23.166246037742557,28.7475
Q1405,2025-06-03 19:00:00,辛安渡,武汉市,东西湖区,30.7461,113.9286,31.3,1005.3,21.1,97.0,24.260604027655123,47.65599999999998
Q1406,2025-06-03 19:00:00,径河,武汉市,东西湖区,30.6808,114.1228,23.0,1005.1,22.9,85.0,23.72822582403468,39.78250000000007
Q1407,2025-06-03 19:00:00,将军路,武汉市,东西湖区,30.6642,114.2636,16.0,1005.1,22.1,96.0,25.52643129863672,57.27349999999992
Q1408,2025-06-03 19:00:00,杜公湖,武汉市,东西湖区,30.7228,114.145,25.0,1005.5,22.9,90.0,25.124003813683775,46.62900000000003
Q1410,2025-06-03 19:00:00,新沟,武汉市,东西湖区,30.6897,113.9931,22.0,1005.6,21.1,95.0,23.760385387909658,39.19750000000008
Q1411,2025-06-03 19:00:00,塔尔头,武汉市,东西湖区,30.6919,114.1892,32.0,1005.4,21.7,96.0,24.910277607541225,44.18999999999997
Q1412,2025-06-03 19:00:00,金银湖,武汉市,东西湖区,30.6422,114.1814,23.0,1005.4,22.6,89.0,24.39655097603044,40.92649999999997
Q1413,2025-06-03 19:00:00,红星合作社,武汉市,东西湖区,30.7642,113.9464,32.0,1005.5,20.8,98.0,24.06245961358175,54.6025
Q1501,2025-06-03 19:00:00,成功闸,武汉市,蔡甸区,30.3908,113.7656,21.0,1005.2,23.5,89.0,25.76314428935245,55.41699999999998
Q1502,2025-06-03 19:00:00,大集,武汉市,蔡甸区,30.5081,114.0531,30.0,1004.5,22.7,88.0,24.26940061096839,42.6015
Q1503,2025-06-03 19:00:00,索河,武汉市,蔡甸区,30.5236,113.8964,41.3,1003.7,22.2,94.0,25.14748831534266,40.73150000000004
Q1504,2025-06-03 19:00:00,桐湖农场,武汉市,蔡甸区,30.3917,113.9786,35.0,1005.4,22.7,90.0,24.820977897581308,41.42200000000002
Q1506,2025-06-03 19:00:00,消泗,武汉市,蔡甸区,30.3169,113.7728,27.0,1005.6,22.3,93.0,25.03200340331376,42.34699999999994
Q1507,2025-06-03 19:00:00,永安,武汉市,蔡甸区,30.4617,113.9281,48.6,1002.7,23.2,80.0,22.741884655475488,40.518000000000015
Q1509,2025-06-03 19:00:00,奓山,武汉市,蔡甸区,30.4297,114.0436,31.3,1004.3,22.9,87.0,24.28653701989432,41.07899999999997
Q1510,2025-06-03 19:00:00,侏儒,武汉市,蔡甸区,30.4525,113.8792,26.5,1005.2,22.0,96.0,25.37115371919945,46.25650000000003
Q1512,2025-06-03 19:00:00,沉湖湿地,武汉市,蔡甸区,30.3242,113.8619,25.0,1005.0,22.5,86.0,23.431330082769723,36.96800000000003
Q1513,2025-06-03 19:00:00,千子山,武汉市,蔡甸区,30.4078,114.0333,37.2,1003.7,23.1,88.0,24.865149185860936,45.965499999999935
Q1514,2025-06-03 19:00:00,九真山,武汉市,蔡甸区,30.4839,113.9544,122.0,994.2,20.5,98.0,23.62141267188541,52.0455
Q1515,2025-06-03 19:00:00,绿茵园,武汉市,蔡甸区,30.4467,114.0142,27.3,1004.9,22.8,86.0,23.862217534423163,41.65150000000001
Q1516,2025-06-03 19:00:00,时光农场,武汉市,蔡甸区,30.4086,113.8017,21.5,1005.6,22.2,96.0,25.68254125822229,45.73849999999997
Q1517,2025-06-03 19:00:00,农耕园,武汉市,蔡甸区,30.4275,113.9525,22.7,1005.5,21.5,99.0,25.376092473945988,42.67900000000003
Q1518,2025-06-03 19:00:00,花博汇,武汉市,蔡甸区,30.4956,114.0656,32.4,1005.6,21.3,96.0,24.30720216405387,44.05749999999999
Q1519,2025-06-03 19:00:00,鸽翅岭,武汉市,蔡甸区,30.5394,113.9619,32.0,1004.4,21.1,95.0,23.760385387909658,33.52200000000006
Q1520,2025-06-03 19:00:00,景秀大地,武汉市,蔡甸区,30.4989,113.9781,22.3,1005.5,21.3,96.0,24.30720216405387,44.325499999999984
Q1521,2025-06-03 19:00:00,七沟,武汉市,蔡甸区,30.4289,113.7733,23.2,1005.4,22.6,93.0,25.493025177200348,47.4885
Q1522,2025-06-03 19:00:00,香草花田,武汉市,蔡甸区,30.5133,113.8858,27.1,1004.9,21.0,97.0,24.111912126736076,35.912499999999994
Q1523,2025-06-03 19:00:00,金龙水寨,武汉市,蔡甸区,30.54,113.9247,22.2,1005.5,22.1,92.0,24.462829994526857,42.6824999999999
Q1524,2025-06-03 19:00:00,谢八家,武汉市,蔡甸区,30.6244,113.9264,24.8,1005.1,22.4,95.0,25.726468544075324,46.92750000000001
Q1525,2025-06-03 19:00:00,蔡甸野生动物王国,武汉市,蔡甸区,30.5567,113.9353,23.3,1005.3,22.3,95.0,25.570326057148463,46.954000000000015
Q1526,2025-06-03 19:00:00,长江大学,武汉市,蔡甸区,30.5292,114.0256,21.5,1005.6,22.7,88.0,24.26940061096839,41.08299999999996
Q1527,2025-06-03 19:00:00,蔡甸汉江堤防,武汉市,蔡甸区,30.6311,113.9797,26.1,1004.9,22.6,92.0,25.21890662690787,40.55050000000001
Q1528,2025-06-03 19:00:00,后官湖湿地公园,武汉市,蔡甸区,30.5306,114.0786,24.3,1005.2,22.2,88.0,23.542329486703768,42.26833333333333
Q1529,2025-06-03 19:00:00,张家大湖,武汉市,蔡甸区,30.3156,113.8164,23.3,1005.5,22.5,94.0,25.610988695120398,51.47949999999999
Q1599,2025-06-03 19:00:00,孙家畈,武汉市,蔡甸区,30.5664,114.0289,17.8,1005.1,22.3,94.0,25.30116473023111,43.24799999999999
Q1701,2025-06-03 19:00:00,藏龙岛,武汉市,江夏区,30.4017,114.4189,30.0,1004.9,21.8,99.0,25.846301894862123,47.36549999999999
Q1702,2025-06-03 19:00:00,东湖高新射击场,武汉市,洪山区,30.5039,114.4608,40.0,1004.0,21.0,85.0,21.128995162603776,35.71300000000004
Q1703,2025-06-03 19:00:00,武汉欢乐谷,武汉市,洪山区,30.5972,114.3886,30.0,1005.5,23.2,70.0,19.899149073541047,32.42400000000004
Q1704,2025-06-03 19:00:00,东湖湖心亭,武汉市,武昌区,30.57,114.39,30.0,1005.3,22.8,89.0,24.694620471670486,37.72149999999999
Q1706,2025-06-03 19:00:00,青山沙排中心,武汉市,青山区,30.6508,114.3919,30.0,1005.0,22.9,100.0,27.915559792981977,47.231999999999935
Q1707,2025-06-03 19:00:00,驿山高尔夫,武汉市,洪山区,30.5,114.5006,50.0,1001.3,21.4,88.0,22.41869477690667,44.61200000000005
Q1708,2025-06-03 19:00:00,华科,武汉市,武昌区,30.5094,114.4117,40.0,1004.0,22.5,78.0,21.25167147041905,35.63375000000003
Q1709,2025-06-03 19:00:00,省奥体中心,武汉市,市辖区,30.4739,114.4547,40.0,1002.9,23.3,88.0,25.167798951258103,44.06899999999996
Q1710,2025-06-03 19:00:00,洪山体育馆,武汉市,武昌区,30.5489,114.3281,30.0,1003.9,24.1,81.0,24.3100421648245,48.04749999999999
Q1711,2025-06-03 19:00:00,武汉体育学院,武汉市,洪山区,30.5219,114.3725,30.0,1005.0,23.2,74.0,21.036243306314823,37.56249999999995
Q1712,2025-06-03 19:00:00,武大,武汉市,武昌区,30.5383,114.3511,30.0,1005.1,22.5,83.0,22.61395810313822,46.62650000000004
Q1713,2025-06-03 19:00:00,武汉软件职院,武汉市,市辖区,30.4508,114.4231,30.0,1004.3,23.0,97.0,27.242696409531877,49.10650000000006
Q1714,2025-06-03 19:00:00,武汉理工大学,武汉市,洪山区,30.5058,114.325,30.0,1005.5,24.2,78.0,23.55069689167565,38.69099999999999
Q1715,2025-06-03 19:00:00,武汉城市职院,武汉市,洪山区,30.4414,114.3086,20.0,1005.7,23.7,87.0,25.48980736742955,39.05799999999997
Q1716,2025-06-03 19:00:00,武汉体育中心,武汉市,汉南区,30.5061,114.1683,30.0,1005.4,23.5,93.0,26.921038414716605,49.652499999999925
Q1717,2025-06-03 19:00:00,武汉商学院,武汉市,汉南区,30.4664,114.08,30.0,1005.4,22.6,100.0,27.41185502924769,50.4405
Q1718,2025-06-03 19:00:00,江汉大学,武汉市,汉南区,30.5208,114.1497,30.0,1005.4,22.8,100.0,27.746764574910657,44.432499999999976
Q1720,2025-06-03 19:00:00,全民健身中心,武汉市,江岸区,30.6472,114.2831,30.0,1005.7,23.3,86.0,24.59580352054769,52.466000000000015
Q1721,2025-06-03 19:00:00,汉口文体中心,武汉市,江汉区,30.6028,114.2636,30.0,1005.6,23.4,92.0,26.47125439259409,40.52100000000002
Q1722,2025-06-03 19:00:00,汉阳沙排中心,武汉市,汉阳区,30.5017,114.2308,30.0,1004.9,22.8,94.0,26.081958700416017,46.94899999999991
Q1723,2025-06-03 19:00:00,军山,武汉市,汉南区,30.3978,114.1156,40.0,1003.4,22.4,100.0,27.080493204289816,59.10600000000004
Q1724,2025-06-03 19:00:00,蔡甸国防园,武汉市,蔡甸区,30.4764,113.9647,60.0,1002.3,20.9,91.0,22.481709586017804,50.67000000000005
Q1725,2025-06-03 19:00:00,海工大木兰校区,武汉市,黄陂区,31.1183,114.4642,50.0,1002.3,21.6,100.0,25.789887461626247,50.48333333333339
Q1726,2025-06-03 19:00:00,体育中心,武汉市,东西湖区,30.6378,114.1269,20.0,1004.7,22.8,80.0,22.197411659928527,37.99100000000003
Q1727,2025-06-03 19:00:00,东湖帆船基地,武汉市,武昌区,30.5425,114.3689,30.0,1005.6,22.1,93.0,24.72873032055432,47.72999999999999
Q1728,2025-06-03 19:00:00,雷神山,武汉市,江夏区,30.4408,114.2756,20.0,1005.6,23.4,94.0,27.046716444607007,41.24900000000003
Q1729,2025-06-03 19:00:00,桂子米业,武汉市,江夏区,30.1603,114.1839,47.0,1003.3,22.5,97.0,26.428360674751897,54.990499999999976
Q1730,2025-06-03 19:00:00,天子山教育基地,武汉市,江夏区,30.1494,114.4292,40.0,1004.3,20.7,100.0,24.40270215399489,50.99149999999998
Q1745,2025-06-03 19:00:00,中法生态城,武汉市,蔡甸区,30.5631,114.07,22.1,1005.1,22.6,89.0,24.39655097603044,39.767999999999965
Q1753,2025-06-03 19:00:00,高新大道,武汉市,市辖区,30.4872,114.4561,50.0,1002.2,21.9,87.0,22.85263867751795,47.83400000000004
Q1754,2025-06-03 19:00:00,天兴洲大桥,武汉市,洪山区,30.6575,114.4003,60.0,1000.2,24.6,60.0,18.555592213233304,29.89799999999997
Q1755,2025-06-03 19:00:00,知音桥,武汉市,硚口区,30.5811,114.2161,35.0,1004.2,23.7,82.0,24.024875909531296,40.45600000000002
Q1756,2025-06-03 19:00:00,晴川桥,武汉市,硚口区,30.5656,114.2783,15.0,1003.5,23.9,81.0,24.01944261688632,41.39900000000002
Q1759,2025-06-03 19:00:00,长江二桥,武汉市,江岸区,30.6036,114.3217,20.0,1001.8,23.7,78.0,22.8529307432127,45.09549999999994
Q1760,2025-06-03 19:00:00,二七长江大桥,武汉市,江岸区,30.6294,114.3394,25.0,1001.2,24.2,75.0,22.644900857380428,35.79250000000005
Q1761,2025-06-03 19:00:00,杨泗港长江大桥,武汉市,汉阳区,30.5069,114.2625,30.0,1000.6,24.2,78.0,23.55069689167565,46.65899999999997
Q1762,2025-06-03 19:00:00,鹦鹉洲大桥,武汉市,汉阳区,30.5339,114.2764,40.0,1001.6,23.9,77.0,22.83329730247217,35.77749999999999
Q1763,2025-06-03 19:00:00,古田桥,武汉市,硚口区,30.5872,114.1797,25.0,1003.4,24.6,75.0,23.194490266541628,31.59199999999997
Q1764,2025-06-03 19:00:00,月湖桥,武汉市,硚口区,30.5644,114.2483,35.0,1004.0,23.7,79.0,23.145917034792348,43.84299999999992
Q1766,2025-06-03 19:00:00,青化立交,武汉市,洪山区,30.6058,114.43,20.0,1004.0,22.8,67.0,18.59033226519014,28.904
Q1767,2025-06-03 19:00:00,欢乐大道,武汉市,市辖区,30.6017,114.41,22.0,1004.3,24.1,58.0,17.407190685923712,30.102500000000024
Q1768,2025-06-03 19:00:00,姑嫂树立交,武汉市,东西湖区,30.6386,114.2514,26.0,1003.7,24.4,73.0,22.307099904298912,36.426499999999976
Q1769,2025-06-03 19:00:00,楚康路出口,武汉市,洪山区,30.5097,114.3594,18.0,1003.9,24.2,73.0,22.04103683451695,36.10150000000001
Q1770,2025-06-03 19:00:00,长丰大道,武汉市,硚口区,30.6083,114.2083,22.0,1004.1,23.9,76.0,22.53676097386864,41.565
Q1775,2025-06-03 19:00:00,汪家咀立交,武汉市,汉阳区,30.5186,114.1814,17.0,1003.8,23.7,86.0,25.196821075849897,44.36549999999998
Q1778,2025-06-03 19:00:00,老武黄立交,武汉市,市辖区,30.5103,114.4556,8.0,1003.1,21.4,84.0,21.39966319613818,31.87474999999997
Q1779,2025-06-03 19:00:00,青菱立交,武汉市,洪山区,30.4628,114.2886,13.0,1004.7,23.8,85.0,25.054313517412005,37.38400000000001
Q2004,2025-06-03 19:00:00,红卫,十堰市,张湾区,32.6525,110.7253,336.4,969.9,19.2,91.0,20.23459363728597,32.65349999999997
Q2022,2025-06-03 19:00:00,小川,十堰市,茅箭区,32.4628,110.7172,643.8,937.3,16.9,96.0,18.47129252814361,37.18150000000005
Q2023,2025-06-03 19:00:00,黄龙,十堰市,张湾区,32.6861,110.5586,186.4,986.6,19.9,94.0,21.831543403707567,47.6385
Q2031,2025-06-03 19:00:00,紫霄宫,十堰市,丹江口市,32.4253,111.0228,851.0,914.5,19.2,63.0,14.008564825813364,25.13300000000001
Q2032,2025-06-03 19:00:00,八仙观,十堰市,丹江口市,32.4308,111.0567,588.0,944.7,22.2,44.0,11.771164743351884,18.678500000000028
Q2033,2025-06-03 19:00:00,太子坡,十堰市,丹江口市,32.4489,111.0708,558.0,946.2,21.3,56.0,14.179201262364758,24.857000000000003
Q2034,2025-06-03 19:00:00,元和观,十堰市,丹江口市,32.4978,111.0942,396.0,962.6,22.3,54.0,14.534711653537023,24.59500000000001
Q2050,2025-06-03 19:00:00,火车站小学,十堰市,茅箭区,32.6017,110.7742,310.0,973.6,20.9,74.0,18.28182977324524,31.248000000000005
Q2204,2025-06-03 19:00:00,习家店,十堰市,丹江口市,32.7708,111.1592,253.1,979.1,19.4,93.0,20.938584202629794,45.033833333333305
Q2205,2025-06-03 19:00:00,石鼓,十堰市,丹江口市,32.7553,111.3811,297.0,973.9,23.1,71.0,20.061654456774168,26.66350000000001
Q2206,2025-06-03 19:00:00,丁家营,十堰市,丹江口市,32.4447,111.2453,186.0,987.1,18.9,98.0,21.386848822334564,40.54600000000009
Q2236,2025-06-03 19:00:00,蒿口新村,十堰市,丹江口市,32.5219,111.0364,179.1,987.5,19.8,83.0,19.15756613656647,33.72600000000004
Q2261,2025-06-03 19:00:00,马鞍山,十堰市,丹江口市,32.3306,111.1797,503.1,951.9,17.3,80.0,15.787817021835862,22.881000000000007
Q2266,2025-06-03 19:00:00,大坝街道,十堰市,丹江口市,32.5486,111.5125,133.4,992.2,21.7,100.0,25.948205841188777,51.28800000000002
Q2309,2025-06-03 19:00:00,茶店,十堰市,郧阳区,32.7992,110.8847,212.2,984.1,19.8,93.0,21.46570663494797,45.78974999999996
Q2324,2025-06-03 19:00:00,安阳,十堰市,郧阳区,32.8525,111.0044,221.0,981.9,18.9,92.0,20.07744991484469,48.08780000000012
Q2326,2025-06-03 19:00:00,五峰,十堰市,郧阳区,32.8278,110.3708,193.5,986.9,19.1,94.0,20.771708659340696,34.14499999999999
Q2334,2025-06-03 19:00:00,塘上,十堰市,郧阳区,33.0756,110.735,834.7,916.1,13.2,94.0,14.253514416989942,26.089499999999983
Q2350,2025-06-03 19:00:00,韩家沟,十堰市,郧阳区,32.8653,110.6186,244.8,981.6,17.3,95.0,18.748032713430085,38.75212500000002
Q2353,2025-06-03 19:00:00,毛河,十堰市,郧阳区,32.5125,110.4669,537.4,948.7,18.1,96.0,19.92573938856708,41.80149999999994
Q2401,2025-06-03 19:00:00,上津,十堰市,郧西县,33.0742,110.0211,273.4,978.8,18.0,89.0,18.35699804378453,36.26949999999997
Q2402,2025-06-03 19:00:00,马安,十堰市,郧西县,33.0053,110.2311,374.2,966.9,16.6,97.0,18.311378478018742,39.122999999999976
Q2403,2025-06-03 19:00:00,土门,十堰市,郧西县,33.0589,110.3233,364.3,967.6,17.8,91.0,18.53461884841994,38.955999999999925
Q2405,2025-06-03 19:00:00,六郎,十堰市,郧西县,32.9978,110.0711,264.9,976.4,17.9,91.0,18.6517420053096,34.3285
Q2409,2025-06-03 19:00:00,三官,十堰市,郧西县,33.1683,110.5619,838.1,915.9,12.7,97.0,14.235063667541398,25.84749999999999
Q2411,2025-06-03 19:00:00,槐树,十堰市,郧西县,33.2025,109.9003,794.0,921.5,17.3,67.0,13.222296755787532,21.25150000000001
Q2423,2025-06-03 19:00:00,河夹,十堰市,郧西县,32.9303,110.5283,273.0,975.2,17.3,92.0,18.15598957511124,36.91799999999997
Q2424,2025-06-03 19:00:00,湖北口,十堰市,郧西县,33.1942,109.575,890.6,911.4,13.5,89.0,13.761996233431654,26.3395
Q2433,2025-06-03 19:00:00,包耳场,十堰市,郧西县,33.1864,109.75,640.0,938.3,15.1,96.0,16.464507432376536,28.69999999999996
Q2502,2025-06-03 19:00:00,土城,十堰市,房县,32.2775,110.6972,669.3,934.8,16.0,97.0,17.624229178092538,35.05399999999999
Q2503,2025-06-03 19:00:00,沙河,十堰市,房县,32.1378,111.0931,843.6,915.6,19.6,76.0,17.325309398674516,25.975000000000023
Q2504,2025-06-03 19:00:00,卧牛观,十堰市,房县,32.2108,110.9142,711.4,930.1,15.5,93.0,16.365155362638756,29.43750000000001
Q2505,2025-06-03 19:00:00,门古寺,十堰市,房县,32.0058,110.4417,624.2,940.0,17.5,96.0,19.186409162902557,36.62733333333335
Q2507,2025-06-03 19:00:00,军店,十堰市,房县,32.0336,110.6253,495.7,953.7,18.0,90.0,18.56325644877088,30.973000000000003
Q2509,2025-06-03 19:00:00,中坝,十堰市,房县,32.0064,110.28,795.4,920.8,17.6,87.0,17.49781227819787,50.66766666666666
Q2524,2025-06-03 19:00:00,三里坪,十堰市,房县,31.9419,110.9697,415.0,962.4,18.6,96.0,20.560845483806265,41.17300000000006
Q2528,2025-06-03 19:00:00,白鹤,十堰市,房县,32.0997,110.7728,464.5,957.1,18.1,92.0,19.09550024737679,35.79649999999998
Q2530,2025-06-03 19:00:00,汪家河,十堰市,房县,32.1044,110.5331,563.7,946.4,17.4,93.0,18.469761347130596,35.207500000000046
Q2532,2025-06-03 19:00:00,对寺河,十堰市,房县,32.3347,110.3903,265.0,980.6,19.3,94.0,21.032340912982743,45.92499999999998
Q2546,2025-06-03 19:00:00,南潭,十堰市,房县,31.9833,110.7353,737.0,927.5,15.7,97.0,17.28923746792555,33.94600000000003
Q2548,2025-06-03 19:00:00,白鸡,十堰市,房县,32.2303,110.7133,592.3,943.2,16.3,96.0,17.77971006939818,36.48300000000005
Q2559,2025-06-03 19:00:00,东蒿,十堰市,房县,31.8842,110.7753,1359.0,863.0,12.6,96.0,13.996226782667522,25.404500000000027
Q2605,2025-06-03 19:00:00,柳林,十堰市,竹山县,31.7169,110.0508,523.7,952.4,17.7,91.0,18.41814232645591,38.19699999999995
Q2623,2025-06-03 19:00:00,秦古,十堰市,竹山县,32.4331,109.82,580.3,944.6,18.1,91.0,18.88794046207921,42.32000000000004
Q2624,2025-06-03 19:00:00,擂鼓,十堰市,竹山县,32.3533,109.9286,513.9,951.9,18.6,100.0,21.41754737896486,40.221500000000034
Q2626,2025-06-03 19:00:00,溢水,十堰市,竹山县,32.2786,110.0842,508.8,952.3,18.8,93.0,20.16920351624428,39.09099999999995
Q2628,2025-06-03 19:00:00,深河,十堰市,竹山县,32.1117,110.2306,361.0,969.4,18.3,95.0,19.96749909419316,34.04806666666665
Q2655,2025-06-03 19:00:00,潘口,十堰市,竹山县,32.23,110.1844,273.8,978.7,19.0,96.0,21.081660373452745,34.36099999999996
Q2676,2025-06-03 19:00:00,北大街,十堰市,竹山县,32.2256,110.2261,307.0,975.0,19.7,96.0,22.021002278855697,41.12949999999999
Q2701,2025-06-03 19:00:00,龙坝,十堰市,竹溪县,32.3569,109.6453,563.6,946.3,18.0,90.0,18.56325644877088,39.77150000000002
Q2721,2025-06-03 19:00:00,泉溪,十堰市,竹溪县,32.0428,109.6986,849.5,916.0,15.6,100.0,17.71012876727402,51.66250000000003
Q2745,2025-06-03 19:00:00,界牌沟,十堰市,竹溪县,32.1683,109.5989,655.4,937.9,17.0,89.0,17.2333909205148,42.05700000000007
Q2748,2025-06-03 19:00:00,天宝,十堰市,竹溪县,31.9983,109.7814,498.9,952.6,17.3,97.0,19.14272813897598,33.109583333333354
Q2757,2025-06-03 19:00:00,高子河,十堰市,竹溪县,31.8119,109.7686,1063.6,894.5,13.9,100.0,15.870491605198511,52.079499999999925
Q2903,2025-06-03 19:00:00,新华,省直辖县级行政区划,神农架林区,31.5953,110.8861,716.7,930.8,16.4,91.0,16.961421616459614,34.375133333333295
Q2906,2025-06-03 19:00:00,徐家庄,省直辖县级行政区划,神农架林区,31.5622,110.5533,1398.1,859.9,11.0,94.0,12.330938846875291,20.91333333333334
Q2910,2025-06-03 19:00:00,木鱼,省直辖县级行政区划,神农架林区,31.4828,110.3786,1245.0,873.6,13.7,76.0,11.905808400307542,22.393
Q2912,2025-06-03 19:00:00,神农架机场,省直辖县级行政区划,神农架林区,31.6119,110.3383,2597.4,745.8,9.7,41.0,4.931223896937285,8.153000000000002
Q2916,2025-06-03 19:00:00,板桥,省直辖县级行政区划,神农架林区,31.4089,110.1781,1026.6,897.9,14.3,95.0,15.473119298516847,28.44300000000003
Q2923,2025-06-03 19:00:00,牛场坪,省直辖县级行政区划,神农架林区,31.5508,110.3911,2285.0,773.9,9.4,47.0,5.540057588928934,9.050500000000005
Q2925,2025-06-03 19:00:00,九冲,省直辖县级行政区划,神农架林区,31.4083,110.5553,699.8,932.4,16.3,80.0,14.816425057831818,24.884000000000004
Q2933,2025-06-03 19:00:00,大九湖,省直辖县级行政区划,神农架林区,31.4958,109.9953,1752.0,825.1,10.2,96.0,11.939518915586984,23.23583333333332
Q2940,2025-06-03 19:00:00,红花,省直辖县级行政区划,神农架林区,31.3992,110.475,819.5,919.7,15.4,89.0,15.561107569718416,28.43399999999998
Q2950,2025-06-03 19:00:00,阳日,省直辖县级行政区划,神农架林区,31.7328,110.8061,498.0,954.1,17.3,86.0,16.97190329847355,34.73699999999998
Q2957,2025-06-03 19:00:00,青天袍,省直辖县级行政区划,神农架林区,31.5144,110.3881,1569.0,844.5,14.2,49.0,7.929351218165463,11.741
Q3005,2025-06-03 19:00:00,隆中,襄阳市,襄城区,31.9889,112.0322,107.3,995.5,19.8,96.0,22.15814878446242,44.21699999999999
Q3008,2025-06-03 19:00:00,襄阳老站,襄阳市,襄城区,32.0283,112.1664,68.6,1000.0,22.6,80.0,21.92948402339815,42.73500000000001
Q3012,2025-06-03 19:00:00,刘集小学,襄阳市,襄州区,32.1517,112.2992,70.1,999.5,20.9,87.0,21.493502571247788,43.14000000000003
Q3100,2025-06-03 19:00:00,东津,襄阳市,襄州区,32.0631,112.2203,69.7,999.5,21.4,98.0,24.966273728827883,50.30600000000001
Q3101,2025-06-03 19:00:00,朱集,襄阳市,襄州区,32.2967,112.3483,79.0,999.1,20.5,89.0,21.45209926324287,40.13150000000002
Q3103,2025-06-03 19:00:00,峪山,襄阳市,襄州区,31.9919,112.3706,93.0,998.0,20.8,93.0,22.834783102684725,41.08050000000003
Q3104,2025-06-03 19:00:00,龙王,襄阳市,襄州区,32.2089,111.9589,86.0,996.5,20.9,100.0,24.70517536925033,55.44699999999999
Q3106,2025-06-03 19:00:00,黄龙,襄阳市,襄州区,31.9858,112.4556,84.6,995.4,20.4,90.0,21.55957478647642,46.57449999999992
Q3107,2025-06-03 19:00:00,石桥,襄阳市,襄州区,32.3633,111.9611,110.7,995.0,21.2,88.0,22.145244893646765,36.48199999999998
Q3108,2025-06-03 19:00:00,程河,襄阳市,襄州区,32.2664,112.4508,114.6,995.6,22.5,75.0,20.43429949078755,30.963500000000025
Q3109,2025-06-03 19:00:00,伙牌,襄阳市,襄州区,32.1878,112.1847,108.3,995.2,21.8,81.0,21.146974277614465,46.21799999999993
Q3112,2025-06-03 19:00:00,张湾,襄阳市,襄州区,32.0886,112.1903,65.4,1000.0,22.7,80.0,22.06309146451672,41.10400000000004
Q3113,2025-06-03 19:00:00,黄集,襄阳市,襄州区,32.3253,112.1328,142.2,991.7,22.6,75.0,20.55889127193576,45.09399999999993
Q3202,2025-06-03 19:00:00,枣阳吴店,襄阳市,枣阳市,31.9703,112.75,167.5,988.5,21.5,77.0,19.736960813069103,35.501000000000005
Q3203,2025-06-03 19:00:00,七方,襄阳市,枣阳市,32.2017,112.5589,131.0,992.5,22.4,80.0,21.664394563431856,40.051
Q3206,2025-06-03 19:00:00,枣阳新市,襄阳市,枣阳市,32.3414,112.9942,241.1,980.3,23.0,65.0,18.255415119789404,25.44300000000003
Q3207,2025-06-03 19:00:00,刘升榆树,襄阳市,枣阳市,32.12,112.8781,156.0,989.3,21.2,90.0,22.64854591395692,61.92200000000005
Q3212,2025-06-03 19:00:00,琚湾,襄阳市,枣阳市,32.0417,112.5906,72.0,997.5,19.4,95.0,21.38887633601968,48.25625
Q3217,2025-06-03 19:00:00,姚棚水库,襄阳市,枣阳市,32.3253,112.8719,177.3,987.5,20.8,81.0,19.888359476531857,41.914000000000016
Q3218,2025-06-03 19:00:00,唐店,襄阳市,枣阳市,31.8503,112.8028,140.0,991.5,20.1,100.0,23.514683799663736,51.67050000000008
Q3237,2025-06-03 19:00:00,王城,襄阳市,枣阳市,31.9519,112.9217,115.0,994.4,19.4,96.0,21.614022402714625,47.12199999999999
Q3240,2025-06-03 19:00:00,北城,襄阳市,枣阳市,32.1411,112.7553,125.5,993.3,22.1,81.0,21.53792640822473,34.38149999999996
Q3305,2025-06-03 19:00:00,老河口半店,襄阳市,老河口市,32.4536,111.7536,153.1,989.6,20.8,92.0,22.58924780050532,39.74900000000003
Q3309,2025-06-03 19:00:00,方营,襄阳市,老河口市,32.3367,111.7022,90.0,997.6,20.1,100.0,23.514683799663736,50.380999999999965
Q3311,2025-06-03 19:00:00,老河口黄营,襄阳市,老河口市,32.3472,111.6742,80.3,997.9,20.0,100.0,23.36947123406443,47.33349999999998
Q3314,2025-06-03 19:00:00,农垦示范园,襄阳市,老河口市,32.4319,111.8458,148.3,990.7,21.6,86.0,22.179303216998573,40.229499999999945
Q3315,2025-06-03 19:00:00,老河口黑虎山水库,襄阳市,老河口市,32.5408,111.6622,163.3,988.6,21.9,87.0,22.85263867751795,29.41899999999996
Q3317,2025-06-03 19:00:00,古城水库,襄阳市,老河口市,32.5203,111.7786,145.2,990.8,22.5,84.0,22.886415429682053,43.25799999999997
Q3318,2025-06-03 19:00:00,老河口西关,襄阳市,老河口市,32.4217,111.6878,84.4,996.8,20.7,90.0,21.962431938595405,30.726999999999997
Q3321,2025-06-03 19:00:00,老河口老站,襄阳市,老河口市,32.38,111.67,90.0,997.3,21.6,93.0,23.984595339312413,43.03949999999997
Q3326,2025-06-03 19:00:00,白鹤岗,襄阳市,老河口市,32.2931,111.7247,89.0,997.6,21.3,99.0,25.066802231680555,48.02000000000005
Q3401,2025-06-03 19:00:00,五山,襄阳市,谷城县,32.2931,111.3314,180.0,988.1,17.8,94.0,19.145650239027187,26.141000000000005
Q3404,2025-06-03 19:00:00,谷城南河,襄阳市,谷城县,32.1678,111.4981,146.4,990.8,22.8,73.0,20.255138139684775,33.42950000000002
Q3405,2025-06-03 19:00:00,赵湾,襄阳市,谷城县,31.9917,111.4303,518.0,950.9,17.5,84.0,16.788108017539734,23.065500000000007
Q3409,2025-06-03 19:00:00,薤山,襄阳市,谷城县,32.1725,111.4061,701.7,930.1,23.0,37.0,10.391543991264736,16.677999999999983
Q3413,2025-06-03 19:00:00,茨河,襄阳市,谷城县,32.0483,111.8314,158.0,989.2,20.9,76.0,18.77593328063025,43.56500000000003
Q3414,2025-06-03 19:00:00,谷城城关,襄阳市,谷城县,32.2692,111.6333,86.6,998.1,22.7,0.0,0.0,6.176500000000001
Q3420,2025-06-03 19:00:00,紫金,襄阳市,谷城县,32.1342,111.3078,247.7,977.4,19.8,86.0,19.85000828608092,37.81399999999999
Q3501,2025-06-03 19:00:00,寺坪,襄阳市,保康县,31.9906,111.1233,275.0,978.4,19.4,100.0,22.5146066694944,42.9999999999999
Q3516,2025-06-03 19:00:00,两峪,襄阳市,保康县,31.5581,111.3953,660.0,934.9,16.7,87.0,16.52835355652397,23.634499999999985
Q3517,2025-06-03 19:00:00,歇马毛家岭,襄阳市,保康县,31.6419,111.1967,796.0,919.9,18.6,73.0,15.634809586644346,28.886
Q3520,2025-06-03 19:00:00,保康天宝寨,襄阳市,保康县,31.4017,111.2936,997.0,899.9,17.2,64.0,12.550577984839558,17.28500000000001
Q3525,2025-06-03 19:00:00,马良产业园,襄阳市,保康县,31.4942,111.3539,292.0,976.6,18.7,100.0,21.55206085216996,34.79399999999999
Q3545,2025-06-03 19:00:00,尧治河,襄阳市,保康县,31.8447,110.8022,1576.0,841.7,16.2,53.0,9.753483741235565,19.910999999999976
Q3555,2025-06-03 19:00:00,团结,襄阳市,保康县,31.68,111.0128,1064.0,890.4,17.8,58.0,11.813273551740178,18.570999999999994
Q3606,2025-06-03 19:00:00,武镇,襄阳市,南漳县,31.6647,111.9922,120.0,994.5,20.2,100.0,23.66068752068048,46.245499999999936
Q3608,2025-06-03 19:00:00,东巩,襄阳市,南漳县,31.3292,111.8253,183.0,983.7,19.0,100.0,21.96006288901328,31.35849999999996
Q3617,2025-06-03 19:00:00,薛坪,襄阳市,南漳县,31.6231,111.6778,820.0,918.4,15.5,82.0,14.42949182512234,27.717999999999996
Q3618,2025-06-03 19:00:00,长坪,襄阳市,南漳县,31.7775,111.5617,254.0,981.9,18.1,96.0,19.92573938856708,31.650549999999985
Q3623,2025-06-03 19:00:00,南漳大坪,襄阳市,南漳县,31.5489,111.8342,343.2,969.3,18.4,100.0,21.15073044549297,37.38849999999999
Q3632,2025-06-03 19:00:00,赵店,襄阳市,南漳县,31.9058,111.6194,271.6,977.2,17.2,92.0,18.041455853206863,29.19050000000001
Q3641,2025-06-03 19:00:00,漫云,襄阳市,南漳县,31.4556,111.6847,342.0,969.1,18.4,91.0,19.247164705398607,27.58799999999998
Q3748,2025-06-03 19:00:00,高楼,襄阳市,宜城市,31.6356,112.5942,141.0,991.9,21.2,92.0,23.15184693426708,37.59550000000001
Q3750,2025-06-03 19:00:00,孔湾,襄阳市,宜城市,31.5681,112.2661,55.0,1001.6,21.3,93.0,23.547602096427187,39.931499999999936
Q3751,2025-06-03 19:00:00,二库,襄阳市,宜城市,31.7467,112.4303,89.0,997.3,20.9,97.0,23.964020108172814,52.16700000000004
Q3752,2025-06-03 19:00:00,小南河,襄阳市,宜城市,31.4622,111.9878,177.5,987.6,20.9,89.0,21.987606078632798,30.35300000000003
Q3760,2025-06-03 19:00:00,刘猴,襄阳市,宜城市,31.4853,112.0169,159.0,990.3,20.2,95.0,22.477653144646453,45.281000000000006
Q3770,2025-06-03 19:00:00,谭湾,襄阳市,宜城市,31.7736,112.0389,94.0,996.5,21.8,89.0,23.235564329724536,37.32100000000004
Q3782,2025-06-03 19:00:00,联合,襄阳市,宜城市,31.8692,112.2653,86.0,997.8,18.9,97.0,21.168615671086247,32.223499999999994
Q3792,2025-06-03 19:00:00,流水,襄阳市,宜城市,31.5683,112.455,62.0,1001.4,20.7,96.0,23.426594067835097,40.76799999999997
Q3802,2025-06-03 19:00:00,殷店,随州市,随县,32.0808,113.5014,145.6,991.2,18.3,96.0,20.177683295184664,39.46450000000002
Q3803,2025-06-03 19:00:00,洪山,随州市,随县,31.6611,112.9072,154.4,990.3,19.5,93.0,21.069288079086977,41.800500000000056
Q3804,2025-06-03 19:00:00,柳林,随州市,随县,31.5336,113.2278,120.0,994.0,19.7,95.0,21.79161683845095,42.86400000000003
Q3805,2025-06-03 19:00:00,唐镇,随州市,随县,32.0003,113.105,127.7,993.5,19.1,97.0,21.434635531447316,53.13600000000001
Q3807,2025-06-03 19:00:00,厉山,随州市,随县,31.8839,113.3125,92.0,997.8,21.0,93.0,23.11760647202531,42.355833333333294
Q3809,2025-06-03 19:00:00,淮河,随州市,随县,32.3436,113.6333,153.8,989.7,16.9,96.0,18.47129252814361,37.95449999999999
Q3812,2025-06-03 19:00:00,万店,随州市,曾都区,31.8386,113.5169,115.0,994.4,21.3,91.0,23.041202051342733,34.92799999999999
Q3815,2025-06-03 19:00:00,澴潭,随州市,随县,31.8106,113.0514,115.3,994.6,19.9,96.0,22.296044327190703,39.57300000000001
Q3820,2025-06-03 19:00:00,吴山,随州市,随县,32.1531,113.0822,215.4,983.3,20.2,80.0,18.928550016544385,34.312000000000026
Q3823,2025-06-03 19:00:00,南郊,随州市,曾都区,31.7278,113.2831,64.1,1000.5,19.0,97.0,21.30126100234288,37.35025595238098
Q3829,2025-06-03 19:00:00,大堰坡,随州市,曾都区,31.61,113.4317,85.0,998.8,20.1,97.0,22.809243285673823,33.86641666666666
Q3830,2025-06-03 19:00:00,长岗,随州市,随县,31.53,112.9711,228.2,982.0,17.8,78.0,15.886816155788518,35.18799999999997
Q3831,2025-06-03 19:00:00,雷达站,随州市,曾都区,31.7164,113.3869,96.2,996.9,22.0,100.0,26.4282851241661,51.94850000000003
Q3832,2025-06-03 19:00:00,府河,随州市,曾都区,31.4911,113.5678,65.8,1000.4,20.8,97.0,23.816924311402342,43.654000000000025
Q3836,2025-06-03 19:00:00,新城,随州市,随县,32.3561,113.1931,215.4,983.4,18.2,87.0,18.17154841974552,34.76549999999996
Q3844,2025-06-03 19:00:00,东庄畈,随州市,随县,31.5131,113.0106,274.3,976.8,17.8,76.0,15.479461895383684,32.64349999999999
Q3845,2025-06-03 19:00:00,城南新区,随州市,曾都区,31.6922,113.3744,78.4,998.8,20.4,95.0,22.75732894128067,46.81416666666669
Q3847,2025-06-03 19:00:00,金顶,随州市,随县,31.4867,112.9781,1042.0,894.3,21.8,18.0,4.699327617247659,8.891000000000007
Q3852,2025-06-03 19:00:00,王家河,随州市,随县,31.9353,113.3081,122.2,993.8,20.1,100.0,23.514683799663736,31.305499999999974
Q3853,2025-06-03 19:00:00,银杏谷,随州市,曾都区,31.4347,113.2972,175.7,987.7,18.3,96.0,20.177683295184664,42.23199999999997
Q3854,2025-06-03 19:00:00,自在谷,随州市,随县,31.4703,112.9844,467.3,955.8,16.7,72.0,13.678637426088804,22.513999999999974
Q3855,2025-06-03 19:00:00,状元台,随州市,随县,31.4778,112.9647,981.1,901.0,19.8,29.0,6.693607445306355,12.036999999999995
Q3856,2025-06-03 19:00:00,北郊,随州市,曾都区,31.7839,113.3958,105.4,995.8,21.3,97.0,24.560402186596097,52.577000000000005
Q3857,2025-06-03 19:00:00,西城,随州市,曾都区,31.7206,113.3617,64.5,1000.4,21.5,93.0,23.83814747552502,38.28916666666667
Q3901,2025-06-03 19:00:00,余店,随州市,广水市,31.7872,113.6322,109.6,995.4,19.7,97.0,22.25038771926044,44.27850000000008
Q3902,2025-06-03 19:00:00,长岭,随州市,广水市,31.4711,113.5781,47.3,1002.4,21.2,97.0,24.41009948504245,48.48749999999996
Q3909,2025-06-03 19:00:00,蔡河,随州市,广水市,31.7264,113.8322,120.0,994.6,21.0,95.0,23.61475929938069,40.58900000000005
Q3911,2025-06-03 19:00:00,太平,随州市,广水市,31.4608,113.9217,46.4,1000.9,21.5,96.0,24.607119974735504,47.76700000000002
Q3913,2025-06-03 19:00:00,武胜关,随州市,广水市,31.7358,114.0353,100.0,996.1,19.1,96.0,21.21365990741177,33.13199999999999
Q3918,2025-06-03 19:00:00,应山,随州市,广水市,31.62,113.82,93.3,997.3,21.8,99.0,25.846301894862123,56.479999999999976
Q3924,2025-06-03 19:00:00,尹家湾,随州市,广水市,32.0019,113.7164,203.6,985.1,17.0,97.0,18.782459767302647,39.5445
Q4000,2025-06-03 19:00:00,葛洲坝,宜昌市,西陵区,30.7433,111.2694,67.8,1000.4,21.3,89.0,22.534802006258275,41.33449999999996
Q4001,2025-06-03 19:00:00,王家河公园,宜昌市,伍家岗区,30.6589,111.3303,56.3,1002.1,23.0,73.0,20.50223544222502,47.73450000000002
Q4002,2025-06-03 19:00:00,窑湾,宜昌市,西陵区,30.7186,111.3436,160.0,988.4,22.0,83.0,21.93547665305786,43.81799999999996
Q4003,2025-06-03 19:00:00,猇亭,宜昌市,猇亭区,30.5061,111.4444,42.6,1002.6,21.9,88.0,23.115312685305515,40.76999999999998
Q4005,2025-06-03 19:00:00,土城,宜昌市,点军区,30.6931,111.0022,615.0,939.4,19.1,68.0,15.026342434416676,23.701999999999995
Q4015,2025-06-03 19:00:00,白龙岗公园,宜昌市,西陵区,30.7067,111.2972,116.6,993.3,22.3,80.0,21.532906153388183,40.991499999999945
Q4019,2025-06-03 19:00:00,艾家小学,宜昌市,点军区,30.6183,111.3422,87.0,998.2,21.8,83.0,21.66912179064198,41.482499999999966
Q4022,2025-06-03 19:00:00,猇亭古战场,宜昌市,猇亭区,30.5697,111.3964,78.5,999.2,21.1,92.0,23.01005742829146,42.74399999999996
Q4023,2025-06-03 19:00:00,长岭,宜昌市,点军区,30.6519,111.205,100.0,996.7,20.9,88.0,21.74055432494029,39.97949999999992
Q4025,2025-06-03 19:00:00,鸣翠谷,宜昌市,点军区,30.7389,111.2333,98.8,996.9,20.9,90.0,22.234657832325297,39.15049999999997
Q4026,2025-06-03 19:00:00,沙河公园,宜昌市,西陵区,30.7417,111.3144,86.3,998.3,22.0,87.0,22.99260805802451,40.3365
Q4032,2025-06-03 19:00:00,宜昌一中,宜昌市,点军区,30.7086,111.2361,78.9,999.1,21.5,87.0,22.30020247710405,37.14699999999993
Q4033,2025-06-03 19:00:00,水井湾,宜昌市,伍家岗区,30.6853,111.3367,84.3,998.5,20.7,96.0,23.426594067835097,51.76649999999992
Q4034,2025-06-03 19:00:00,龙盘湖,宜昌市,伍家岗区,30.6161,111.4,62.5,1001.1,20.3,97.0,23.09326147866186,52.825999999999965
Q4035,2025-06-03 19:00:00,碧桂园公园,宜昌市,伍家岗区,30.6478,111.3658,88.6,998.0,21.8,89.0,23.235564329724536,44.54999999999996
Q4036,2025-06-03 19:00:00,夷陵中学,宜昌市,夷陵区,30.6967,111.3817,113.0,995.2,21.5,91.0,23.325499142718037,33.36750000000004
Q4037,2025-06-03 19:00:00,李家咀,宜昌市,点军区,30.7214,111.1625,389.1,964.2,20.2,82.0,19.401763766957988,31.32199999999996
Q4105,2025-06-03 19:00:00,太平溪,宜昌市,夷陵区,30.8789,110.9697,215.0,984.5,21.4,75.0,19.10684213940909,36.66499999999995
Q4109,2025-06-03 19:00:00,樟村坪林场,宜昌市,夷陵区,31.2667,111.15,1162.0,884.3,14.0,76.0,12.14012685950269,24.279999999999987
Q4111,2025-06-03 19:00:00,鸦鹊岭,宜昌市,夷陵区,30.6117,111.5211,109.2,995.6,22.2,87.0,23.274803015263952,33.737000000000045
Q4112,2025-06-03 19:00:00,王家垭,宜昌市,夷陵区,30.9667,110.9878,990.0,900.8,20.2,44.0,10.41070250909941,20.068
Q4113,2025-06-03 19:00:00,古村坪,宜昌市,夷陵区,30.9228,110.9672,855.0,914.4,20.2,52.0,12.30355751075385,20.47899999999997
Q4115,2025-06-03 19:00:00,百里荒,宜昌市,夷陵区,30.96,111.5114,1251.8,873.1,19.7,28.0,6.4227923313329125,10.803000000000022
Q4120,2025-06-03 19:00:00,秀水,宜昌市,夷陵区,31.1456,111.0747,1068.2,892.4,16.7,83.0,15.768429255074594,32.183000000000014
Q4127,2025-06-03 19:00:00,十字沟,宜昌市,夷陵区,31.0511,111.4406,402.0,963.5,19.6,80.0,18.23716778807844,31.931000000000004
Q4131,2025-06-03 19:00:00,二户坪,宜昌市,夷陵区,31.0117,111.3114,945.0,906.3,18.8,48.0,10.40991149225511,17.037500000000012
Q4140,2025-06-03 19:00:00,三峡大瀑布,宜昌市,夷陵区,30.9325,111.3158,169.1,987.4,19.0,99.0,21.740462260123145,37.63449999999998
Q4146,2025-06-03 19:00:00,沙坪,宜昌市,夷陵区,30.9192,111.0428,403.0,963.6,19.9,78.0,18.115536015842448,31.54349999999998
Q4148,2025-06-03 19:00:00,黄金河,宜昌市,夷陵区,31.0078,110.9369,705.9,930.5,18.9,53.0,11.566357016160527,21.54699999999996
Q4150,2025-06-03 19:00:00,古村,宜昌市,夷陵区,31.4353,111.2158,1098.9,889.3,13.8,83.0,13.087208686610886,25.096000000000007
Q4153,2025-06-03 19:00:00,马卧泥,宜昌市,夷陵区,31.2117,111.2406,1073.1,891.9,18.0,55.0,11.344212274248868,19.93100000000005
Q4154,2025-06-03 19:00:00,青龙,宜昌市,夷陵区,30.7428,111.5075,108.8,995.6,20.1,86.0,20.22262806771081,29.79249999999997
Q4201,2025-06-03 19:00:00,傅家堰,宜昌市,五峰土家族自治县,30.3053,110.4817,705.3,930.1,18.0,69.0,14.231829944057669,26.198000000000008
Q4202,2025-06-03 19:00:00,长乐坪,宜昌市,五峰土家族自治县,30.1778,110.8722,1004.1,899.5,14.7,75.0,12.535582555209352,28.70949999999996
Q4203,2025-06-03 19:00:00,湾潭,宜昌市,五峰土家族自治县,30.0528,110.4344,1139.2,883.9,13.3,76.0,11.599582143150847,24.18750000000006
Q4204,2025-06-03 19:00:00,仁和坪,宜昌市,五峰土家族自治县,30.1022,111.2453,591.9,942.5,16.7,81.0,15.388467104349903,22.458000000000013
Q4205,2025-06-03 19:00:00,牛庄,宜昌市,五峰土家族自治县,30.2381,110.3611,1830.5,817.0,11.5,62.0,8.40730191516066,15.458999999999977
Q4206,2025-06-03 19:00:00,采花,宜昌市,五峰土家族自治县,30.2056,110.445,506.8,953.6,17.4,86.0,17.079564256486353,28.20400000000001
Q4207,2025-06-03 19:00:00,渔关,宜昌市,五峰土家族自治县,30.1831,111.075,255.1,979.5,19.7,71.0,16.286366268737027,29.18250000000001
Q4208,2025-06-03 19:00:00,清水湾,宜昌市,五峰土家族自治县,30.0797,110.9669,853.1,914.1,15.2,71.0,12.255442936011594,27.53149999999996
Q4209,2025-06-03 19:00:00,后河,宜昌市,五峰土家族自治县,30.0789,110.6214,952.7,905.4,13.3,87.0,13.2784690322911,30.2555
Q4210,2025-06-03 19:00:00,水浕司,宜昌市,五峰土家族自治县,30.2494,110.6283,564.8,946.7,17.5,82.0,16.38839115997926,32.3875
Q4213,2025-06-03 19:00:00,北风垭,宜昌市,五峰土家族自治县,30.14,110.5681,2213.7,780.7,12.0,23.0,3.223540321977714,8.557999999999995
Q4214,2025-06-03 19:00:00,涨水坪,宜昌市,五峰土家族自治县,30.2553,111.02,737.6,927.2,15.4,87.0,15.211419759162949,24.445999999999994
Q4215,2025-06-03 19:00:00,三教庙,宜昌市,五峰土家族自治县,30.2011,110.9022,1031.0,895.5,13.4,82.0,12.597229592575673,30.47899999999998
Q4218,2025-06-03 19:00:00,大龙坪,宜昌市,五峰土家族自治县,30.3589,110.4706,1157.3,884.2,13.3,79.0,12.057460385643642,27.745499999999964
Q4238,2025-06-03 19:00:00,万里,宜昌市,五峰土家族自治县,30.1997,110.4069,1174.1,882.1,15.9,52.0,9.38784229805254,13.764
Q4249,2025-06-03 19:00:00,柴埠溪,宜昌市,五峰土家族自治县,30.2219,110.8947,1259.0,873.5,15.3,52.0,9.033686240172472,14.281500000000015
Q4252,2025-06-03 19:00:00,万马池,宜昌市,五峰土家族自治县,30.2056,110.665,619.4,941.0,17.0,83.0,16.071589285423915,30.958
Q4309,2025-06-03 19:00:00,胡家畈,宜昌市,枝江市,30.5808,111.6733,125.7,993.0,21.7,94.0,24.39131349071745,52.14149999999993
Q4321,2025-06-03 19:00:00,雅畈,宜昌市,枝江市,30.3967,111.5886,68.0,1000.3,21.8,85.0,22.191269303669497,47.08450000000004
Q4323,2025-06-03 19:00:00,马家店,宜昌市,枝江市,30.43,111.7592,44.5,1003.1,23.5,76.0,21.999988381918943,42.25249999999995
Q4325,2025-06-03 19:00:00,万福垴,宜昌市,枝江市,30.4386,111.4522,55.9,1001.7,21.3,88.0,22.281601983716047,39.76550000000001
Q4326,2025-06-03 19:00:00,田家河,宜昌市,枝江市,30.3369,111.5311,57.0,1001.6,21.2,100.0,25.16505101550769,44.35949999999997
Q4327,2025-06-03 19:00:00,姚家港工业园,宜昌市,枝江市,30.4011,111.6131,87.7,998.1,23.1,75.0,21.19188851067693,34.27899999999998
Q4401,2025-06-03 19:00:00,社坪,宜昌市,长阳土家族自治县,30.63,110.5428,506.0,953.1,16.3,93.0,17.224094129729487,34.61849999999998
Q4403,2025-06-03 19:00:00,渔峡口,宜昌市,长阳土家族自治县,30.4286,110.4992,380.0,968.2,19.2,86.0,19.12280277809443,26.335500000000025
Q4404,2025-06-03 19:00:00,高家堰,宜昌市,长阳土家族自治县,30.6069,111.0583,167.0,989.6,19.7,85.0,19.49776243440348,34.744500000000016
Q4406,2025-06-03 19:00:00,大堰,宜昌市,长阳土家族自治县,30.3353,111.0731,631.0,938.2,17.0,88.0,17.03975731466632,34.428999999999945
Q4415,2025-06-03 19:00:00,火烧坪,宜昌市,长阳土家族自治县,30.4944,110.7997,1546.9,844.5,13.9,44.0,6.983016306287346,14.770500000000006
Q4425,2025-06-03 19:00:00,榔坪,宜昌市,长阳土家族自治县,30.6219,110.4972,490.0,957.0,16.5,92.0,17.25734461322142,33.78599999999998
Q4437,2025-06-03 19:00:00,中岭,宜昌市,长阳土家族自治县,30.6211,110.8139,1055.0,894.0,16.1,76.0,13.89715196015868,27.362499999999983
Q4441,2025-06-03 19:00:00,龙池山,宜昌市,长阳土家族自治县,30.5814,111.0614,680.0,932.4,20.4,50.0,11.977541548042458,23.63499999999997
Q4443,2025-06-03 19:00:00,清江画廊,宜昌市,长阳土家族自治县,30.4703,111.1336,190.3,986.9,20.2,72.0,17.035695014889942,36.384
Q4446,2025-06-03 19:00:00,三洞水,宜昌市,长阳土家族自治县,30.3936,111.1128,220.0,985.3,20.4,84.0,20.12226980071133,44.00350000000003
Q4447,2025-06-03 19:00:00,都镇湾,宜昌市,长阳土家族自治县,30.4117,110.97,290.0,977.5,19.5,88.0,19.93653065548015,27.60439999999999
Q4453,2025-06-03 19:00:00,崩尖子,宜昌市,长阳土家族自治县,30.3731,110.7244,283.3,977.7,17.4,87.0,17.278163840864103,31.64649999999999
Q4510,2025-06-03 19:00:00,九道河,宜昌市,宜都市,30.1967,111.4717,199.8,985.5,21.5,69.0,17.686367481841142,26.51499999999996
Q4519,2025-06-03 19:00:00,陆城,宜昌市,宜都市,30.3839,111.4547,74.1,999.9,23.4,65.0,18.702516690419746,34.10450000000005
Q4604,2025-06-03 19:00:00,草埠湖,宜昌市,当阳市,30.5725,111.9686,74.0,1001.5,22.4,88.0,23.83083401977504,36.59350000000001
Q4606,2025-06-03 19:00:00,王店,宜昌市,当阳市,30.7075,111.675,158.6,989.4,21.0,94.0,23.366182885703,50.60000000000005
Q4610,2025-06-03 19:00:00,红旗岗,宜昌市,当阳市,31.0844,111.9219,102.3,994.1,20.8,90.0,22.098177196146505,43.63599999999997
Q4611,2025-06-03 19:00:00,淯溪光明,宜昌市,当阳市,30.9275,111.9269,58.0,1001.7,20.5,96.0,23.1393430255204,53.93049999999998
Q4612,2025-06-03 19:00:00,向家草坝,宜昌市,当阳市,30.9167,111.685,96.0,997.3,20.1,93.0,21.868655933687275,38.87150000000004
Q4614,2025-06-03 19:00:00,长坂雄风,宜昌市,当阳市,30.8369,111.7611,70.0,1000.2,21.8,78.0,20.36375300807319,44.566999999999936
Q4701,2025-06-03 19:00:00,嫘祖,宜昌市,远安县,31.1906,111.4081,553.8,947.0,17.6,94.0,18.905682231616087,37.09099999999997
Q4708,2025-06-03 19:00:00,茅坪场,宜昌市,远安县,31.1481,111.6794,179.8,987.3,19.2,92.0,20.45695180912428,36.06749999999997
Q4709,2025-06-03 19:00:00,洋坪,宜昌市,远安县,31.2208,111.5594,152.4,991.6,20.0,96.0,22.43469238470185,50.44779166666658
Q4710,2025-06-03 19:00:00,晓坪水库,宜昌市,远安县,31.1881,111.7553,391.9,964.0,17.9,93.0,19.061670401030685,34.422500000000014
Q4718,2025-06-03 19:00:00,芭芒店,宜昌市,远安县,31.2361,111.5361,186.0,985.4,20.0,91.0,21.266218822998635,31.08350000000006
Q4801,2025-06-03 19:00:00,高桥,宜昌市,兴山县,31.2092,110.53,992.5,900.5,16.5,64.0,12.00510929615403,15.773999999999974
Q4802,2025-06-03 19:00:00,昭君,宜昌市,兴山县,31.2261,110.7697,286.0,978.0,19.7,91.0,20.874075076831964,34.51500000000007
Q4804,2025-06-03 19:00:00,峡口,宜昌市,兴山县,31.1192,110.7786,266.0,981.1,20.5,95.0,22.898308202337898,40.19649999999997
Q4806,2025-06-03 19:00:00,榛子,宜昌市,兴山县,31.5008,111.0083,1281.0,870.8,13.7,80.0,12.53242989506057,18.329999999999995
Q4808,2025-06-03 19:00:00,南对河,宜昌市,兴山县,31.1778,111.0017,644.1,938.6,17.0,96.0,18.588826161454165,43.091
Q4818,2025-06-03 19:00:00,观音河,宜昌市,兴山县,31.5183,110.8078,498.7,957.5,17.8,93.0,18.94197310882477,38.97749999999997
Q4837,2025-06-03 19:00:00,和平,宜昌市,兴山县,31.4728,110.9975,1301.6,869.7,13.2,98.0,14.860046945372494,27.300249999999995
Q4901,2025-06-03 19:00:00,彭家坡,宜昌市,秭归县,31.0306,110.6972,190.3,987.5,21.0,91.0,22.62045364466993,42.03349999999995
Q4902,2025-06-03 19:00:00,郭家坝,宜昌市,秭归县,30.9564,110.7569,351.0,971.1,20.1,96.0,22.574096447677185,53.7735000000001
Q4903,2025-06-03 19:00:00,两河口,宜昌市,秭归县,30.8722,110.5756,620.5,940.5,18.3,89.0,18.70639388824412,27.78550000000004
Q4905,2025-06-03 19:00:00,杨林桥,宜昌市,秭归县,30.7458,110.7553,421.8,963.2,17.4,95.0,18.86696051588609,35.02850000000005
Q4909,2025-06-03 19:00:00,沙镇溪,宜昌市,秭归县,30.9614,110.6022,420.0,963.0,19.7,93.0,21.332845957641457,41.22899999999997
Q4911,2025-06-03 19:00:00,九畹溪,宜昌市,秭归县,30.8442,110.7836,499.0,954.4,17.1,95.0,18.51215184582173,44.70199999999999
Q4918,2025-06-03 19:00:00,金缸城,宜昌市,秭归县,30.8361,110.9464,547.7,947.3,19.1,92.0,20.329757411269615,41.723999999999975
Q4920,2025-06-03 19:00:00,烟墩堡,宜昌市,秭归县,30.9039,110.7792,918.0,908.4,16.9,100.0,19.240929716816265,41.53399999999998
Q4921,2025-06-03 19:00:00,芝兰,宜昌市,秭归县,30.7814,110.7939,271.1,979.6,18.8,90.0,19.518584047978333,27.60600000000004
Q4932,2025-06-03 19:00:00,九岭头,宜昌市,秭归县,30.9803,110.8039,1385.0,860.8,15.5,79.0,13.901583587617866,28.36249999999999
Q4941,2025-06-03 19:00:00,高潮,宜昌市,秭归县,30.9881,110.4783,753.0,927.7,18.0,92.0,18.97577325874356,37.398499999999984
Q4945,2025-06-03 19:00:00,七甲,宜昌市,秭归县,30.7944,110.4961,1330.0,866.5,16.6,67.0,12.64806554667274,25.650999999999964
Q4950,2025-06-03 19:00:00,雁落坪,宜昌市,秭归县,30.8117,110.3497,985.0,901.4,16.1,85.0,15.542867323861678,29.371
Q4957,2025-06-03 19:00:00,三台寺,宜昌市,秭归县,30.6814,110.7139,1085.0,892.1,16.1,52.0,9.508577656950674,16.76649999999999
Q4962,2025-06-03 19:00:00,吴家沟,宜昌市,秭归县,30.9811,110.7606,209.2,984.3,21.0,89.0,22.123300817314544,45.95650000000007
Q5102,2025-06-03 19:00:00,白杨坪,恩施土家族苗族自治州,恩施市,30.4808,109.5828,638.9,938.6,16.7,97.0,18.428164310147416,31.472999999999985
Q5106,2025-06-03 19:00:00,三岔,恩施土家族苗族自治州,恩施市,30.2978,109.6278,1054.7,894.5,17.0,91.0,17.620658132211766,33.72400000000005
Q5109,2025-06-03 19:00:00,芭蕉,恩施土家族苗族自治州,恩施市,30.1222,109.3956,599.8,942.7,18.6,93.0,19.91831906243732,46.62516666666673
Q5116,2025-06-03 19:00:00,金龙坝,恩施土家族苗族自治州,恩施市,30.0906,109.1692,881.0,913.7,16.7,93.0,17.66824000869804,34.9845
Q5122,2025-06-03 19:00:00,望城坡,恩施土家族苗族自治州,恩施市,30.3303,109.4231,1113.0,888.4,15.5,83.0,14.605461237623834,26.19700000000002
Q5133,2025-06-03 19:00:00,小卫家山,恩施土家族苗族自治州,恩施市,30.3539,109.6558,1312.4,868.7,17.2,69.0,13.531091889905149,28.467499999999983
Q5135,2025-06-03 19:00:00,神堂,恩施土家族苗族自治州,恩施市,30.3583,109.8217,1567.0,843.2,15.0,48.0,8.179437378215665,18.516500000000025
Q5150,2025-06-03 19:00:00,大峡谷顶,恩施土家族苗族自治州,恩施市,30.4167,109.1628,1615.0,836.3,12.4,78.0,11.22358963214056,20.00650000000002
Q5153,2025-06-03 19:00:00,马者滑坡点,恩施土家族苗族自治州,恩施市,30.3733,109.3019,946.0,907.0,17.8,66.0,13.442690593359517,30.197000000000003
Q5206,2025-06-03 19:00:00,宜影古镇,恩施土家族苗族自治州,利川市,30.3353,109.1053,1025.3,899.1,14.9,89.0,15.068663075932069,28.669499999999992
Q5207,2025-06-03 19:00:00,元堡,恩施土家族苗族自治州,利川市,30.2233,109.0339,1088.3,889.7,14.4,94.0,15.40964504792277,36.49499999999995
Q5208,2025-06-03 19:00:00,黄泥塘,恩施土家族苗族自治州,利川市,30.0775,108.8592,1469.7,857.5,12.8,81.0,11.96515745455124,23.686500000000045
Q5209,2025-06-03 19:00:00,龙桥,恩施土家族苗族自治州,利川市,29.9294,108.7097,474.0,956.3,18.5,97.0,20.64525857479636,39.532
Q5211,2025-06-03 19:00:00,建南,恩施土家族苗族自治州,利川市,30.4353,108.5392,676.0,934.9,17.8,85.0,17.312556067205435,32.87500000000001
Q5214,2025-06-03 19:00:00,南坪,恩施土家族苗族自治州,利川市,30.43,108.7925,1129.0,887.0,15.0,91.0,15.506850029533863,28.41300000000001
Q5222,2025-06-03 19:00:00,凉雾,恩施土家族苗族自治州,利川市,30.2664,108.805,1092.5,889.5,15.4,89.0,15.561107569718416,31.49199999999999
Q5226,2025-06-03 19:00:00,利川团堡,恩施土家族苗族自治州,利川市,30.3353,109.1494,986.8,901.5,15.5,91.0,16.01321653763577,28.15599999999992
Q5241,2025-06-03 19:00:00,小河,恩施土家族苗族自治州,利川市,30.0786,108.6025,1074.0,893.6,15.3,93.0,16.156400391077693,31.070300000000003
Q5249,2025-06-03 19:00:00,铁峰,恩施土家族苗族自治州,利川市,30.4533,108.6578,1558.5,843.1,15.0,46.0,7.838627487456679,12.690666666666662
Q5250,2025-06-03 19:00:00,药材,恩施土家族苗族自治州,利川市,30.4922,108.7469,1406.0,856.7,15.2,52.0,8.975817361585955,12.509500000000005
Q5301,2025-06-03 19:00:00,黄金洞,恩施土家族苗族自治州,咸丰县,29.9539,109.0781,788.1,921.6,17.2,98.0,19.21807253928557,43.32349999999997
Q5307,2025-06-03 19:00:00,朝阳寺,恩施土家族苗族自治州,咸丰县,29.6125,108.9175,468.0,957.4,19.3,96.0,21.47983752815259,42.69649999999999
Q5309,2025-06-03 19:00:00,坪坝营,恩施土家族苗族自治州,咸丰县,29.3997,108.9803,1268.8,872.3,14.7,96.0,16.04554567066797,31.12049999999998
Q5310,2025-06-03 19:00:00,茅坝,恩施土家族苗族自治州,咸丰县,29.7658,108.8233,723.6,929.5,16.9,98.0,18.85611112247994,41.103
Q5326,2025-06-03 19:00:00,李子溪,恩施土家族苗族自治州,咸丰县,29.8839,108.9089,832.0,918.4,17.3,98.0,19.34007585174893,36.71450000000007
Q5327,2025-06-03 19:00:00,中心场,恩施土家族苗族自治州,咸丰县,29.9194,108.9083,847.0,916.6,16.7,98.0,18.618145385509763,29.078875
Q5330,2025-06-03 19:00:00,八家台,恩施土家族苗族自治州,咸丰县,29.8736,108.8114,869.0,911.8,17.1,96.0,18.70701660209354,34.41875000000004
Q5338,2025-06-03 19:00:00,柏杨坪,恩施土家族苗族自治州,咸丰县,29.8175,109.0397,872.4,910.9,16.6,98.0,18.50015557573028,34.67574999999999
Q5409,2025-06-03 19:00:00,翔凤,恩施土家族苗族自治州,来凤县,29.4669,109.4019,458.0,958.0,20.4,95.0,22.75732894128067,42.96099999999994
Q5421,2025-06-03 19:00:00,兴隆坳,恩施土家族苗族自治州,来凤县,29.3261,109.2883,602.0,939.9,19.2,95.0,21.1240263246392,39.109
Q5422,2025-06-03 19:00:00,沙坝水库,恩施土家族苗族自治州,来凤县,29.4094,109.3228,512.0,951.4,19.8,95.0,21.92733473462427,40.83649999999998
Q5508,2025-06-03 19:00:00,沙道,恩施土家族苗族自治州,宣恩县,29.6986,109.5653,589.0,943.4,19.3,94.0,21.032340912982743,40.00500000000001
Q5509,2025-06-03 19:00:00,椿木营,恩施土家族苗族自治州,宣恩县,30.0575,109.8269,1681.0,831.7,10.4,89.0,11.217793822573151,22.313500000000023
Q5515,2025-06-03 19:00:00,中间河,恩施土家族苗族自治州,宣恩县,30.1294,109.6347,664.8,935.5,18.7,96.0,20.68997841808316,45.24790833333329
Q5516,2025-06-03 19:00:00,长潭北,恩施土家族苗族自治州,宣恩县,30.0081,109.5883,490.9,954.7,18.8,96.0,20.81982298451022,45.505499999999984
Q5517,2025-06-03 19:00:00,荆竹坪,恩施土家族苗族自治州,宣恩县,29.96,109.3461,1134.7,885.9,16.6,95.0,17.933824282595676,32.03800000000003
Q5530,2025-06-03 19:00:00,洗草坝,恩施土家族苗族自治州,宣恩县,29.9867,109.3608,743.4,927.4,17.1,99.0,19.29161087090896,41.68050000000006
Q5532,2025-06-03 19:00:00,金盆村,恩施土家族苗族自治州,宣恩县,29.8356,109.6717,655.8,937.0,18.3,94.0,19.75731489320165,36.40150000000001
Q5539,2025-06-03 19:00:00,竹园,恩施土家族苗族自治州,宣恩县,29.9019,109.26,1180.2,881.7,15.1,89.0,15.26397043209908,35.44000000000008
Q5543,2025-06-03 19:00:00,彭家寨,恩施土家族苗族自治州,宣恩县,29.6717,109.6153,582.9,943.6,18.3,96.0,20.177683295184664,37.29549999999994
Q5601,2025-06-03 19:00:00,江坪河,恩施土家族苗族自治州,鹤峰县,29.7383,110.3472,467.0,956.3,19.6,83.0,18.92106158013138,38.79750000000001
Q5603,2025-06-03 19:00:00,蛤蟆颈,恩施土家族苗族自治州,鹤峰县,30.0658,110.2706,1382.0,859.5,11.7,82.0,11.26734717915365,24.54100000000001
Q5605,2025-06-03 19:00:00,清湖,恩施土家族苗族自治州,鹤峰县,30.0139,110.2697,1300.0,867.4,13.3,77.0,11.752208223981778,23.414499999999983
Q5610,2025-06-03 19:00:00,五里,恩施土家族苗族自治州,鹤峰县,29.8969,110.3406,1142.0,885.9,13.9,89.0,14.124737528626676,28.3415
Q5620,2025-06-03 19:00:00,堰塘,恩施土家族苗族自治州,鹤峰县,29.8628,109.8564,1175.0,881.8,15.3,91.0,15.808950920301829,27.172499999999992
Q5621,2025-06-03 19:00:00,云蒙,恩施土家族苗族自治州,鹤峰县,30.0564,110.0675,1011.3,898.7,13.6,87.0,13.540625121770516,28.969500000000043
Q5626,2025-06-03 19:00:00,龚家垭,恩施土家族苗族自治州,鹤峰县,30.1083,110.1294,1215.7,877.9,15.6,77.0,13.636799150800996,26.965000000000035
Q5628,2025-06-03 19:00:00,马家,恩施土家族苗族自治州,鹤峰县,29.7681,110.5636,509.0,950.3,16.9,92.0,17.701655339470964,31.09400000000004
Q5629,2025-06-03 19:00:00,细杉,恩施土家族苗族自治州,鹤峰县,29.8014,110.6133,673.7,933.8,15.6,85.0,15.053609452182917,23.590999999999998
Q5630,2025-06-03 19:00:00,堰垭,恩施土家族苗族自治州,鹤峰县,29.7203,110.2667,912.3,908.5,17.6,90.0,18.101185115377103,36.14175000000001
Q5632,2025-06-03 19:00:00,上六峰,恩施土家族苗族自治州,鹤峰县,29.9206,110.4636,1194.0,879.8,12.6,91.0,13.267256637736924,31.035499999999992
Q5633,2025-06-03 19:00:00,中坪,恩施土家族苗族自治州,鹤峰县,29.9917,110.4858,1137.0,883.4,13.1,86.0,12.955545410238273,29.94049999999997
Q5634,2025-06-03 19:00:00,水泉,恩施土家族苗族自治州,鹤峰县,29.9133,110.2561,606.5,941.5,18.3,95.0,19.96749909419316,37.82899999999999
Q5706,2025-06-03 19:00:00,溪丘湾,恩施土家族苗族自治州,巴东县,31.1572,110.4386,741.0,926.9,17.2,100.0,19.61027810131181,37.75458333333335
Q5707,2025-06-03 19:00:00,大支坪,恩施土家族苗族自治州,巴东县,30.6875,110.1708,1411.0,858.0,16.9,28.0,5.387460320708555,9.807500000000008
Q5708,2025-06-03 19:00:00,朱砂土,恩施土家族苗族自治州,巴东县,30.8936,110.3064,1166.0,881.1,16.3,74.0,13.70519317849443,27.54700000000001
Q5709,2025-06-03 19:00:00,玉米塘,恩施土家族苗族自治州,巴东县,30.6925,110.2486,1570.6,840.4,15.9,28.0,5.054992006643676,8.742499999999989
Q5710,2025-06-03 19:00:00,茅山岭,恩施土家族苗族自治州,巴东县,31.2233,110.2003,942.7,904.1,17.3,99.0,19.53742356452188,41.862
Q5712,2025-06-03 19:00:00,税家,恩施土家族苗族自治州,巴东县,30.9331,110.2219,1150.3,884.6,15.6,68.0,12.042887561746335,25.351999999999972
Q5720,2025-06-03 19:00:00,高家坡,恩施土家族苗族自治州,巴东县,31.1225,110.4797,735.0,928.0,18.2,82.0,17.127206556541747,34.52049999999993
Q5730,2025-06-03 19:00:00,麻沙坪,恩施土家族苗族自治州,巴东县,30.7125,110.4111,1234.0,874.6,15.5,58.0,10.206225925086532,16.629500000000004
Q5732,2025-06-03 19:00:00,庙坪,恩施土家族苗族自治州,巴东县,30.6672,110.2142,1261.9,872.1,15.6,60.0,10.626077260364411,20.625999999999998
Q5736,2025-06-03 19:00:00,倒卜龙,恩施土家族苗族自治州,巴东县,30.4069,110.1308,950.0,904.4,16.9,77.0,14.815515881948524,30.76849999999999
Q5751,2025-06-03 19:00:00,绿葱坡滑雪场,恩施土家族苗族自治州,巴东县,30.8117,110.2419,1663.0,832.1,13.1,57.0,8.586814981204437,16.946499999999986
Q5802,2025-06-03 19:00:00,茅田,恩施土家族苗族自治州,建始县,30.8097,109.8839,1364.3,862.5,12.3,83.0,11.864806076657434,24.705500000000008
Q5804,2025-06-03 19:00:00,高坪,恩施土家族苗族自治州,建始县,30.5989,110.0597,1239.1,872.3,17.4,60.0,11.915975062664897,23.447499999999994
Q5819,2025-06-03 19:00:00,封竹,恩施土家族苗族自治州,建始县,30.8222,109.9811,1731.3,826.2,13.6,55.0,8.560165306866418,16.96049999999999
Q5823,2025-06-03 19:00:00,石垭子,恩施土家族苗族自治州,建始县,30.6128,110.0208,777.3,923.0,16.4,94.0,17.520589362057184,33.983500000000035
Q5824,2025-06-03 19:00:00,落水洞,恩施土家族苗族自治州,建始县,30.5825,109.9603,917.0,907.2,15.8,93.0,16.682736636829706,34.55100000000002
Q5827,2025-06-03 19:00:00,冷竹,恩施土家族苗族自治州,建始县,30.5347,109.9972,1227.8,875.5,12.7,95.0,13.941557200169411,28.894000000000048
Q5829,2025-06-03 19:00:00,粟谷坝,恩施土家族苗族自治州,建始县,30.3572,110.0744,754.5,924.4,16.3,90.0,16.668478190060792,33.52300000000003
Q5831,2025-06-03 19:00:00,竹园坝,恩施土家族苗族自治州,建始县,30.2125,109.9622,1551.0,844.1,14.1,62.0,9.96823771852563,17.62200000000001
Q5836,2025-06-03 19:00:00,野三河景区,恩施土家族苗族自治州,建始县,30.6983,110.0806,896.7,911.7,15.6,75.0,13.282596575455514,25.831499999999995
Q6080,2025-06-03 19:00:00,掇刀,荆门市,掇刀区,30.975,112.2028,108.5,995.0,22.3,87.0,23.41703544180965,43.35449999999992
Q6082,2025-06-03 19:00:00,麻城,荆门市,掇刀区,30.9114,112.2447,85.0,998.1,22.2,93.0,24.879961843902844,45.61099999999998
Q6083,2025-06-03 19:00:00,樊桥,荆门市,掇刀区,30.7958,112.2522,82.0,998.8,22.3,96.0,25.839487384065816,47.67899999999999
Q6084,2025-06-03 19:00:00,凤凰,荆门市,掇刀区,30.9525,112.1789,106.0,995.8,22.3,94.0,25.30116473023111,46.46849999999998
Q6085,2025-06-03 19:00:00,龙泉,荆门市,掇刀区,30.8675,112.0964,97.5,996.9,21.8,96.0,25.063080625320847,47.29400000000003
Q6086,2025-06-03 19:00:00,仙女,荆门市,掇刀区,31.0422,112.1217,190.0,986.3,20.9,76.0,18.77593328063025,33.78849999999997
Q6111,2025-06-03 19:00:00,后港,荆门市,沙洋县,30.5242,112.3883,31.2,1004.4,23.1,92.0,25.995383239763708,47.13049999999996
Q6113,2025-06-03 19:00:00,高阳,荆门市,沙洋县,30.7592,112.46,65.0,1000.5,22.2,93.0,24.879961843902844,39.93149999999998
Q6114,2025-06-03 19:00:00,五里,荆门市,沙洋县,30.7297,112.2397,67.0,1000.4,22.4,93.0,25.184858679989528,45.98099999999997
Q6115,2025-06-03 19:00:00,十里,荆门市,沙洋县,30.6244,112.1758,56.2,1001.5,21.6,96.0,24.7582919631612,45.114000000000026
Q6117,2025-06-03 19:00:00,拾回桥,荆门市,沙洋县,30.5508,112.275,36.5,1004.0,22.9,95.0,26.51978180333288,49.98499999999999
Q6118,2025-06-03 19:00:00,曾集,荆门市,沙洋县,30.7172,112.3717,71.0,999.9,22.3,94.0,25.30116473023111,35.54296666666668
Q6122,2025-06-03 19:00:00,雷集,荆门市,掇刀区,30.8122,112.2886,104.0,995.9,22.1,93.0,24.72873032055432,44.7845
Q6125,2025-06-03 19:00:00,双堰,荆门市,沙洋县,30.8186,112.4253,60.1,1001.1,22.3,95.0,25.570326057148463,44.99500000000001
Q6128,2025-06-03 19:00:00,港口,荆门市,沙洋县,30.4275,112.3442,40.0,1003.7,23.1,94.0,26.56050026671509,55.79950000000001
Q6129,2025-06-03 19:00:00,姚集,荆门市,沙洋县,30.8017,112.6122,40.0,1003.4,22.3,94.0,25.30116473023111,43.50000000000004
Q6160,2025-06-03 19:00:00,石桥驿,荆门市,东宝区,31.2861,112.1533,98.0,996.6,19.6,92.0,20.972742956290205,46.44450000000003
Q6162,2025-06-03 19:00:00,仙居,荆门市,东宝区,31.3903,112.0286,129.0,993.0,20.2,89.0,21.058011893405624,46.95599999999996
Q6163,2025-06-03 19:00:00,马河,荆门市,东宝区,31.1444,111.935,134.0,992.9,19.0,96.0,21.081660373452745,54.147
Q6164,2025-06-03 19:00:00,栗溪,荆门市,东宝区,31.2678,111.9847,231.2,981.9,18.3,98.0,20.59805169716768,46.86500000000001
Q6167,2025-06-03 19:00:00,观音寺,荆门市,东宝区,31.0697,111.925,129.0,993.1,20.5,92.0,22.175203732790383,40.6155
Q6168,2025-06-03 19:00:00,东宝,荆门市,东宝区,31.0633,112.2033,110.0,995.1,22.3,74.0,19.917938191884065,37.559999999999945
Q6169,2025-06-03 19:00:00,岩垱,荆门市,东宝区,31.2031,112.1422,112.5,995.0,19.4,90.0,20.26314600254496,37.51150000000001
Q6170,2025-06-03 19:00:00,象河,荆门市,东宝区,31.3072,112.1028,121.0,994.0,19.6,87.0,19.8329199695353,41.97900000000004
Q6172,2025-06-03 19:00:00,圣境山,荆门市,东宝区,31.12,112.1464,355.3,967.7,25.8,36.0,11.958691734141755,19.8585
Q6173,2025-06-03 19:00:00,东宝八角,荆门市,东宝区,31.1497,112.2619,70.8,999.2,21.0,95.0,23.61475929938069,46.58600000000008
Q6174,2025-06-03 19:00:00,文丰,荆门市,东宝区,31.1786,112.0386,179.5,987.5,18.5,96.0,20.432420857530417,46.324
Q6175,2025-06-03 19:00:00,琵琶洲,荆门市,东宝区,31.135,111.9811,156.5,990.0,19.1,95.0,20.992684283376235,51.17549999999999
Q6176,2025-06-03 19:00:00,铁坪,荆门市,东宝区,31.2347,111.9575,270.2,977.3,19.2,90.0,20.012235465447663,39.851
Q6210,2025-06-03 19:00:00,长寿,荆门市,钟祥市,31.4994,112.5936,124.4,993.7,20.8,92.0,22.58924780050532,46.36949999999998
Q6213,2025-06-03 19:00:00,客店,荆门市,钟祥市,31.4353,112.8739,207.8,984.3,20.3,74.0,17.617539684752344,32.97700000000005
Q6217,2025-06-03 19:00:00,张集,荆门市,钟祥市,31.5064,112.72,136.9,992.4,20.0,94.0,21.967302960020564,50.65899999999996
Q6218,2025-06-03 19:00:00,洋梓,荆门市,钟祥市,31.2917,112.6356,56.0,1002.5,21.8,95.0,24.802006868807087,46.29300000000001
Q6219,2025-06-03 19:00:00,柴湖,荆门市,钟祥市,30.9944,112.5881,40.0,1003.4,22.5,95.0,25.883446021664227,46.96200000000006
Q6220,2025-06-03 19:00:00,磷矿,荆门市,钟祥市,31.2944,112.4272,47.9,1002.3,19.5,94.0,21.295839563808343,49.5779999999999
Q6223,2025-06-03 19:00:00,九里,荆门市,钟祥市,31.1669,112.6503,53.0,1002.7,22.1,94.0,24.994630646581783,45.433000000000014
Q6224,2025-06-03 19:00:00,文集,荆门市,钟祥市,31.1594,112.5319,54.6,1002.6,22.4,100.0,27.080493204289816,54.5965
Q6235,2025-06-03 19:00:00,洪山寺,荆门市,钟祥市,31.4969,112.5197,56.0,1000.6,22.0,90.0,23.78545661174949,41.79253333333335
Q6236,2025-06-03 19:00:00,北山,荆门市,钟祥市,31.2022,112.4103,93.0,997.4,20.1,86.0,20.22262806771081,37.84200000000001
Q6237,2025-06-03 19:00:00,陈坡,荆门市,钟祥市,31.0467,112.4686,43.0,1002.2,22.7,95.0,26.199921114113604,43.53549999999995
Q6260,2025-06-03 19:00:00,钟祥杨集,荆门市,钟祥市,31.3961,112.4883,59.0,1001.9,21.3,96.0,24.30720216405387,40.88900000000004
Q6263,2025-06-03 19:00:00,明显陵,荆门市,钟祥市,31.2106,112.6344,65.0,1001.0,20.8,95.0,23.32585370704353,48.72187500000005
Q6264,2025-06-03 19:00:00,郢中,荆门市,钟祥市,31.1667,112.5667,65.8,1000.8,23.3,90.0,25.73979438196851,55.07349999999997
Q6317,2025-06-03 19:00:00,宋河,荆门市,京山市,31.1814,113.3008,77.2,999.3,20.7,95.0,23.182567046295148,54.44100000000006
Q6319,2025-06-03 19:00:00,永兴,荆门市,京山市,30.9697,113.2225,63.0,1000.2,22.7,94.0,25.924132470807145,43.20841666666677
Q6320,2025-06-03 19:00:00,钱场,荆门市,京山市,30.8547,113.0992,49.6,1002.5,22.7,94.0,25.924132470807145,50.39700000000002
Q6321,2025-06-03 19:00:00,石龙,荆门市,京山市,30.8972,112.8411,34.0,1003.5,22.3,94.0,25.30116473023111,46.02349999999998
Q6322,2025-06-03 19:00:00,永漋,荆门市,京山市,30.7744,112.8278,33.9,1004.0,22.7,91.0,25.09676654088777,45.2565
Q6323,2025-06-03 19:00:00,坪坝,荆门市,京山市,31.2839,113.3547,73.0,999.2,20.1,96.0,22.574096447677185,49.477
Q6324,2025-06-03 19:00:00,屈家岭,荆门市,市辖区,30.8344,112.945,77.0,999.4,21.4,95.0,24.20200004325152,49.581499999999984
Q6333,2025-06-03 19:00:00,三阳,荆门市,京山市,31.3436,113.1756,203.2,984.7,20.8,70.0,17.18747115255839,24.240499999999987
Q6335,2025-06-03 19:00:00,三台,荆门市,京山市,31.2819,112.9369,174.2,987.9,18.7,97.0,20.905499026604858,45.57350000000002
Q6336,2025-06-03 19:00:00,将军岭,荆门市,京山市,31.2428,112.9794,208.9,984.5,18.8,98.0,21.25356929668752,45.479999999999954
Q6339,2025-06-03 19:00:00,空山洞,荆门市,京山市,30.9928,113.045,105.0,996.1,20.4,96.0,22.99687977224152,47.912999999999954
Q6343,2025-06-03 19:00:00,四股泉,荆门市,京山市,31.1531,113.2286,226.5,982.2,19.4,86.0,19.362561735765183,45.727000000000025
Q6344,2025-06-03 19:00:00,马岭,荆门市,京山市,31.0558,113.4464,45.0,1002.1,22.5,94.0,25.610988695120398,40.478
Q6349,2025-06-03 19:00:00,中南山,荆门市,京山市,30.9269,113.0072,111.0,995.7,21.3,95.0,24.05400214151164,56.16499999999999
Q6353,2025-06-03 19:00:00,黄台,荆门市,京山市,31.1539,112.8736,115.4,995.1,21.1,97.0,24.260604027655123,59.85800000000001
Q6358,2025-06-03 19:00:00,绿林寨,荆门市,京山市,31.3367,113.0661,174.0,989.3,18.5,84.0,17.878368250339115,35.827000000000034
Q6370,2025-06-03 19:00:00,罗汉寺,荆门市,市辖区,30.9961,112.6831,38.0,1003.6,22.1,99.0,26.32413227671912,51.35450000000011
Q6371,2025-06-03 19:00:00,长滩办事处,荆门市,市辖区,30.9972,112.7556,57.0,1002.0,21.6,97.0,25.016190837777454,44.88650000000003
Q6372,2025-06-03 19:00:00,月宝山,荆门市,市辖区,30.9675,112.7822,89.0,997.9,22.2,91.0,24.344908901023214,42.23400000000003
Q6373,2025-06-03 19:00:00,牙谷山,荆门市,市辖区,30.9711,112.8208,105.0,996.2,21.5,94.0,24.094471641928514,45.69899999999997
Q6374,2025-06-03 19:00:00,刘台,荆门市,市辖区,30.8964,112.7422,38.5,1003.9,22.3,96.0,25.839487384065816,48.18750000000004
Q6375,2025-06-03 19:00:00,种业基地,荆门市,市辖区,30.8661,112.8697,73.3,1000.0,22.1,90.0,23.93102934247192,40.87374999999998
Q6376,2025-06-03 19:00:00,蔡垱,荆门市,市辖区,30.7656,112.8836,33.1,1004.1,22.4,96.0,25.99727347611822,41.38550000000001
Q6401,2025-06-03 19:00:00,洈水,荆州市,松滋市,29.9694,111.5644,100.3,997.6,23.0,67.0,18.817120200398307,33.679500000000004
Q6402,2025-06-03 19:00:00,沙道观,荆州市,松滋市,30.1794,111.9433,38.4,1003.4,22.7,95.0,26.199921114113604,53.58399999999996
Q6403,2025-06-03 19:00:00,纸厂河,荆州市,松滋市,30.0286,111.8453,52.1,1002.8,21.3,89.0,22.534802006258275,54.03099999999999
Q6404,2025-06-03 19:00:00,南海,荆州市,松滋市,30.1169,111.85,48.2,1003.7,21.7,84.0,21.796492906598573,42.28724999999999
Q6406,2025-06-03 19:00:00,卸甲坪,荆州市,松滋市,30.03,111.37,136.0,994.3,20.3,86.0,20.47443801200948,35.991999999999955
Q6407,2025-06-03 19:00:00,北干渠,荆州市,松滋市,30.0261,111.6894,43.0,1001.7,21.0,86.0,21.37757157628147,43.075499999999984
Q6408,2025-06-03 19:00:00,北河,荆州市,松滋市,30.0728,111.6294,164.0,989.3,22.7,57.0,15.71995266846816,26.450000000000003
Q6409,2025-06-03 19:00:00,陈店,荆州市,松滋市,30.2792,111.6517,122.0,993.3,21.7,78.0,20.239600556127247,29.180999999999997
Q6411,2025-06-03 19:00:00,涴市,荆州市,松滋市,30.2714,112.0189,50.1,1003.4,22.6,89.0,24.39655097603044,45.94750000000003
Q6412,2025-06-03 19:00:00,杨林市,荆州市,松滋市,29.9758,111.7756,69.2,1000.5,21.9,86.0,22.589964669730385,41.93250000000003
Q6414,2025-06-03 19:00:00,八宝,荆州市,松滋市,30.18,111.8686,46.1,1003.5,22.3,89.0,23.95535809564435,47.0625
Q6415,2025-06-03 19:00:00,万家,荆州市,松滋市,29.9686,111.6961,76.2,1001.0,21.2,88.0,22.145244893646765,49.94799999999994
Q6417,2025-06-03 19:00:00,三堰淌,荆州市,松滋市,30.0903,111.4008,626.8,938.8,18.6,71.0,15.206458639065051,27.060499999999983
Q6418,2025-06-03 19:00:00,卸甲坪村,荆州市,松滋市,30.0397,111.3681,220.0,983.0,18.3,92.0,19.33694649121864,41.84399999999998
Q6426,2025-06-03 19:00:00,新江口,荆州市,松滋市,30.1769,111.7736,69.5,1000.3,24.1,68.0,20.408430459358843,42.0475
Q6494,2025-06-03 19:00:00,南平,荆州市,公安县,29.9206,112.0969,44.0,1003.8,23.2,91.0,25.86889379560337,42.80275
Q6495,2025-06-03 19:00:00,狮子口,荆州市,公安县,29.99,112.0072,48.0,1003.0,23.0,80.0,22.46820322435619,37.41800000000002
Q6496,2025-06-03 19:00:00,杨家厂,荆州市,公安县,30.0592,112.3197,30.0,1004.2,22.3,91.0,24.493680749479054,45.858999999999966
Q6497,2025-06-03 19:00:00,孟家溪,荆州市,公安县,29.8575,112.0914,40.0,1004.4,23.5,88.0,25.47367075801141,49.03549999999996
Q6498,2025-06-03 19:00:00,麻豪口,荆州市,公安县,29.9631,112.3392,40.0,1004.1,24.2,87.0,26.2680849945613,47.26799999999999
Q6499,2025-06-03 19:00:00,夹竹园,荆州市,公安县,29.99,112.1083,37.0,1004.0,23.3,95.0,27.16978295874454,50.05728333333335
Q6500,2025-06-03 19:00:00,甘厂,荆州市,公安县,29.7447,112.0739,36.9,1004.5,22.7,86.0,23.71782332435547,44.08750000000008
Q6502,2025-06-03 19:00:00,斑竹垱,荆州市,公安县,30.0544,112.0081,39.5,1003.8,22.8,95.0,26.35942634616512,55.00083333333336
Q6503,2025-06-03 19:00:00,埠河,荆州市,公安县,30.2919,112.2406,44.0,1003.7,22.8,89.0,24.694620471670486,44.51350000000002
Q6577,2025-06-03 19:00:00,大垸,荆州市,石首市,29.8425,112.4731,35.7,1004.3,23.3,100.0,28.59977153552057,57.13899999999998
Q6651,2025-06-03 19:00:00,监利汪桥,荆州市,监利市,29.98,112.7044,26.1,1005.0,23.6,92.0,26.792725088541,45.96900000000001
Q6656,2025-06-03 19:00:00,监利上车,荆州市,监利市,29.8086,113.0083,26.5,1005.0,23.3,88.0,25.167798951258103,51.00899999999994
Q6657,2025-06-03 19:00:00,监利周老嘴,荆州市,监利市,30.0322,112.9767,25.1,1004.7,23.5,92.0,26.631564883375567,54.47900000000004
Q6658,2025-06-03 19:00:00,监利朱河,荆州市,监利市,29.7317,113.1064,24.9,1005.2,23.5,88.0,25.47367075801141,51.58150000000011
Q6659,2025-06-03 19:00:00,监利福田,荆州市,监利市,29.9039,113.0831,24.7,1005.2,22.9,95.0,26.51978180333288,61.24749999999992
Q6660,2025-06-03 19:00:00,监利黄歇口,荆州市,监利市,30.0361,112.8011,26.1,1005.0,24.4,91.0,27.807480702619195,62.8016666666666
Q6661,2025-06-03 19:00:00,监利大垸,荆州市,监利市,29.8486,112.7075,24.2,1004.5,23.3,89.0,25.453796666613307,36.398500000000006
Q6662,2025-06-03 19:00:00,监利网市,荆州市,监利市,30.1097,113.1147,25.8,1005.1,23.2,95.0,27.00598802837714,61.0785333333333
Q6665,2025-06-03 19:00:00,监利分盐,荆州市,监利市,29.9844,113.0503,31.9,1004.9,23.8,90.0,26.528096665495063,52.35350000000004
Q6667,2025-06-03 19:00:00,监利柘木,荆州市,监利市,29.59,113.1403,26.4,1005.3,22.8,86.0,23.862217534423163,50.490000000000016
Q6668,2025-06-03 19:00:00,监利汴河,荆州市,监利市,29.8086,113.0872,25.1,1005.2,23.0,94.0,26.40013878861852,58.52699999999989
Q6670,2025-06-03 19:00:00,三洲,荆州市,监利市,29.545,112.9406,29.0,1005.0,22.2,99.0,26.485120672541736,45.27
Q6750,2025-06-03 19:00:00,曹市,荆州市,洪湖市,29.8625,113.5478,29.8,1005.1,23.6,90.0,26.21027454313793,44.02599999999995
Q6751,2025-06-03 19:00:00,黄家口,荆州市,洪湖市,30.0486,113.5617,20.0,1005.4,22.2,96.0,25.68254125822229,36.82649999999994
Q6753,2025-06-03 19:00:00,瞿家湾渡口,荆州市,洪湖市,29.9325,113.2267,30.0,1005.2,23.8,85.0,25.054313517412005,46.81499999999996
Q6754,2025-06-03 19:00:00,洪狮渔场,荆州市,洪湖市,29.9217,113.29,20.0,1005.3,23.7,84.0,24.6108484926906,43.89249999999995
Q6755,2025-06-03 19:00:00,瞿家湾,荆州市,洪湖市,29.9614,113.1831,23.5,1005.2,23.3,100.0,28.59977153552057,55.34900000000002
Q6756,2025-06-03 19:00:00,八卦洲,荆州市,洪湖市,29.8175,113.4078,34.0,1005.6,23.0,100.0,28.085254030445235,57.13450000000003
Q6757,2025-06-03 19:00:00,螺山,荆州市,洪湖市,29.6706,113.3161,26.7,1005.2,22.2,90.0,24.077382429583395,48.43750000000001
Q6758,2025-06-03 19:00:00,乌林,荆州市,洪湖市,29.9078,113.6072,30.0,1005.3,23.2,88.0,25.016073121023037,47.930499999999945
Q6759,2025-06-03 19:00:00,大沙,荆州市,洪湖市,30.0072,113.8642,30.0,1005.4,22.7,89.0,24.54518925427485,47.79900000000002
Q6760,2025-06-03 19:00:00,燕窝,荆州市,洪湖市,30.0958,113.9672,30.0,1005.1,23.0,84.0,23.591613385574,40.45999999999997
Q6761,2025-06-03 19:00:00,汊河,荆州市,洪湖市,29.9578,113.4517,27.6,1005.3,24.1,82.0,24.61016614216801,44.22149999999994
Q6764,2025-06-03 19:00:00,大同湖,荆州市,洪湖市,30.0467,113.7133,23.7,1005.5,23.5,82.0,23.736829569965177,46.96999999999996
Q6767,2025-06-03 19:00:00,峰口,荆州市,洪湖市,30.1211,113.3494,25.3,1005.3,23.9,87.0,25.798660588507524,45.27000000000004
Q6769,2025-06-03 19:00:00,土地湖,荆州市,洪湖市,29.9361,113.3403,20.0,1005.3,23.8,83.0,24.464800258178784,47.7355
Q6770,2025-06-03 19:00:00,袁新泵站,荆州市,洪湖市,29.7106,113.3156,20.0,1005.3,23.1,91.0,25.712824726288016,52.125
Q6771,2025-06-03 19:00:00,府场,荆州市,洪湖市,30.1222,113.1589,31.2,1005.0,23.5,92.0,26.631564883375567,46.20100000000011
Q6772,2025-06-03 19:00:00,洪湖龙口,荆州市,洪湖市,29.9878,113.7756,25.1,1005.2,23.5,82.0,23.736829569965177,45.43699999999997
Q6773,2025-06-03 19:00:00,洪湖经开区,荆州市,洪湖市,29.8489,113.4908,23.2,1005.2,23.0,87.0,24.434171006487357,41.96199999999996
Q6847,2025-06-03 19:00:00,江滩公园,荆州市,洪湖市,29.8033,113.4594,28.5,1004.5,22.0,92.0,24.31402231423281,48.78850000000001
Q6853,2025-06-03 19:00:00,纪南,荆州市,荆州区,30.4272,112.2525,33.0,1004.1,22.2,97.0,25.950067729662106,37.20378571428566
Q6856,2025-06-03 19:00:00,荆州中学,荆州市,荆州区,30.3653,112.2097,32.0,1004.6,23.5,85.0,24.60525016398829,47.245500000000014
Q6862,2025-06-03 19:00:00,乐居,荆州市,荆州区,30.3531,112.1147,38.6,1004.6,22.5,95.0,25.883446021664227,48.06166666666664
Q6863,2025-06-03 19:00:00,麋鹿,荆州市,石首市,29.7822,112.5547,35.4,1004.6,21.1,98.0,24.510713347527854,38.17025000000004
Q6901,2025-06-03 19:00:00,观音垱,荆州市,沙市区,30.3797,112.4003,28.0,1004.4,23.2,94.0,26.72171447018369,45.03650000000004
Q6951,2025-06-03 19:00:00,秦市,荆州市,江陵县,29.9672,112.6025,30.3,1004.9,23.5,100.0,28.94735313410388,53.54050000000007
Q6953,2025-06-03 19:00:00,沙岗,荆州市,江陵县,30.0603,112.6308,30.0,1004.7,23.6,92.0,26.792725088541,49.93899999999998
Q6954,2025-06-03 19:00:00,熊河,荆州市,江陵县,30.1106,112.44,30.1,1004.6,23.7,92.0,26.9547388253278,47.677500000000045
Q6957,2025-06-03 19:00:00,三湖,荆州市,江陵县,30.1967,112.5561,26.0,1005.0,23.1,95.0,26.843058780190784,57.80049999999995
Q6958,2025-06-03 19:00:00,郝穴,荆州市,江陵县,29.9919,112.4553,31.3,1004.5,24.0,84.0,25.059336160472427,41.28675000000007
Q6960,2025-06-03 19:00:00,江北农场,荆州市,江陵县,30.1814,112.3494,30.0,1004.6,22.3,100.0,26.916132691735225,60.28432499999999
Q7030,2025-06-03 19:00:00,悟峰山,孝感市,大悟县,31.7775,114.1636,92.4,997.5,18.5,97.0,20.64525857479636,34.27450000000002
Q7038,2025-06-03 19:00:00,新城,孝感市,大悟县,31.4925,114.2794,120.0,992.9,20.3,96.0,22.855186618057097,49.81349999999997
Q7087,2025-06-03 19:00:00,河口茶园,孝感市,大悟县,31.3186,114.3764,56.4,1000.1,18.8,97.0,21.03669614059887,40.84800000000004
Q7092,2025-06-03 19:00:00,大悟城关,孝感市,大悟县,31.5711,114.1214,74.9,998.6,21.6,91.0,23.468797590079888,26.059500000000007
Q7138,2025-06-03 19:00:00,雷公,孝感市,安陆市,31.2953,113.515,101.0,996.4,20.9,96.0,23.716968354480315,52.73629999999999
Q7165,2025-06-03 19:00:00,接官,孝感市,安陆市,31.4175,113.7522,68.6,1000.1,21.3,100.0,25.320002254222786,47.10849999999995
Q7166,2025-06-03 19:00:00,辛榨,孝感市,安陆市,31.1122,113.6156,45.9,1002.8,22.6,100.0,27.41185502924769,46.629312500000005
Q7167,2025-06-03 19:00:00,府河,孝感市,安陆市,31.2575,113.6686,36.4,1003.8,21.9,98.0,25.742052763181142,52.50349999999997
Q7218,2025-06-03 19:00:00,田店,孝感市,应城市,31.0317,113.4494,52.5,1002.3,22.4,100.0,27.080493204289816,58.059624999999954
Q7266,2025-06-03 19:00:00,义和,孝感市,应城市,30.7686,113.4944,28.9,1004.6,23.3,94.0,26.883785243389337,57.17249999999999
Q7315,2025-06-03 19:00:00,城隍,孝感市,汉川市,30.6261,113.7594,24.9,1004.9,23.0,91.0,25.55758116770517,49.405
Q7316,2025-06-03 19:00:00,华严农场,孝感市,汉川市,30.6256,113.6964,24.1,1005.2,22.9,92.0,25.68231500954342,56.35899999999993
Q7317,2025-06-03 19:00:00,回龙,孝感市,汉川市,30.565,113.4961,24.3,1004.9,23.1,96.0,27.12561729366648,58.24500000000001
Q7318,2025-06-03 19:00:00,脉旺,孝感市,汉川市,30.5175,113.5933,23.9,1004.8,22.7,95.0,26.199921114113604,58.24200000000002
Q7350,2025-06-03 19:00:00,庙头,孝感市,汉川市,30.5944,113.7875,27.0,1004.9,22.6,94.0,25.767143727492822,49.70799999999999
Q7354,2025-06-03 19:00:00,刘家隔,孝感市,汉川市,30.7539,113.8008,25.0,1005.1,21.5,97.0,24.863444141139,54.86699999999996
Q7358,2025-06-03 19:00:00,麻河,孝感市,汉川市,30.775,113.6914,22.2,1005.2,22.6,96.0,26.31538082807777,49.30349999999998
Q7378,2025-06-03 19:00:00,南河,孝感市,汉川市,30.4967,113.7769,25.0,1004.7,23.1,92.0,25.995383239763708,50.83299999999999
Q7387,2025-06-03 19:00:00,新河,孝感市,汉川市,30.6956,113.9111,30.0,1005.1,21.7,95.0,24.650795549129334,44.15949999999998
Q7392,2025-06-03 19:00:00,西江,孝感市,汉川市,30.4806,113.6775,24.0,1005.0,23.2,93.0,26.43744091199025,52.0900000000001
Q7393,2025-06-03 19:00:00,韩集,孝感市,汉川市,30.6742,113.5964,28.0,1005.3,23.8,87.0,25.64382677664523,48.73400000000002
Q7426,2025-06-03 19:00:00,周巷,孝感市,孝昌县,31.2169,114.1108,105.8,995.9,20.7,93.0,22.694513003215253,52.4735
Q7432,2025-06-03 19:00:00,丰和,孝感市,孝昌县,31.1422,114.1475,85.0,998.1,22.0,86.0,22.728325206782845,52.25249999999998
Q7442,2025-06-03 19:00:00,花西,孝感市,孝昌县,31.1939,113.8561,72.2,999.8,22.3,100.0,26.916132691735225,64.17550000000001
Q7461,2025-06-03 19:00:00,双峰山景区,孝感市,孝昌县,31.2011,114.1914,582.5,944.0,21.6,73.0,18.82661784698716,29.63049999999997
Q7538,2025-06-03 19:00:00,隔蒲潭,孝感市,云梦县,30.9461,113.7253,28.7,1004.8,23.1,92.0,25.995383239763708,56.54550000000001
Q7546,2025-06-03 19:00:00,倒店,孝感市,云梦县,31.1844,113.7389,58.9,1001.2,22.4,92.0,24.91405374794663,57.24149999999997
Q7554,2025-06-03 19:00:00,清明河,孝感市,云梦县,31.0272,113.6944,34.0,1004.5,22.4,93.0,25.184858679989528,48.51749999999997
Q7618,2025-06-03 19:00:00,杨店,孝感市,孝南区,31.025,114.1083,52.0,1002.9,21.5,99.0,25.376092473945988,47.84349999999991
Q7622,2025-06-03 19:00:00,陡岗,孝感市,孝南区,31.0397,113.8556,30.1,1003.9,22.3,93.0,25.03200340331376,42.33916666666666
Q7626,2025-06-03 19:00:00,肖港,孝感市,孝南区,31.0981,113.975,46.5,1002.2,22.8,100.0,27.746764574910657,57.93000000000004
Q7630,2025-06-03 19:00:00,毛陈,孝感市,孝南区,30.8239,113.9908,23.2,1005.2,22.1,97.0,25.79233162466418,63.01700000000003
Q7642,2025-06-03 19:00:00,新铺,孝感市,孝南区,30.9806,113.98,46.2,1002.6,21.8,94.0,24.54093311229333,56.63399999999999
Q7650,2025-06-03 19:00:00,卧龙,孝感市,孝南区,30.8961,113.9025,27.1,1005.1,23.5,85.0,24.60525016398829,57.39800000000007
Q7654,2025-06-03 19:00:00,闵集,孝感市,孝南区,30.8508,114.1303,46.2,1004.2,22.2,95.0,25.415014786782475,46.47583333333333
Q7658,2025-06-03 19:00:00,东山头,孝感市,孝南区,30.7981,114.0183,25.3,1005.3,22.0,94.0,24.84258801671613,61.48562499999996
Q7659,2025-06-03 19:00:00,朱湖,孝感市,孝南区,30.8081,113.9397,19.7,1005.4,22.2,96.0,25.68254125822229,61.43100000000006
Q7663,2025-06-03 19:00:00,郑家河,孝感市,市辖区,31.3603,113.2903,96.0,996.8,20.4,100.0,23.95508309608492,38.76750000000002
Q7701,2025-06-03 19:00:00,拖市,省直辖县级行政区划,天门市,30.7267,112.8314,40.0,1004.1,22.0,95.0,25.106870867957795,44.31449999999997
Q7704,2025-06-03 19:00:00,佛子山,省直辖县级行政区划,天门市,30.7503,113.0092,35.2,1003.9,22.8,95.0,26.35942634616512,47.89150000000007
Q7705,2025-06-03 19:00:00,汪场,省直辖县级行政区划,天门市,30.61,113.0192,26.7,1004.8,22.5,100.0,27.2457326543834,59.56850000000005
Q7708,2025-06-03 19:00:00,岳口,省直辖县级行政区划,天门市,30.5239,113.0894,38.0,1004.3,22.9,93.0,25.96147060747324,45.13149999999994
Q7709,2025-06-03 19:00:00,九真,省直辖县级行政区划,天门市,30.7694,113.2297,29.7,1004.7,23.1,96.0,27.12561729366648,58.682000000000045
Q7712,2025-06-03 19:00:00,皂市,省直辖县级行政区划,天门市,30.8636,113.3256,39.0,1004.8,23.0,94.0,26.40013878861852,45.09000000000008
Q7713,2025-06-03 19:00:00,净潭,省直辖县级行政区划,天门市,30.6522,113.4097,30.0,1005.0,23.0,92.0,25.838433708009617,33.272000000000055
Q7716,2025-06-03 19:00:00,麻洋,省直辖县级行政区划,天门市,30.4411,113.2611,33.5,1004.6,23.0,94.0,26.40013878861852,42.12550000000006
Q7725,2025-06-03 19:00:00,石家河,省直辖县级行政区划,天门市,30.7561,113.0772,27.0,1004.8,23.2,97.0,27.574535144764024,61.34666666666675
