Station_Id_C,Datetime,Station_Name,City,Cnty,Lat,Lon,Alti,PRS,TEM,RHU,VAP,PWV
57264,2025-06-03 14:00:00,武当山,十堰市,丹江口市,32.4261,111.0153,1017.5,897.6,21.6,38.0,9.800157235417975,19.661
57351,2025-06-03 14:00:00,坛子岭,宜昌市,夷陵区,30.8333,111.0167,231.0,982.9,22.5,83.0,22.61395810313822,53.07649999999999
57352,2025-06-03 14:00:00,三斗坪,宜昌市,夷陵区,30.8092,111.0003,185.3,988.0,22.7,78.0,21.5115141779038,43.68949999999992
57353,2025-06-03 14:00:00,苏家坳,宜昌市,夷陵区,30.8378,111.0164,191.8,987.3,23.6,77.0,22.42434599801801,47.593999999999966
57354,2025-06-03 14:00:00,神农顶,省直辖县级行政区划,神农架林区,31.4558,110.2711,2948.1,715.1,6.8,36.0,3.55605131042622,5.377000000000002
57367,2025-06-03 14:00:00,大老岭,宜昌市,夷陵区,31.0836,110.9406,1910.0,809.6,14.8,32.0,5.383132250571774,14.70299999999998
57451,2025-06-03 14:00:00,绿葱坡,恩施土家族苗族自治州,巴东县,30.8131,110.2539,1813.5,819.1,15.5,29.0,5.103112962543267,8.894999999999992
Q0004,2025-06-03 14:00:00,沪渝K1464,恩施土家族苗族自治州,利川市,30.2789,108.8711,1082.2,889.4,16.4,81.0,15.09752913113438,24.994500000000013
Q0005,2025-06-03 14:00:00,沪渝K1439,恩施土家族苗族自治州,利川市,30.2444,109.1197,1131.4,885.3,16.0,5.0,0.908465421551162,5.8050000000000015
Q0007,2025-06-03 14:00:00,沪渝K1412,恩施土家族苗族自治州,恩施市,30.2389,109.3664,706.7,929.3,19.7,79.0,18.121449791975,37.27158333333335
Q0008,2025-06-03 14:00:00,沪渝K1407,恩施土家族苗族自治州,巴东县,30.2439,109.4128,545.1,945.7,20.4,85.0,20.361820631672177,41.54
Q0010,2025-06-03 14:00:00,沪渝K1375,恩施土家族苗族自治州,恩施市,30.4114,109.5864,729.9,925.9,19.5,99.0,22.42859698741517,48.45383333333332
Q0011,2025-06-03 14:00:00,沪渝K1369,恩施土家族苗族自治州,恩施市,30.455,109.6258,624.1,936.8,20.1,99.0,23.2795369616671,45.36069999999995
Q0013,2025-06-03 14:00:00,沪渝K1351,恩施土家族苗族自治州,恩施市,30.4628,109.7828,780.1,920.0,19.6,71.0,16.185486411919616,31.58449999999998
Q0014,2025-06-03 14:00:00,沪渝K1343,恩施土家族苗族自治州,恩施市,30.4997,109.8508,903.4,907.7,17.8,70.0,14.25739911416918,26.870500000000025
Q0015,2025-06-03 14:00:00,沪渝K1336,恩施土家族苗族自治州,建始县,30.55,109.8914,879.8,909.9,18.2,77.0,16.082864693337985,32.08199999999997
Q0017,2025-06-03 14:00:00,沪渝K1313,恩施土家族苗族自治州,巴东县,30.6506,110.0908,794.9,918.9,19.0,74.0,16.250446537869824,30.08149999999997
Q0019,2025-06-03 14:00:00,沪渝K1305,恩施土家族苗族自治州,巴东县,30.6308,110.1639,865.2,911.4,18.7,70.0,15.08644259651897,25.183500000000024
Q0021,2025-06-03 14:00:00,沪渝K1291,恩施土家族苗族自治州,巴东县,30.6119,110.3097,1104.2,886.7,16.7,87.0,16.52835355652397,25.925500000000007
Q0022,2025-06-03 14:00:00,沪渝k1283,恩施土家族苗族自治州,恩施市,30.6217,110.3864,923.0,904.7,19.1,65.0,14.363415562310056,24.435000000000016
Q0023,2025-06-03 14:00:00,秭归k48,宜昌市,市辖区,30.6325,111.3253,62.7,997.8,23.2,74.0,21.036243306314823,44.1135
Q0026,2025-06-03 14:00:00,沪渝K1262,宜昌市,长阳土家族自治县,30.6247,110.6047,597.8,939.8,18.5,67.0,14.260127056818105,26.23450000000001
Q0028,2025-06-03 14:00:00,沪渝K1179,宜昌市,市辖区,30.5711,111.4003,54.9,999.3,22.7,89.0,24.54518925427485,51.23949999999998
Q0030,2025-06-03 14:00:00,沪渝K1208,宜昌市,长阳土家族自治县,30.5589,111.1281,241.9,981.7,22.1,78.0,20.74022543014233,25.77400000000004
Q0032,2025-06-03 14:00:00,沪渝K1097,荆州市,荆州区,30.3922,112.195,25.4,1003.5,24.5,75.0,23.056009632042866,34.21350000000002
Q0033,2025-06-03 14:00:00,沪渝K1069,荆州市,荆州区,30.3353,112.4733,25.4,1004.3,25.1,91.0,28.996084280843643,55.25350000000001
Q0034,2025-06-03 14:00:00,沪渝K1065,省直辖县级行政区划,潜江市,30.3383,112.5164,24.4,1003.9,24.9,88.0,27.7074575987105,46.72350000000006
Q0037,2025-06-03 14:00:00,沪渝K933,武汉市,蔡甸区,30.4533,113.8225,17.0,1004.5,24.0,77.0,22.971058147099725,38.85600000000002
Q0039,2025-06-03 14:00:00,沪渝k959,省直辖县级行政区划,仙桃市,30.3486,113.5853,15.2,1004.5,25.1,74.0,23.57923337123549,42.66500000000002
Q0040,2025-06-03 14:00:00,沪渝K982,省直辖县级行政区划,仙桃市,30.3631,113.3619,9.0,1005.1,25.3,75.0,24.184408293443663,38.70100000000005
Q0047,2025-06-03 14:00:00,黄黄785,黄冈市,浠水县,30.2406,115.1297,19.8,1005.8,23.9,78.0,23.12983363107571,44.69950000000003
Q0049,2025-06-03 14:00:00,黄黄K761,黄冈市,蕲春县,30.1353,115.33,21.4,1005.4,24.6,75.0,23.194490266541628,51.79299999999992
Q0050,2025-06-03 14:00:00,黄黄K742,黄冈市,武穴市,30.0289,115.4664,41.4,1003.3,21.8,84.0,21.93019554715574,39.30699999999997
Q0051,2025-06-03 14:00:00,黄黄K730,黄冈市,武穴市,30.0039,115.5917,38.0,1004.2,21.3,93.0,23.547602096427187,49.15875000000001
Q0052,2025-06-03 14:00:00,黄黄K722,黄冈市,武穴市,30.0161,115.6708,42.5,1002.7,22.4,81.0,21.935199495474752,41.599
Q0053,2025-06-03 14:00:00,黄黄K714,黄冈市,武穴市,30.0278,115.7514,22.2,1005.1,23.2,86.0,24.447526004636146,42.08449999999996
Q0054,2025-06-03 14:00:00,黄黄K708,黄冈市,黄梅县,30.0278,115.8164,23.1,1005.5,22.5,97.0,26.428360674751897,49.83799999999996
Q0055,2025-06-03 14:00:00,黄黄K700,黄冈市,黄梅县,30.0333,115.8986,25.2,1005.0,23.2,85.0,24.1632524464427,40.42899999999997
Q0056,2025-06-03 14:00:00,黄黄K685,黄冈市,黄梅县,30.1047,116.0217,45.9,1003.1,22.3,88.0,23.686196768727,42.86400000000004
Q0058,2025-06-03 14:00:00,大广K2491,黄石市,市辖区,30.1703,114.9136,25.0,1004.0,22.7,76.0,20.959936891290884,40.231500000000025
Q0061,2025-06-03 14:00:00,大广K2520,黄石市,大冶市,29.9158,114.8833,57.7,1001.3,21.1,83.0,20.75907354943686,39.996499999999976
Q0064,2025-06-03 14:00:00,大广K2552,黄石市,阳新县,29.6617,114.9464,23.5,1004.9,20.1,85.0,19.987481229714174,38.45050000000003
Q0065,2025-06-03 14:00:00,大广K2560,黄石市,阳新县,29.6053,114.9322,37.1,1002.4,19.2,92.0,20.45695180912428,49.88349999999998
Q0066,2025-06-03 14:00:00,大广K2583,咸宁市,通山县,29.4306,114.8339,281.9,974.4,22.3,57.0,15.342195634289078,29.916999999999994
Q0067,2025-06-03 14:00:00,杭瑞K731,咸宁市,崇阳县,29.3742,113.8803,81.0,997.1,22.9,77.0,21.494981040596123,47.68414999999999
Q0069,2025-06-03 14:00:00,杭瑞K679,咸宁市,通山县,29.5817,114.3203,81.0,994.3,20.3,89.0,21.188662593823768,50.06099999999995
Q0071,2025-06-03 14:00:00,杭瑞K640,咸宁市,通山县,29.7172,114.6692,128.1,992.7,19.3,97.0,21.70358583573751,45.98700000000004
Q0072,2025-06-03 14:00:00,杭瑞K620,黄石市,阳新县,29.7147,114.8767,167.3,989.0,19.3,89.0,19.91359937505813,47.67249999999993
Q0074,2025-06-03 14:00:00,杭瑞K583,黄石市,阳新县,29.7067,115.2367,54.2,1000.9,19.1,99.0,21.876586779518394,43.008
Q0079,2025-06-03 14:00:00,福银K1447,十堰市,郧西县,33.08,110.3,444.3,958.1,19.9,92.0,21.367042480224427,38.69050000000008
Q0080,2025-06-03 14:00:00,福银K1421,十堰市,郧西县,32.95,110.5,395.1,962.8,20.6,83.0,20.129730568114013,34.31250000000002
Q0081,2025-06-03 14:00:00,福银K1405,十堰市,郧西县,32.86,110.65,275.8,974.5,22.0,74.0,19.55693099188291,35.434499999999964
Q0082,2025-06-03 14:00:00,福银K1398,十堰市,郧西县,32.82,110.7,205.1,982.6,21.7,83.0,21.53701084818669,41.48637500000004
Q0083,2025-06-03 14:00:00,福银K1338,十堰市,丹江口市,32.51,111.14,162.4,987.7,23.3,86.0,24.59580352054769,39.897999999999975
Q0087,2025-06-03 14:00:00,福银K1277,襄阳市,谷城县,32.28,111.66,73.4,997.3,25.4,75.0,24.328800639434924,49.88999999999999
Q0089,2025-06-03 14:00:00,福银K1234,襄阳市,市辖区,32.19,112.1,76.5,997.3,25.2,54.0,17.3093518097709,34.46399999999994
Q0093,2025-06-03 14:00:00,福银K1103,随州市,市辖区,31.67,113.26,101.0,995.5,23.4,83.0,23.881675158535977,41.82799999999994
Q0094,2025-06-03 14:00:00,福银K1093,随州市,市辖区,31.6,113.33,83.0,997.9,23.2,83.0,23.594705330055817,53.318500000000085
Q0095,2025-06-03 14:00:00,福银K1076,随州市,市辖区,31.48,113.43,110.0,995.0,21.8,98.0,25.585228138348366,42.71399999999998
Q0096,2025-06-03 14:00:00,福银K1064,孝感市,安陆市,31.39,113.51,97.7,997.3,24.3,79.0,23.99621643614236,41.38099999999999
Q0100,2025-06-03 14:00:00,福银K993,孝感市,市辖区,30.98,114.05,29.2,1003.9,24.6,77.0,23.81301000698274,44.81
Q0103,2025-06-03 14:00:00,襄荆K1620,荆门市,钟祥市,31.54,112.28,56.7,1000.1,25.1,5.0,1.593191444002398,6.161499999999997
Q0104,2025-06-03 14:00:00,襄荆K1634,荆门市,钟祥市,31.42,112.34,68.6,999.2,24.3,71.0,21.566219835014017,37.24549999999997
Q0106,2025-06-03 14:00:00,襄荆K1685,荆门市,市辖区,30.99,112.27,51.3,1000.4,24.1,84.0,25.21041409685504,41.140999999999934
Q0107,2025-06-03 14:00:00,襄荆K1704,荆门市,市辖区,30.82,112.24,75.1,998.3,24.5,81.0,24.90049040260629,25.099000000000014
Q0108,2025-06-03 14:00:00,襄荆K1715交通气象站,荆门市,沙洋县,30.7,112.22,50.4,1001.2,24.3,20.0,6.0749915028208505,10.394499999999988
Q0109,2025-06-03 14:00:00,襄荆K1745,荆门市,沙洋县,30.45,112.21,42.3,1003.1,25.5,76.0,24.800266048702312,46.437000000000026
Q0600,2025-06-03 14:00:00,洪湖石码头,荆州市,洪湖市,29.8361,113.5272,26.0,1004.3,24.3,78.0,23.692466861001314,42.24900000000005
Q0603,2025-06-03 14:00:00,石首海事码头,荆州市,石首市,29.7378,112.4081,20.0,1003.7,22.8,88.0,24.417152825921377,44.22650000000001
Q0604,2025-06-03 14:00:00,公安航道码头,荆州市,公安县,30.0744,112.215,11.0,1003.3,23.8,78.0,22.99101711009572,42.67449999999992
Q0605,2025-06-03 14:00:00,江陵航道码头,荆州市,江陵县,30.03,112.4025,50.0,1003.3,25.1,72.0,22.941956793634528,41.115000000000016
Q0606,2025-06-03 14:00:00,杨林矶海事码头,荆州市,市辖区,30.3206,112.2025,15.0,1003.2,23.4,85.0,24.45713721054889,46.018499999999975
Q0607,2025-06-03 14:00:00,阳逻海事水上搜救中心,武汉市,新洲区,30.6586,114.5494,40.0,1004.8,24.3,67.0,20.35122153444985,35.76300000000002
Q0608,2025-06-03 14:00:00,金口航道码头,武汉市,江夏区,30.3672,114.1486,0.0,1004.7,24.2,76.0,22.94683286881217,43.08750000000007
Q0609,2025-06-03 14:00:00,嘉鱼簰洲湾海事站房,咸宁市,嘉鱼县,30.2064,113.9283,20.0,1004.7,23.1,91.0,25.712824726288016,52.51550000000003
Q0611,2025-06-03 14:00:00,秭归泄滩小学,宜昌市,秭归县,31.0047,110.6128,194.5,985.8,22.5,91.0,24.79361671548889,40.51599999999993
Q0612,2025-06-03 14:00:00,长江航道宜昌综合码头,宜昌市,宜都市,30.5539,111.39,40.0,1002.1,23.2,83.0,23.594705330055817,44.23799999999999
Q0613,2025-06-03 14:00:00,宜昌海事局孙家河执法队,宜昌市,宜都市,30.4106,111.5064,60.0,1002.6,22.2,85.0,22.73975007238432,50.90399999999994
Q0614,2025-06-03 14:00:00,松滋河口,宜昌市,宜都市,30.3075,111.6236,40.0,1002.4,23.3,71.0,20.30583779021961,39.33699999999993
Q0615,2025-06-03 14:00:00,枝江姚港,宜昌市,枝江市,30.3725,111.64,50.0,1002.9,22.5,86.0,23.431330082769723,39.19504166666668
Q0616,2025-06-03 14:00:00,枝江七星台,宜昌市,枝江市,30.4125,111.8875,40.0,1002.9,23.8,79.0,23.285773739712333,40.12258333333334
Q0617,2025-06-03 14:00:00,监利何王庙,荆州市,监利市,29.7708,113.0303,40.0,1003.6,24.3,83.0,25.211214736706527,39.94449999999999
Q0618,2025-06-03 14:00:00,监利三洲,荆州市,监利市,29.6517,112.9492,30.0,1003.8,21.3,1.0,0.2532000225422278,2.798500000000004
Q0619,2025-06-03 14:00:00,洪湖龙口汽渡码头,荆州市,洪湖市,29.9542,113.8303,30.0,1004.5,23.2,80.0,22.741884655475488,44.01700000000002
Q0701,2025-06-03 14:00:00,水口白灯船,武汉市,新洲区,30.6869,114.5175,4.0,1004.4,24.2,78.0,23.55069689167565,47.84621666666665
Q0702,2025-06-03 14:00:00,牧鹅洲白灯船,武汉市,新洲区,30.5583,114.6317,4.0,1004.5,23.5,84.0,24.315776632647257,43.12550000000002
Q0704,2025-06-03 14:00:00,沙市河段航道整治一期工程提示标,荆州市,沙市区,30.3142,112.2003,8.0,1002.5,23.3,100.0,28.59977153552057,59.6245
Q0705,2025-06-03 14:00:00,公安大桥进口白泵船,荆州市,公安县,30.0753,112.3128,7.0,1002.3,23.6,89.0,25.919049270436403,45.67800000000005
Q0707,2025-06-03 14:00:00,桃花洲中提示标,荆州市,洪湖市,29.7636,112.6675,6.0,1002.7,22.5,100.0,27.2457326543834,52.64749999999987
Q0725,2025-06-03 14:00:00,天兴洲航道整治建筑物上提示标,武汉市,江岸区,30.6411,114.3525,4.0,1004.0,24.4,72.0,22.00152319328112,34.000499999999974
Q0729,2025-06-03 14:00:00,黄冈大桥#1红浮,黄冈市,市辖区,30.5308,114.8308,4.0,1004.1,23.6,83.0,24.171697634227208,38.20700000000005
Q0737,2025-06-03 14:00:00,李家洲#3红浮,黄冈市,市辖区,30.1289,115.2844,3.0,1004.2,23.2,77.0,21.889063980895155,42.30600000000001
Q1000,2025-06-03 14:00:00,江滩,武汉市,江岸区,30.5944,114.3017,28.8,1005.0,23.8,75.0,22.10674722124589,37.14499999999999
Q1001,2025-06-03 14:00:00,潘塘,武汉市,新洲区,30.9978,114.8886,62.0,1000.1,22.9,83.0,23.16991462817504,38.27650000000003
Q1002,2025-06-03 14:00:00,三店,武汉市,新洲区,30.9278,114.7925,28.0,1004.6,22.9,90.0,25.124003813683775,49.72999999999993
Q1003,2025-06-03 14:00:00,李集,武汉市,新洲区,30.8803,114.6789,24.6,1005.0,22.5,95.0,25.883446021664227,53.49100000000006
Q1004,2025-06-03 14:00:00,旧街,武汉市,新洲区,30.8169,114.8717,27.0,1004.8,21.7,90.0,23.3533852570699,35.74949999999997
Q1005,2025-06-03 14:00:00,辛冲,武汉市,新洲区,30.7997,114.8161,40.0,1003.6,22.9,85.0,23.72822582403468,44.2295
Q1006,2025-06-03 14:00:00,汪集,武汉市,新洲区,30.8086,114.73,37.0,1003.4,23.4,78.0,22.44302002850369,31.666500000000013
Q1007,2025-06-03 14:00:00,仓埠,武汉市,江岸区,30.8736,114.6136,28.8,1002.6,23.0,79.0,22.187350684051733,35.73599999999998
Q1008,2025-06-03 14:00:00,凤凰,武汉市,新洲区,30.9403,114.7225,67.0,1001.3,21.4,95.0,24.20200004325152,33.90599999999996
Q1010,2025-06-03 14:00:00,化工,武汉市,洪山区,30.5064,114.3839,40.8,1004.0,23.7,68.0,19.9230678274162,35.736999999999995
Q1011,2025-06-03 14:00:00,五一大队,武汉市,东西湖区,30.7475,114.0272,26.0,1005.6,22.8,94.0,26.081958700416017,53.68600000000002
Q1013,2025-06-03 14:00:00,湖北省农科院,武汉市,洪山区,30.4836,114.3192,31.0,1005.0,22.9,77.0,21.494981040596123,41.09299999999998
Q1014,2025-06-03 14:00:00,花山工作基地,武汉市,市辖区,30.5325,114.5006,41.0,1003.1,22.5,64.0,17.437268898805375,31.37200000000002
Q1016,2025-06-03 14:00:00,湖北省预备役师,武汉市,洪山区,30.5333,114.5058,29.0,1004.3,21.0,79.0,19.63753668053763,44.09850000000003
Q1017,2025-06-03 14:00:00,和平公园,武汉市,青山区,30.6381,114.3803,22.0,1005.1,22.4,84.0,22.747614291603444,38.39300000000002
Q1018,2025-06-03 14:00:00,纱帽,武汉市,汉南区,30.3322,114.0706,19.0,1005.1,23.6,82.0,23.880472361525676,46.76999999999995
Q1019,2025-06-03 14:00:00,湘口,武汉市,汉南区,30.2669,113.8478,25.0,1005.2,22.4,90.0,24.372443883860832,40.27049999999995
Q1020,2025-06-03 14:00:00,邓南,武汉市,汉南区,30.3078,113.9783,27.0,1004.7,22.1,95.0,25.26053097260925,44.26400000000003
Q1021,2025-06-03 14:00:00,东荆,武汉市,汉南区,30.3461,113.9131,24.0,1005.1,23.0,83.0,23.310760845269545,36.39433333333336
Q1022,2025-06-03 14:00:00,气象预警中心,武汉市,东西湖区,30.6703,114.1803,32.0,1005.4,22.8,88.0,24.417152825921377,40.49899999999999
Q1023,2025-06-03 14:00:00,建和分校,武汉市,洪山区,30.4614,114.2383,23.2,1005.3,24.2,76.0,22.94683286881217,39.51600000000009
Q1024,2025-06-03 14:00:00,实验小学,武汉市,东西湖区,30.6242,114.1408,26.0,1005.5,24.5,73.0,22.441182708521723,37.55850000000002
Q1025,2025-06-03 14:00:00,白玉公园,武汉市,青山区,30.6014,114.4875,25.0,1005.5,21.4,90.0,22.92821056729091,42.44250000000002
Q1026,2025-06-03 14:00:00,沌阳,武汉市,汉南区,30.455,114.1294,28.0,1005.3,22.8,95.0,26.35942634616512,46.31199999999996
Q1027,2025-06-03 14:00:00,华师,武汉市,洪山区,30.5183,114.3594,43.1,1003.2,23.3,74.0,21.163830936285223,42.2445
Q1028,2025-06-03 14:00:00,常青路,武汉市,东西湖区,30.6731,114.2292,24.0,1005.6,23.2,88.0,25.016073121023037,48.162
Q1029,2025-06-03 14:00:00,光谷二十七小学,武汉市,洪山区,30.5644,114.4858,26.8,1004.9,23.8,79.0,23.285773739712333,43.62699999999999
Q1030,2025-06-03 14:00:00,材保所,武汉市,东西湖区,30.6772,114.2828,35.0,1005.5,24.0,77.0,22.971058147099725,41.60099999999995
Q1031,2025-06-03 14:00:00,湖北省第二师范,武汉市,洪山区,30.4789,114.4464,35.0,1004.0,22.2,76.0,20.33201182942598,35.508999999999965
Q1032,2025-06-03 14:00:00,百步亭社区,武汉市,江岸区,30.6644,114.3136,26.0,1005.6,22.9,77.0,21.494981040596123,35.36849999999998
Q1033,2025-06-03 14:00:00,南湖社区,武汉市,武昌区,30.5133,114.3114,19.0,1005.5,22.9,78.0,21.774136638525945,43.62000000000001
Q1036,2025-06-03 14:00:00,东湖落雁景区,武汉市,市辖区,30.5517,114.4369,23.0,1005.5,23.1,85.0,24.01747364543386,46.52750000000004
Q1038,2025-06-03 14:00:00,天兴洲,武汉市,洪山区,30.6708,114.41,25.0,1005.0,21.4,81.0,20.635389510561826,38.61750000000002
Q1039,2025-06-03 14:00:00,光谷二十一小学,武汉市,洪山区,30.5031,114.4803,45.3,1003.2,23.2,62.0,17.6249606079935,22.16749999999999
Q1040,2025-06-03 14:00:00,五云,武汉市,江岸区,30.7594,114.6317,24.0,1003.6,22.1,92.0,24.462829994526857,43.32899999999998
Q1041,2025-06-03 14:00:00,鄢家湖,武汉市,江岸区,30.6386,114.5739,11.5,1005.3,20.8,93.0,22.834783102684725,49.85100000000001
Q1042,2025-06-03 14:00:00,席家岗,武汉市,江岸区,30.8764,114.4739,32.5,1003.8,21.8,91.0,23.75771184275205,44.24600000000001
Q1043,2025-06-03 14:00:00,六指中心福利院,武汉市,江岸区,30.8822,114.5217,39.2,1003.7,22.7,85.0,23.44203468104901,41.42949999999993
Q1044,2025-06-03 14:00:00,青华,武汉市,江岸区,30.8683,114.5803,42.3,1003.5,21.7,89.0,23.09390319865801,40.39450000000004
Q1045,2025-06-03 14:00:00,大咀,武汉市,江岸区,30.7972,114.4647,31.3,1003.6,23.1,81.0,22.88723959153109,47.84349999999999
Q1052,2025-06-03 14:00:00,武汉植物园,武汉市,洪山区,30.5447,114.42,23.3,1005.4,21.8,79.0,20.624826764586945,40.67550000000003
Q1054,2025-06-03 14:00:00,湖大,武汉市,武昌区,30.5814,114.3311,23.0,1005.3,23.9,70.0,20.75754300224743,40.206500000000055
Q1057,2025-06-03 14:00:00,林业站,武汉市,洪山区,30.6369,114.5061,33.0,1005.6,20.7,92.0,22.450485981675303,38.97550000000007
Q1061,2025-06-03 14:00:00,青山,武汉市,青山区,30.6411,114.4039,33.5,1004.6,23.1,71.0,20.061654456774168,27.95266666666665
Q1071,2025-06-03 14:00:00,士官学校,武汉市,洪山区,30.51,114.4581,35.0,1004.7,21.4,83.0,21.14490530094606,45.98000000000004
Q1072,2025-06-03 14:00:00,堤角公园,武汉市,江岸区,30.6664,114.335,27.0,1005.1,22.2,84.0,22.472223600944503,41.561500000000045
Q1073,2025-06-03 14:00:00,湖北省移动公司,武汉市,江汉区,30.6272,114.2394,25.0,1005.3,23.5,78.0,22.578935444601026,37.33350000000001
Q1081,2025-06-03 14:00:00,汉南,武汉市,汉南区,30.255,114.0589,22.1,1005.3,23.1,84.0,23.734915131958168,38.56400000000004
Q1082,2025-06-03 14:00:00,沌口,武汉市,汉南区,30.4769,114.1631,18.1,1004.9,23.0,84.0,23.591613385574,38.91850000000008
Q1083,2025-06-03 14:00:00,春笋,武汉市,汉南区,30.4156,114.1306,21.6,1005.5,22.9,87.0,24.28653701989432,40.70150000000002
Q1084,2025-06-03 14:00:00,恒大农业,武汉市,汉南区,30.3267,114.0014,23.3,1005.1,22.4,93.0,25.184858679989528,39.64949999999998
Q1085,2025-06-03 14:00:00,武湖湿地,武汉市,汉南区,30.2131,113.8472,22.6,1005.4,22.6,89.0,24.39655097603044,49.651
Q1086,2025-06-03 14:00:00,喜鹊湖,武汉市,汉南区,30.22,113.8256,21.3,1005.5,22.5,93.0,25.33853136857656,48.09900000000002
Q1087,2025-06-03 14:00:00,龙灵山,武汉市,汉南区,30.4258,114.1092,33.7,1004.1,22.5,83.0,22.61395810313822,43.00099999999997
Q1088,2025-06-03 14:00:00,武汉西,武汉市,汉南区,30.4586,114.0606,29.0,1004.6,22.7,83.0,22.89045739443609,42.24900000000003
Q1101,2025-06-03 14:00:00,道观河,武汉市,新洲区,30.8781,114.9839,83.0,997.8,22.5,80.0,21.79658612350672,55.611500000000014
Q1102,2025-06-03 14:00:00,阳逻,武汉市,江岸区,30.6969,114.5339,25.0,1005.5,22.6,86.0,23.574195325153006,47.37899999999995
Q1103,2025-06-03 14:00:00,涨渡湖,武汉市,新洲区,30.6675,114.7861,18.7,1005.7,22.9,82.0,22.890759030245217,32.73883333333332
Q1104,2025-06-03 14:00:00,双柳,武汉市,新洲区,30.5964,114.6472,23.0,1005.1,22.8,82.0,22.75234695142673,35.87050000000002
Q1105,2025-06-03 14:00:00,将军山,武汉市,新洲区,30.8894,115.0589,344.5,969.2,20.2,69.0,16.32587438926953,33.71150000000001
Q1106,2025-06-03 14:00:00,徐古,武汉市,新洲区,30.9481,114.9694,73.0,999.6,23.0,81.0,22.749055764660643,46.41549999999996
Q1107,2025-06-03 14:00:00,徐治湾,武汉市,新洲区,30.8731,114.7681,25.0,1004.6,22.5,88.0,23.976244735857392,45.45400000000005
Q1108,2025-06-03 14:00:00,方院,武汉市,新洲区,30.9156,114.6519,39.3,1003.4,21.4,94.0,23.947242148059395,40.159999999999954
Q1109,2025-06-03 14:00:00,杨裴,武汉市,江岸区,30.7858,114.5475,31.6,1004.2,22.6,84.0,23.02595822456805,40.90550000000005
Q1111,2025-06-03 14:00:00,陈家田,武汉市,新洲区,30.975,114.7111,51.1,1002.0,20.8,93.0,22.834783102684725,46.38350000000005
Q1112,2025-06-03 14:00:00,大雾山,武汉市,新洲区,30.8286,114.9725,196.4,985.7,23.2,61.0,17.34068704980006,30.579999999999977
Q1113,2025-06-03 14:00:00,王寨,武汉市,新洲区,30.8742,114.8856,30.1,1004.4,22.5,89.0,24.248702062401225,46.02000000000002
Q1114,2025-06-03 14:00:00,春光,武汉市,新洲区,30.9244,114.6972,55.4,1001.5,21.9,87.0,22.85263867751795,50.51149999999996
Q1115,2025-06-03 14:00:00,易河,武汉市,新洲区,30.9389,114.9081,36.0,1003.7,21.8,96.0,25.063080625320847,47.191500000000026
Q1116,2025-06-03 14:00:00,李岗,武汉市,新洲区,30.9575,114.87,60.0,1001.1,22.4,86.0,23.28922415568924,33.41449999999997
Q1117,2025-06-03 14:00:00,徐寨,武汉市,新洲区,30.9631,114.7978,28.0,1004.7,23.1,87.0,24.582590672385248,49.44599999999995
Q1118,2025-06-03 14:00:00,陈路,武汉市,新洲区,30.6256,114.7536,22.2,1005.3,22.6,84.0,23.02595822456805,39.588500000000046
Q1119,2025-06-03 14:00:00,滨湖,武汉市,新洲区,30.6903,114.705,26.5,1004.8,22.4,86.0,23.28922415568924,41.90449999999996
Q1120,2025-06-03 14:00:00,航天新城,武汉市,新洲区,30.5981,114.6917,22.5,1005.3,22.7,78.0,21.5115141779038,37.018
Q1121,2025-06-03 14:00:00,大泊,武汉市,新洲区,30.7686,114.6692,20.6,1005.4,22.5,91.0,24.79361671548889,42.547999999999945
Q1122,2025-06-03 14:00:00,冯铺,武汉市,新洲区,30.7528,114.7064,23.9,1005.1,23.2,89.0,25.30034667921648,46.2265
Q1123,2025-06-03 14:00:00,人胜,武汉市,新洲区,30.8286,114.6825,23.6,1005.1,23.2,89.0,25.30034667921648,46.2265
Q1124,2025-06-03 14:00:00,杨铺,武汉市,新洲区,30.7658,114.815,35.4,1003.8,23.6,84.0,24.46292290692874,51.12150000000004
Q1125,2025-06-03 14:00:00,朱岗,武汉市,新洲区,30.7722,114.8658,39.5,1003.3,22.5,87.0,23.70378740931356,45.04950000000004
Q1126,2025-06-03 14:00:00,毛集,武汉市,新洲区,30.6581,114.6303,22.0,1003.9,21.8,86.0,22.452343060183257,36.48475000000004
Q1128,2025-06-03 14:00:00,王瓦,武汉市,新洲区,30.7972,114.6519,13.8,1005.2,22.1,91.0,24.19692966849939,45.53949999999997
Q1129,2025-06-03 14:00:00,四道沟,武汉市,新洲区,30.73,114.7775,20.2,1005.4,21.5,93.0,23.83814747552502,38.4965
Q1130,2025-06-03 14:00:00,道观河水库,武汉市,新洲区,30.8692,115.0061,92.7,997.5,21.4,82.0,20.89014740575394,48.54500000000004
Q1131,2025-06-03 14:00:00,大屋冲,武汉市,新洲区,30.9228,115.0169,109.7,995.4,21.1,76.0,19.008308310327727,41.10500000000002
Q1132,2025-06-03 14:00:00,凤凰镇中心小学,武汉市,新洲区,30.9228,114.7528,34.0,1002.3,24.0,78.0,23.26938357758154,37.69649999999998
Q1133,2025-06-03 14:00:00,旧街利河小学,武汉市,新洲区,30.8536,114.9625,31.0,1003.0,21.5,85.0,21.78755414429706,35.24237499999998
Q1134,2025-06-03 14:00:00,双柳汉昕小学,武汉市,新洲区,30.6467,114.8336,15.0,1005.6,22.5,82.0,22.341500776594383,43.393499999999946
Q1135,2025-06-03 14:00:00,刘六,武汉市,新洲区,30.8819,114.8447,32.0,1003.0,22.7,87.0,23.99361196766193,43.45600000000003
Q1136,2025-06-03 14:00:00,涨渡湖湿地森林公园,武汉市,新洲区,30.6756,114.7642,28.8,1005.6,22.6,94.0,25.767143727492822,55.56850000000005
Q1191,2025-06-03 14:00:00,紫薇都市田园,武汉市,江岸区,30.8192,114.6042,35.7,1003.8,22.2,85.0,22.73975007238432,43.26200000000007
Q1199,2025-06-03 14:00:00,邾城,武汉市,新洲区,30.8331,114.7997,26.4,1004.6,22.8,82.0,22.75234695142673,39.44800000000002
Q1201,2025-06-03 14:00:00,姚家集,武汉市,黄陂区,31.2047,114.3831,48.5,1002.6,21.8,95.0,24.802006868807087,52.5115
Q1202,2025-06-03 14:00:00,蔡家榨,武汉市,黄陂区,30.9883,114.5211,88.0,998.0,23.1,83.0,23.45235661848248,50.44499999999994
Q1203,2025-06-03 14:00:00,李家集,武汉市,黄陂区,30.9947,114.2333,37.5,1002.4,21.9,97.0,25.479378755393576,53.5495
Q1204,2025-06-03 14:00:00,天河机场,武汉市,黄陂区,30.8131,114.2119,35.0,1003.5,24.5,79.0,24.28566347908515,46.01600000000002
Q1207,2025-06-03 14:00:00,蔡店,武汉市,黄陂区,31.2856,114.3106,67.0,1000.4,22.7,93.0,25.648343827500685,54.29429999999998
Q1208,2025-06-03 14:00:00,祁家湾,武汉市,黄陂区,30.8853,114.2261,41.0,1003.4,23.9,84.0,24.90905160269692,45.52699999999999
Q1209,2025-06-03 14:00:00,横店,武汉市,黄陂区,30.8003,114.2903,38.0,1002.7,24.5,77.0,23.67083655556401,43.39199999999993
Q1210,2025-06-03 14:00:00,盘龙城,武汉市,黄陂区,30.7506,114.3008,30.0,1003.5,24.0,77.0,22.971058147099725,38.8395
Q1212,2025-06-03 14:00:00,夏家寺水库,武汉市,黄陂区,31.0553,114.4678,49.0,1001.4,22.5,86.0,23.431330082769723,36.108999999999945
Q1213,2025-06-03 14:00:00,刘家山,武汉市,黄陂区,31.3047,114.2033,537.0,949.1,22.0,74.0,19.55693099188291,32.86599999999999
Q1214,2025-06-03 14:00:00,三里桥,武汉市,江岸区,30.7583,114.4194,23.0,1005.8,21.9,90.0,23.64066070088064,54.31736666666672
Q1215,2025-06-03 14:00:00,罗汉寺,武汉市,黄陂区,30.9933,114.3361,48.0,1002.6,22.2,92.0,24.61243537246303,48.47687499999999
Q1216,2025-06-03 14:00:00,长轩岭,武汉市,黄陂区,31.1075,114.3617,49.0,1002.8,22.8,89.0,24.694620471670486,45.35325000000002
Q1217,2025-06-03 14:00:00,现代农展中心,武汉市,江岸区,30.7003,114.5036,21.0,1005.6,22.4,90.0,24.372443883860832,47.19249999999999
Q1218,2025-06-03 14:00:00,源泉,武汉市,黄陂区,31.2347,114.23,100.2,995.1,20.8,94.0,23.08031840486413,59.20699999999998
Q1219,2025-06-03 14:00:00,矿巴水库,武汉市,黄陂区,31.0919,114.2014,105.3,997.6,22.2,89.0,23.809855958143583,49.76049999999999
Q1220,2025-06-03 14:00:00,武湖,武汉市,江岸区,30.7003,114.4181,29.0,1005.2,23.9,76.0,22.53676097386864,42.22300000000001
Q1221,2025-06-03 14:00:00,滠口,武汉市,黄陂区,30.7122,114.3606,17.3,1004.6,23.3,81.0,23.165814943771665,44.30799999999997
Q1222,2025-06-03 14:00:00,农科院北区,武汉市,江岸区,30.7164,114.4722,28.0,1005.4,22.4,81.0,21.935199495474752,39.231
Q1224,2025-06-03 14:00:00,崇杰,武汉市,黄陂区,31.2561,114.3842,50.2,1002.3,22.5,92.0,25.066074042032728,52.51209999999998
Q1225,2025-06-03 14:00:00,梅店水库,武汉市,黄陂区,31.1831,114.3153,65.1,1000.4,22.6,89.0,24.39655097603044,52.74016666666671
Q1226,2025-06-03 14:00:00,道士冲,武汉市,黄陂区,31.2664,114.2336,106.9,995.6,21.0,93.0,23.11760647202531,47.127
Q1227,2025-06-03 14:00:00,姚家老屋,武汉市,黄陂区,31.2417,114.2836,87.3,997.7,22.0,89.0,23.52117376050783,38.33799999999998
Q1228,2025-06-03 14:00:00,双墩,武汉市,黄陂区,30.8536,114.1789,22.0,1003.7,24.1,86.0,25.81066205154206,43.51749999999996
Q1229,2025-06-03 14:00:00,红旗,武汉市,黄陂区,30.9553,114.1625,21.6,1003.7,22.7,92.0,25.372555184194223,45.63949999999996
Q1230,2025-06-03 14:00:00,同兴集,武汉市,黄陂区,31.1272,114.4814,46.7,1000.9,22.0,91.0,24.049739462991152,55.072000000000045
Q1231,2025-06-03 14:00:00,磨盘,武汉市,黄陂区,31.1839,114.4325,61.2,999.2,22.1,89.0,23.665129016444457,47.6615
Q1232,2025-06-03 14:00:00,吊箭楼,武汉市,黄陂区,31.1419,114.4219,73.8,997.7,23.9,76.0,22.53676097386864,35.40400000000001
Q1233,2025-06-03 14:00:00,卧虎,武汉市,黄陂区,31.035,114.3906,29.0,1003.1,22.0,91.0,24.049739462991152,38.56099999999999
Q1234,2025-06-03 14:00:00,院基寺水库,武汉市,黄陂区,31.0972,114.315,48.5,1000.7,22.2,90.0,24.077382429583395,46.23749999999998
Q1235,2025-06-03 14:00:00,彭家冲,武汉市,黄陂区,31.0725,114.2422,86.4,998.8,21.7,91.0,23.61286731548179,61.98966666666671
Q1236,2025-06-03 14:00:00,红十月水库,武汉市,黄陂区,30.9511,114.4708,49.0,1000.6,22.8,85.0,23.584749888674057,56.71299999999994
Q1237,2025-06-03 14:00:00,北新,武汉市,黄陂区,31.0414,114.3053,60.4,999.3,23.8,79.0,23.285773739712333,41.793999999999976
Q1238,2025-06-03 14:00:00,余家冲水库,武汉市,黄陂区,31.3386,114.2825,96.0,995.0,22.5,89.0,24.248702062401225,49.415499999999966
Q1239,2025-06-03 14:00:00,官家砦,武汉市,黄陂区,31.0269,114.1628,34.0,1002.5,23.6,90.0,26.21027454313793,52.83749999999996
Q1243,2025-06-03 14:00:00,定正,武汉市,黄陂区,30.9133,114.4825,21.0,1003.5,21.9,92.0,24.166008716455764,52.946000000000005
Q1244,2025-06-03 14:00:00,黄陂石门,武汉市,黄陂区,31.1486,114.3,62.7,999.6,21.1,94.0,23.510276068036926,61.30249999999997
Q1245,2025-06-03 14:00:00,仁和,武汉市,黄陂区,31.25,114.3386,27.9,1002.3,21.9,92.0,24.166008716455764,49.55279999999997
Q1246,2025-06-03 14:00:00,帽子村,武汉市,黄陂区,31.1961,114.4222,55.1,999.7,22.3,90.0,24.224519422561706,48.387499999999946
Q1247,2025-06-03 14:00:00,白庙集,武汉市,黄陂区,30.9967,114.2653,53.0,1002.5,23.2,89.0,25.30034667921648,47.5705
Q1248,2025-06-03 14:00:00,白龙寺,武汉市,黄陂区,30.9969,114.4553,28.8,1004.1,22.7,88.0,24.26940061096839,50.41700000000008
Q1250,2025-06-03 14:00:00,童家湖,武汉市,黄陂区,30.7614,114.1772,14.3,1005.1,23.9,89.0,26.39173324571459,42.71850000000008
Q1251,2025-06-03 14:00:00,艾馆,武汉市,黄陂区,30.9539,114.6003,55.1,999.7,23.2,79.0,22.45761109728204,36.68499999999996
Q1252,2025-06-03 14:00:00,全华,武汉市,黄陂区,30.8608,114.2969,43.9,1001.2,24.2,82.0,24.7584249374026,42.56100000000001
Q1253,2025-06-03 14:00:00,下店,武汉市,黄陂区,30.9294,114.3856,35.8,1002.4,23.3,92.0,26.311789812678928,46.36900000000008
Q1254,2025-06-03 14:00:00,黄陂郑店,武汉市,黄陂区,30.9661,114.2142,32.9,1002.1,22.8,89.0,24.694620471670486,41.45749999999999
Q1255,2025-06-03 14:00:00,茶庙,武汉市,黄陂区,31.2994,114.4211,65.4,998.6,23.4,81.0,23.30621310652306,41.61699999999996
Q1270,2025-06-03 14:00:00,木兰天池,武汉市,黄陂区,31.1797,114.2817,337.8,971.5,21.0,85.0,21.128995162603776,45.335000000000015
Q1271,2025-06-03 14:00:00,云雾山,武汉市,黄陂区,31.1264,114.2086,122.0,994.5,21.1,99.0,24.760822667400596,52.68749999999997
Q1301,2025-06-03 14:00:00,老屋汤,武汉市,江夏区,30.3508,114.4364,20.5,1005.4,21.9,95.0,24.954030739818453,46.72350000000003
Q1302,2025-06-03 14:00:00,安山,武汉市,江夏区,30.1533,114.2303,42.0,1003.3,22.9,85.0,23.72822582403468,47.0175
Q1303,2025-06-03 14:00:00,金口,武汉市,江夏区,30.3481,114.1275,27.6,1005.0,22.4,100.0,27.080493204289816,47.829499999999946
Q1304,2025-06-03 14:00:00,郑店,武汉市,江夏区,30.285,114.2281,32.6,1004.8,21.7,92.0,23.87234937389368,50.10749999999999
Q1305,2025-06-03 14:00:00,法泗,武汉市,江夏区,30.1131,114.1917,24.0,1005.3,24.1,80.0,24.00991818748099,37.37700000000002
Q1306,2025-06-03 14:00:00,五里界,武汉市,江夏区,30.3058,114.4239,38.2,1003.7,21.4,94.0,23.947242148059395,56.73083333333324
Q1307,2025-06-03 14:00:00,山坡,武汉市,江夏区,30.0333,114.3808,40.0,1003.1,21.4,91.0,23.18296846248304,50.72350000000003
Q1308,2025-06-03 14:00:00,湖泗,武汉市,江夏区,30.0231,114.4622,40.8,1003.6,21.2,92.0,23.15184693426708,54.41499999999993
Q1309,2025-06-03 14:00:00,舒安,武汉市,江夏区,30.1494,114.5,32.3,1003.9,21.4,89.0,22.67345267209879,40.977000000000025
Q1310,2025-06-03 14:00:00,乌龙泉,武汉市,江夏区,30.2106,114.3286,35.0,1003.8,22.2,89.0,23.809855958143583,50.13350000000007
Q1311,2025-06-03 14:00:00,庙山,武汉市,江夏区,30.4372,114.3781,19.7,1005.6,22.4,84.0,22.747614291603444,51.42149999999998
Q1313,2025-06-03 14:00:00,梁子湖,武汉市,江夏区,30.2603,114.4494,22.8,1005.5,22.2,86.0,23.007276543824133,46.913
Q1314,2025-06-03 14:00:00,庙山天玺湾,武汉市,江夏区,30.3864,114.38,22.0,1005.7,23.2,79.0,22.45761109728204,45.48200000000004
Q1316,2025-06-03 14:00:00,中央大公园,武汉市,江夏区,30.3872,114.3056,26.0,1005.5,22.8,83.0,23.029814597175847,49.32150000000006
Q1317,2025-06-03 14:00:00,郑店海吉星,武汉市,江夏区,30.3178,114.2592,28.0,1005.3,21.3,91.0,23.041202051342733,51.68000000000003
Q1318,2025-06-03 14:00:00,五里界锦绣,武汉市,江夏区,30.3278,114.3869,27.0,1003.7,20.9,94.0,23.222864847095316,54.6245000000001
Q1319,2025-06-03 14:00:00,舒安未来家园,武汉市,江夏区,30.1294,114.4775,35.0,1005.4,22.3,95.0,25.570326057148463,45.24249999999993
Q1320,2025-06-03 14:00:00,湖泗祝祠,武汉市,江夏区,30.005,114.5111,55.0,1002.9,21.1,91.0,22.75994810841873,48.861
Q1321,2025-06-03 14:00:00,舒安嗣孟,武汉市,江夏区,30.0417,114.5383,49.0,1003.6,21.3,96.0,24.30720216405387,55.13899999999996
Q1322,2025-06-03 14:00:00,乌龙泉茗泉谷,武汉市,江夏区,30.2406,114.3142,66.0,1001.8,22.2,83.0,22.204697129504687,38.851000000000006
Q1323,2025-06-03 14:00:00,山坡光星,武汉市,江夏区,30.0956,114.3458,24.0,1005.8,20.9,99.0,24.458123615557827,42.58649999999998
Q1324,2025-06-03 14:00:00,乌龙泉杨湖,武汉市,江夏区,30.2308,114.4347,24.0,1005.7,20.8,93.0,22.834783102684725,44.80799999999997
Q1325,2025-06-03 14:00:00,金口南岸,武汉市,江夏区,30.2164,114.0742,24.0,1005.7,23.2,85.0,24.1632524464427,43.573000000000064
Q1326,2025-06-03 14:00:00,金水花篮棚,武汉市,江夏区,30.2019,114.1539,21.0,1005.8,24.1,79.0,23.709794210137478,37.10849999999997
Q1327,2025-06-03 14:00:00,法泗花莲湖,武汉市,江夏区,30.2031,114.1856,23.0,1005.7,24.4,83.0,25.362867014476844,40.30199999999998
Q1328,2025-06-03 14:00:00,东湖路学校,武汉市,江夏区,30.3664,114.3228,23.0,1005.5,24.6,70.0,21.64819091543885,38.56649999999995
Q1329,2025-06-03 14:00:00,金口长江,武汉市,江夏区,30.2903,114.0978,21.1,1005.4,21.9,94.0,24.69135673203089,47.33950000000002
Q1330,2025-06-03 14:00:00,马蹄口,武汉市,江夏区,30.2444,114.1503,23.7,1005.4,23.1,87.0,24.582590672385248,41.3175
Q1331,2025-06-03 14:00:00,三门口,武汉市,江夏区,30.2861,114.1775,43.3,1003.0,22.6,83.0,22.75183967427558,43.91
Q1332,2025-06-03 14:00:00,塘口,武汉市,江夏区,30.1914,114.4686,20.9,1005.7,21.9,86.0,22.589964669730385,48.610500000000044
Q1333,2025-06-03 14:00:00,三合,武汉市,江夏区,30.1481,114.36,34.1,1004.3,21.8,93.0,24.27985935577957,44.38900000000003
Q1334,2025-06-03 14:00:00,乌龙泉五星,武汉市,江夏区,30.1872,114.3167,41.0,1003.4,21.6,93.0,23.984595339312413,49.91299999999998
Q1335,2025-06-03 14:00:00,邓家洲,武汉市,江夏区,30.0183,114.25,21.7,1005.7,23.1,89.0,25.147707699336628,46.76399999999994
Q1336,2025-06-03 14:00:00,前途,武汉市,江夏区,30.0481,114.3033,35.5,1004.1,21.0,95.0,23.61475929938069,51.83650000000004
Q1337,2025-06-03 14:00:00,涂洲,武汉市,江夏区,30.2183,114.2303,28.3,1004.8,21.8,91.0,23.75771184275205,48.34499999999997
Q1338,2025-06-03 14:00:00,合心,武汉市,江夏区,30.1039,114.2444,31.2,1004.6,20.9,93.0,22.97581309340281,53.78000000000007
Q1339,2025-06-03 14:00:00,沿湖,武汉市,江夏区,30.1778,114.3586,32.5,1004.4,21.1,94.0,23.510276068036926,54.18099999999991
Q1340,2025-06-03 14:00:00,长岭,武汉市,江夏区,30.2194,114.3758,21.5,1005.5,20.7,96.0,23.426594067835097,55.9155
Q1341,2025-06-03 14:00:00,祝庙,武汉市,江夏区,30.1742,114.5003,39.8,1003.5,21.9,79.0,20.751246615217447,31.491499999999977
Q1342,2025-06-03 14:00:00,陈六,武汉市,江夏区,30.0381,114.4119,39.1,1003.8,20.9,92.0,22.728761339710307,51.5966666666666
Q1343,2025-06-03 14:00:00,金口花园,武汉市,江夏区,30.3275,114.1272,27.9,1004.8,22.6,88.0,24.12243242573796,46.35749999999999
Q1344,2025-06-03 14:00:00,安山青春,武汉市,江夏区,30.1744,114.2619,26.9,1005.0,21.4,94.0,23.947242148059395,56.99849999999994
Q1345,2025-06-03 14:00:00,安山英雄,武汉市,江夏区,30.1472,114.3175,41.3,1003.4,21.2,93.0,23.40349744442215,54.71600000000003
Q1346,2025-06-03 14:00:00,周李家,武汉市,江夏区,30.0914,114.3069,40.7,1003.5,21.8,87.0,22.71341681669702,48.70650000000005
Q1347,2025-06-03 14:00:00,狮子山,武汉市,江夏区,30.2844,114.3825,35.2,1003.7,21.1,86.0,21.509401509055056,37.46500000000001
Q1348,2025-06-03 14:00:00,凉亭,武汉市,江夏区,30.3039,114.1303,26.0,1005.4,23.6,81.0,23.589247088824145,33.55750000000003
Q1349,2025-06-03 14:00:00,金港,武汉市,江夏区,30.3728,114.1886,24.9,1005.3,22.3,89.0,23.95535809564435,45.76766666666665
Q1350,2025-06-03 14:00:00,山坡东方红,武汉市,江夏区,30.0536,114.2386,22.2,1005.6,22.4,94.0,25.455663612032428,49.65449999999996
Q1351,2025-06-03 14:00:00,新生,武汉市,江夏区,30.1067,114.4064,42.6,1003.4,21.5,93.0,23.83814747552502,56.76749999999996
Q1352,2025-06-03 14:00:00,官堤,武汉市,江夏区,30.0669,114.4333,38.5,1003.9,21.6,94.0,24.242494213928676,52.40199999999995
Q1353,2025-06-03 14:00:00,八分山,武汉市,江夏区,30.3608,114.2928,262.0,978.2,23.8,71.0,20.927720702779443,43.08100000000002
Q1354,2025-06-03 14:00:00,普生园,武汉市,江夏区,30.4092,114.3656,20.7,1004.4,24.1,75.0,22.509298300763422,38.7535
Q1401,2025-06-03 14:00:00,东山,武汉市,东西湖区,30.7736,114.0089,20.9,1005.5,22.7,84.0,23.166246037742557,49.48750000000001
Q1402,2025-06-03 14:00:00,柏泉,武汉市,东西湖区,30.7692,114.1272,33.6,1004.6,22.8,87.0,24.139685180172272,43.50200000000002
Q1403,2025-06-03 14:00:00,郁金香公园,武汉市,东西湖区,30.7053,114.0806,21.0,1005.8,21.6,94.0,24.242494213928676,43.42699999999998
Q1404,2025-06-03 14:00:00,走马岭,武汉市,东西湖区,30.6506,114.0136,13.0,1005.2,23.5,82.0,23.736829569965177,37.90400000000001
Q1405,2025-06-03 14:00:00,辛安渡,武汉市,东西湖区,30.7461,113.9286,31.3,1005.2,22.3,95.0,25.570326057148463,59.828499999999984
Q1406,2025-06-03 14:00:00,径河,武汉市,东西湖区,30.6808,114.1228,23.0,1005.1,23.9,82.0,24.31597894548985,41.52349999999999
Q1407,2025-06-03 14:00:00,将军路,武汉市,东西湖区,30.6642,114.2636,16.0,1005.1,23.2,87.0,24.731799562829597,48.86750000000004
Q1408,2025-06-03 14:00:00,杜公湖,武汉市,东西湖区,30.7228,114.145,25.0,1005.6,24.0,84.0,25.059336160472427,46.73349999999997
Q1410,2025-06-03 14:00:00,新沟,武汉市,东西湖区,30.6897,113.9931,22.0,1005.5,21.8,91.0,23.75771184275205,40.35050000000002
Q1411,2025-06-03 14:00:00,塔尔头,武汉市,东西湖区,30.6919,114.1892,32.0,1005.5,22.7,89.0,24.54518925427485,40.1115
Q1412,2025-06-03 14:00:00,金银湖,武汉市,东西湖区,30.6422,114.1814,23.0,1005.4,23.5,83.0,24.02630310130622,47.18550000000002
Q1413,2025-06-03 14:00:00,红星合作社,武汉市,东西湖区,30.7642,113.9464,32.0,1005.4,22.1,95.0,25.26053097260925,60.64050000000001
Q1501,2025-06-03 14:00:00,成功闸,武汉市,蔡甸区,30.3908,113.7656,21.0,1005.0,24.2,84.0,25.36228896026608,49.21299999999994
Q1502,2025-06-03 14:00:00,大集,武汉市,蔡甸区,30.5081,114.0531,30.0,1004.4,23.9,82.0,24.31597894548985,37.03900000000001
Q1503,2025-06-03 14:00:00,索河,武汉市,蔡甸区,30.5236,113.8964,41.3,1003.5,22.1,91.0,24.19692966849939,48.187
Q1504,2025-06-03 14:00:00,桐湖农场,武汉市,蔡甸区,30.3917,113.9786,35.0,1005.3,23.4,87.0,25.032599262561806,49.94699999999998
Q1506,2025-06-03 14:00:00,消泗,武汉市,蔡甸区,30.3169,113.7728,27.0,1005.5,22.8,83.0,23.029814597175847,36.51550000000003
Q1507,2025-06-03 14:00:00,永安,武汉市,蔡甸区,30.4617,113.9281,48.6,1002.5,23.5,78.0,22.578935444601026,36.53050000000004
Q1509,2025-06-03 14:00:00,奓山,武汉市,蔡甸区,30.4297,114.0436,31.3,1004.2,23.7,81.0,23.73188961795165,44.95400000000004
Q1510,2025-06-03 14:00:00,侏儒,武汉市,蔡甸区,30.4525,113.8792,26.5,1005.0,22.7,92.0,25.372555184194223,50.31699999999998
Q1512,2025-06-03 14:00:00,沉湖湿地,武汉市,蔡甸区,30.3242,113.8619,25.0,1004.9,23.2,85.0,24.1632524464427,41.322
Q1513,2025-06-03 14:00:00,千子山,武汉市,蔡甸区,30.4078,114.0333,37.2,1003.6,23.5,79.0,22.868408975942064,45.7795
Q1514,2025-06-03 14:00:00,九真山,武汉市,蔡甸区,30.4839,113.9544,122.0,994.0,20.6,96.0,23.28257993420416,52.40350000000002
Q1515,2025-06-03 14:00:00,绿茵园,武汉市,蔡甸区,30.4467,114.0142,27.3,1004.7,23.7,82.0,24.024875909531296,41.17250000000004
Q1516,2025-06-03 14:00:00,时光农场,武汉市,蔡甸区,30.4086,113.8017,21.5,1005.4,22.9,95.0,26.51978180333288,45.3575
Q1517,2025-06-03 14:00:00,农耕园,武汉市,蔡甸区,30.4275,113.9525,22.7,1005.4,21.6,95.0,24.500393088544936,41.63399999999995
Q1518,2025-06-03 14:00:00,花博汇,武汉市,蔡甸区,30.4956,114.0656,32.4,1005.6,21.7,92.0,23.87234937389368,41.33050000000001
Q1519,2025-06-03 14:00:00,鸽翅岭,武汉市,蔡甸区,30.5394,113.9619,32.0,1004.2,21.6,91.0,23.468797590079888,44.79716666666669
Q1520,2025-06-03 14:00:00,景秀大地,武汉市,蔡甸区,30.4989,113.9781,22.3,1005.4,21.7,91.0,23.61286731548179,43.08150000000001
Q1521,2025-06-03 14:00:00,七沟,武汉市,蔡甸区,30.4289,113.7733,23.2,1005.2,23.4,89.0,25.60806131457472,52.48849999999997
Q1522,2025-06-03 14:00:00,香草花田,武汉市,蔡甸区,30.5133,113.8858,27.1,1004.7,21.2,94.0,23.655147954577227,33.65550000000007
Q1523,2025-06-03 14:00:00,金龙水寨,武汉市,蔡甸区,30.54,113.9247,22.2,1005.3,22.5,80.0,21.79658612350672,38.99350000000003
Q1524,2025-06-03 14:00:00,谢八家,武汉市,蔡甸区,30.6244,113.9264,24.8,1005.0,23.2,87.0,24.731799562829597,46.35999999999997
Q1525,2025-06-03 14:00:00,蔡甸野生动物王国,武汉市,蔡甸区,30.5567,113.9353,23.3,1005.2,22.2,91.0,24.344908901023214,42.66199999999992
Q1526,2025-06-03 14:00:00,长江大学,武汉市,蔡甸区,30.5292,114.0256,21.5,1005.4,23.7,86.0,25.196821075849897,48.64450000000002
Q1527,2025-06-03 14:00:00,蔡甸汉江堤防,武汉市,蔡甸区,30.6311,113.9797,26.1,1004.9,23.5,85.0,24.60525016398829,44.35199999999996
Q1528,2025-06-03 14:00:00,后官湖湿地公园,武汉市,蔡甸区,30.5306,114.0786,24.3,1005.1,22.9,90.0,25.124003813683775,46.22400000000002
Q1529,2025-06-03 14:00:00,张家大湖,武汉市,蔡甸区,30.3156,113.8164,23.3,1005.4,22.7,89.0,24.54518925427485,40.175
Q1599,2025-06-03 14:00:00,孙家畈,武汉市,蔡甸区,30.5664,114.0289,17.8,1005.0,22.7,80.0,22.06309146451672,37.75150000000001
Q1701,2025-06-03 14:00:00,藏龙岛,武汉市,江夏区,30.4017,114.4189,30.0,1004.9,21.8,90.0,23.49663808623829,48.31749999999999
Q1702,2025-06-03 14:00:00,东湖高新射击场,武汉市,洪山区,30.5039,114.4608,40.0,1004.0,21.1,79.0,19.758636269945924,46.31950000000004
Q1703,2025-06-03 14:00:00,武汉欢乐谷,武汉市,洪山区,30.5972,114.3886,30.0,1005.6,24.0,63.0,18.794502120354323,37.59575
Q1704,2025-06-03 14:00:00,东湖湖心亭,武汉市,武昌区,30.57,114.39,30.0,1005.4,23.6,86.0,25.0453734523318,32.77849999999992
Q1706,2025-06-03 14:00:00,青山沙排中心,武汉市,青山区,30.6508,114.3919,30.0,1005.0,25.0,63.0,19.954805447979897,33.4145
Q1707,2025-06-03 14:00:00,驿山高尔夫,武汉市,洪山区,30.5,114.5006,50.0,1001.3,21.8,63.0,16.447646660366807,20.10400000000001
Q1708,2025-06-03 14:00:00,华科,武汉市,武昌区,30.5094,114.4117,40.0,1004.1,23.4,67.0,19.27797874243265,39.815000000000005
Q1709,2025-06-03 14:00:00,省奥体中心,武汉市,市辖区,30.4739,114.4547,40.0,1002.9,23.9,70.0,20.75754300224743,36.77150000000005
Q1710,2025-06-03 14:00:00,洪山体育馆,武汉市,武昌区,30.5489,114.3281,30.0,1003.9,24.7,69.0,21.467002578731545,38.07350000000002
Q1711,2025-06-03 14:00:00,武汉体育学院,武汉市,洪山区,30.5219,114.3725,30.0,1005.1,24.1,69.0,20.70855443670235,39.05900000000001
Q1712,2025-06-03 14:00:00,武大,武汉市,武昌区,30.5383,114.3511,30.0,1005.2,23.6,68.0,19.803318543704226,34.02150000000003
Q1713,2025-06-03 14:00:00,武汉软件职院,武汉市,市辖区,30.4508,114.4231,30.0,1004.3,24.2,69.0,20.833308788789992,43.37599999999995
Q1714,2025-06-03 14:00:00,武汉理工大学,武汉市,洪山区,30.5058,114.325,30.0,1005.5,24.8,67.0,20.96978277496484,34.150499999999944
Q1715,2025-06-03 14:00:00,武汉城市职院,武汉市,洪山区,30.4414,114.3086,20.0,1005.7,24.3,79.0,23.99621643614236,41.2905
Q1716,2025-06-03 14:00:00,武汉体育中心,武汉市,汉南区,30.5061,114.1683,30.0,1005.3,24.6,78.0,24.12226987720329,44.817999999999984
Q1717,2025-06-03 14:00:00,武汉商学院,武汉市,汉南区,30.4664,114.08,30.0,1005.3,23.0,90.0,25.27672862740071,47.91650000000002
Q1718,2025-06-03 14:00:00,江汉大学,武汉市,汉南区,30.5208,114.1497,30.0,1005.3,23.6,84.0,24.46292290692874,43.57299999999999
Q1720,2025-06-03 14:00:00,全民健身中心,武汉市,江岸区,30.6472,114.2831,30.0,1005.7,24.4,73.0,22.307099904298912,41.784999999999926
Q1721,2025-06-03 14:00:00,汉口文体中心,武汉市,江汉区,30.6028,114.2636,30.0,1005.5,24.3,79.0,23.99621643614236,46.650499999999965
Q1722,2025-06-03 14:00:00,汉阳沙排中心,武汉市,汉阳区,30.5017,114.2308,30.0,1004.8,23.2,89.0,25.30034667921648,42.56599999999996
Q1723,2025-06-03 14:00:00,军山,武汉市,汉南区,30.3978,114.1156,40.0,1003.3,23.7,79.0,23.145917034792348,39.763999999999925
Q1724,2025-06-03 14:00:00,蔡甸国防园,武汉市,蔡甸区,30.4764,113.9647,60.0,1002.1,20.7,84.0,20.498269809355712,43.95300000000004
Q1725,2025-06-03 14:00:00,海工大木兰校区,武汉市,黄陂区,31.1183,114.4642,50.0,1002.0,22.9,100.0,27.915559792981977,62.19100000000016
Q1726,2025-06-03 14:00:00,体育中心,武汉市,东西湖区,30.6378,114.1269,20.0,1004.7,24.0,74.0,22.07608185565428,38.661000000000016
Q1727,2025-06-03 14:00:00,东湖帆船基地,武汉市,武昌区,30.5425,114.3689,30.0,1005.7,22.4,80.0,21.664394563431856,43.90950000000001
Q1728,2025-06-03 14:00:00,雷神山,武汉市,江夏区,30.4408,114.2756,20.0,1005.5,24.2,88.0,26.57001700599304,40.90849999999995
Q1729,2025-06-03 14:00:00,桂子米业,武汉市,江夏区,30.1603,114.1839,47.0,1003.2,23.3,87.0,24.8818012359029,42.255499999999984
Q1730,2025-06-03 14:00:00,天子山教育基地,武汉市,江夏区,30.1494,114.4292,40.0,1004.1,21.4,100.0,25.475789519212125,53.754999999999946
Q1745,2025-06-03 14:00:00,中法生态城,武汉市,蔡甸区,30.5631,114.07,22.1,1005.0,23.5,81.0,23.447356038624143,41.08200000000004
Q1753,2025-06-03 14:00:00,高新大道,武汉市,市辖区,30.4872,114.4561,50.0,1002.2,21.3,77.0,19.49640173575154,38.537999999999926
Q1754,2025-06-03 14:00:00,天兴洲大桥,武汉市,洪山区,30.6575,114.4003,60.0,1000.2,26.3,56.0,19.16144802958148,31.09600000000004
Q1755,2025-06-03 14:00:00,知音桥,武汉市,硚口区,30.5811,114.2161,35.0,1004.1,25.7,67.0,22.12475219195579,39.20249999999999
Q1756,2025-06-03 14:00:00,晴川桥,武汉市,硚口区,30.5656,114.2783,15.0,1003.4,25.5,70.0,22.84235030801528,43.651499999999935
Q1759,2025-06-03 14:00:00,长江二桥,武汉市,江岸区,30.6036,114.3217,20.0,1001.8,26.1,52.0,17.58351573967413,32.35700000000001
Q1760,2025-06-03 14:00:00,二七长江大桥,武汉市,江岸区,30.6294,114.3394,25.0,1001.2,25.9,58.0,19.38138497329112,30.692000000000025
Q1761,2025-06-03 14:00:00,杨泗港长江大桥,武汉市,汉阳区,30.5069,114.2625,30.0,1000.6,25.8,63.0,20.927710534748076,33.47049999999999
Q1762,2025-06-03 14:00:00,鹦鹉洲大桥,武汉市,汉阳区,30.5339,114.2764,40.0,1001.5,25.6,64.0,21.00893865027753,33.58949999999997
Q1763,2025-06-03 14:00:00,古田桥,武汉市,硚口区,30.5872,114.1797,25.0,1003.4,25.5,70.0,22.84235030801528,36.21700000000003
Q1764,2025-06-03 14:00:00,月湖桥,武汉市,硚口区,30.5644,114.2483,35.0,1003.9,25.5,67.0,21.863392437671774,37.87150000000001
Q1766,2025-06-03 14:00:00,青化立交,武汉市,洪山区,30.6058,114.43,20.0,1004.0,24.8,60.0,18.77890994772971,25.09599999999999
Q1767,2025-06-03 14:00:00,欢乐大道,武汉市,市辖区,30.6017,114.41,22.0,1004.3,25.0,63.0,19.954805447979897,32.28399999999996
Q1768,2025-06-03 14:00:00,姑嫂树立交,武汉市,东西湖区,30.6386,114.2514,26.0,1003.7,26.1,63.0,21.30310560768212,36.07800000000002
Q1769,2025-06-03 14:00:00,楚康路出口,武汉市,洪山区,30.5097,114.3594,18.0,1003.9,25.6,61.0,20.02414465104577,34.53450000000001
Q1770,2025-06-03 14:00:00,长丰大道,武汉市,硚口区,30.6083,114.2083,22.0,1004.1,25.2,68.0,21.796961538230025,38.051
Q1774,2025-06-03 14:00:00,庙山立交,武汉市,江夏区,30.46,114.3883,7.0,1003.9,23.9,74.0,21.943688316661568,40.18150000000001
Q1775,2025-06-03 14:00:00,汪家咀立交,武汉市,汉阳区,30.5186,114.1814,17.0,1003.7,25.8,69.0,22.920825823771697,35.77825000000004
Q1779,2025-06-03 14:00:00,青菱立交,武汉市,洪山区,30.4628,114.2886,13.0,1004.6,24.9,69.0,21.72516561717073,40.047999999999966
Q2004,2025-06-03 14:00:00,红卫,十堰市,张湾区,32.6525,110.7253,336.4,969.4,22.4,78.0,21.122784699346056,36.88399999999999
Q2022,2025-06-03 14:00:00,小川,十堰市,茅箭区,32.4628,110.7172,643.8,937.2,18.0,91.0,18.76951485375722,33.58849999999999
Q2023,2025-06-03 14:00:00,黄龙,十堰市,张湾区,32.6861,110.5586,186.4,985.7,23.1,82.0,23.16979810500678,46.010000000000026
Q2031,2025-06-03 14:00:00,紫霄宫,十堰市,丹江口市,32.4253,111.0228,851.0,914.6,19.5,76.0,17.217912838823768,28.37499999999998
Q2032,2025-06-03 14:00:00,八仙观,十堰市,丹江口市,32.4308,111.0567,588.0,944.7,22.6,70.0,19.188298520473374,38.65799999999994
Q2033,2025-06-03 14:00:00,太子坡,十堰市,丹江口市,32.4489,111.0708,558.0,946.2,22.1,77.0,20.474325104114868,33.80299999999998
Q2034,2025-06-03 14:00:00,元和观,十堰市,丹江口市,32.4978,111.0942,396.0,962.4,24.5,63.0,19.367048090916008,38.67549999999998
Q2050,2025-06-03 14:00:00,火车站小学,十堰市,茅箭区,32.6017,110.7742,310.0,973.3,23.3,61.0,17.445860636667547,29.295999999999967
Q2204,2025-06-03 14:00:00,习家店,十堰市,丹江口市,32.7708,111.1592,253.1,978.6,20.7,87.0,21.23035087397556,45.96049999999997
Q2205,2025-06-03 14:00:00,石鼓,十堰市,丹江口市,32.7553,111.3811,297.0,973.5,22.5,68.0,18.527098204980717,33.85900000000005
Q2206,2025-06-03 14:00:00,丁家营,十堰市,丹江口市,32.4447,111.2453,186.0,986.6,21.5,92.0,23.581823309121525,29.50200000000001
Q2236,2025-06-03 14:00:00,蒿口新村,十堰市,丹江口市,32.5219,111.0364,179.1,987.2,23.2,80.0,22.741884655475488,40.32749999999998
Q2261,2025-06-03 14:00:00,马鞍山,十堰市,丹江口市,32.3306,111.1797,503.1,951.9,20.5,82.0,19.76485550096534,36.47300000000001
Q2266,2025-06-03 14:00:00,大坝街道,十堰市,丹江口市,32.5486,111.5125,133.4,991.8,24.4,75.0,22.918253326334497,40.3065
Q2309,2025-06-03 14:00:00,茶店,十堰市,郧阳区,32.7992,110.8847,212.2,983.4,22.6,80.0,21.92948402339815,42.80149999999995
Q2324,2025-06-03 14:00:00,安阳,十堰市,郧阳区,32.8525,111.0044,221.0,981.3,22.1,80.0,21.272026082197268,37.54700000000002
Q2326,2025-06-03 14:00:00,五峰,十堰市,郧阳区,32.8278,110.3708,193.5,985.9,23.2,71.0,20.18342263173449,27.272
Q2334,2025-06-03 14:00:00,塘上,十堰市,郧阳区,33.0756,110.735,834.7,915.9,15.8,79.0,14.171356928059645,25.69375
Q2350,2025-06-03 14:00:00,韩家沟,十堰市,郧阳区,32.8653,110.6186,244.8,980.8,21.0,86.0,21.37757157628147,43.71250000000003
Q2353,2025-06-03 14:00:00,毛河,十堰市,郧阳区,32.5125,110.4669,537.4,948.3,20.7,88.0,21.474377895515502,28.403500000000022
Q2401,2025-06-03 14:00:00,上津,十堰市,郧西县,33.0742,110.0211,273.4,977.3,21.5,73.0,18.71166414745512,30.009499999999957
Q2402,2025-06-03 14:00:00,马安,十堰市,郧西县,33.0053,110.2311,374.2,966.4,18.8,88.0,19.08483773580104,31.58799999999998
Q2403,2025-06-03 14:00:00,土门,十堰市,郧西县,33.0589,110.3233,364.3,967.0,21.1,89.0,22.259729468673257,43.07149999999996
Q2405,2025-06-03 14:00:00,六郎,十堰市,郧西县,32.9978,110.0711,264.9,975.3,21.1,80.0,20.008745589818663,40.240250000000046
Q2409,2025-06-03 14:00:00,三官,十堰市,郧西县,33.1683,110.5619,838.1,915.6,14.9,89.0,15.068663075932069,26.305000000000035
Q2411,2025-06-03 14:00:00,槐树,十堰市,郧西县,33.2025,109.9003,794.0,920.9,19.6,65.0,14.817698827813732,24.13100000000001
Q2423,2025-06-03 14:00:00,河夹,十堰市,郧西县,32.9303,110.5283,273.0,974.5,20.4,84.0,20.12226980071133,37.19400000000002
Q2424,2025-06-03 14:00:00,湖北口,十堰市,郧西县,33.1942,109.575,890.6,910.9,17.0,81.0,15.684322073726957,25.67950000000001
Q2433,2025-06-03 14:00:00,包耳场,十堰市,郧西县,33.1864,109.75,640.0,937.6,17.7,92.0,18.620539494878503,37.97399999999994
Q2502,2025-06-03 14:00:00,土城,十堰市,房县,32.2775,110.6972,669.3,934.5,19.2,94.0,20.90166815280089,32.09300000000005
Q2503,2025-06-03 14:00:00,沙河,十堰市,房县,32.1378,111.0931,843.6,915.6,20.3,76.0,18.09368940596187,25.36
Q2504,2025-06-03 14:00:00,卧牛观,十堰市,房县,32.2108,110.9142,711.4,929.8,19.3,87.0,19.466102759888287,41.74250000000001
Q2505,2025-06-03 14:00:00,门古寺,十堰市,房县,32.0058,110.4417,624.2,939.7,19.8,90.0,20.77326448543352,46.0700000000001
Q2507,2025-06-03 14:00:00,军店,十堰市,房县,32.0336,110.6253,495.7,953.1,21.1,79.0,19.758636269945924,48.615000000000016
Q2509,2025-06-03 14:00:00,中坝,十堰市,房县,32.0064,110.28,795.4,920.6,19.3,81.0,18.12361291437875,52.71366666666668
Q2524,2025-06-03 14:00:00,三里坪,十堰市,房县,31.9419,110.9697,415.0,961.9,20.9,92.0,22.728761339710307,45.81849999999999
Q2528,2025-06-03 14:00:00,白鹤,十堰市,房县,32.0997,110.7728,464.5,956.5,20.6,88.0,21.342364939687148,40.83200000000008
Q2530,2025-06-03 14:00:00,汪家河,十堰市,房县,32.1044,110.5331,563.7,945.9,20.4,82.0,19.643168138789623,44.4715
Q2532,2025-06-03 14:00:00,对寺河,十堰市,房县,32.3347,110.3903,265.0,979.7,21.8,86.0,22.452343060183257,40.00574999999999
Q2546,2025-06-03 14:00:00,南潭,十堰市,房县,31.9833,110.7353,737.0,927.2,18.2,94.0,19.633627028230787,39.58100000000005
Q2548,2025-06-03 14:00:00,白鸡,十堰市,房县,32.2303,110.7133,592.3,942.7,19.7,92.0,21.103460517236712,35.88900000000007
Q2559,2025-06-03 14:00:00,东蒿,十堰市,房县,31.8842,110.7753,1359.0,863.0,14.3,90.0,14.65874459859491,25.70633333333332
Q2605,2025-06-03 14:00:00,柳林,十堰市,竹山县,31.7169,110.0508,523.7,951.6,19.8,91.0,21.004078535271677,45.98550000000006
Q2623,2025-06-03 14:00:00,秦古,十堰市,竹山县,32.4331,109.82,580.3,944.0,21.3,85.0,21.52200191608936,35.78100000000002
Q2624,2025-06-03 14:00:00,擂鼓,十堰市,竹山县,32.3533,109.9286,513.9,951.1,21.3,89.0,22.534802006258275,38.72600000000002
Q2626,2025-06-03 14:00:00,溢水,十堰市,竹山县,32.2786,110.0842,508.8,951.5,21.7,82.0,21.277528789774795,39.3245
Q2628,2025-06-03 14:00:00,深河,十堰市,竹山县,32.1117,110.2306,361.0,968.6,20.5,91.0,21.934168909607884,43.877500000000026
Q2655,2025-06-03 14:00:00,潘口,十堰市,竹山县,32.23,110.1844,273.8,977.6,21.1,88.0,22.00962014880053,42.70399999999999
Q2676,2025-06-03 14:00:00,北大街,十堰市,竹山县,32.2256,110.2261,307.0,974.0,22.6,85.0,23.30007677486053,44.17099999999999
Q2701,2025-06-03 14:00:00,龙坝,十堰市,竹溪县,32.3569,109.6453,563.6,945.7,21.1,81.0,20.258854909691397,43.006999999999934
Q2721,2025-06-03 14:00:00,泉溪,十堰市,竹溪县,32.0428,109.6986,849.5,915.6,17.8,97.0,19.75668162963444,55.449500000000015
Q2745,2025-06-03 14:00:00,界牌沟,十堰市,竹溪县,32.1683,109.5989,655.4,937.4,19.3,87.0,19.466102759888287,50.02199999999996
Q2748,2025-06-03 14:00:00,天宝,十堰市,竹溪县,31.9983,109.7814,498.9,951.9,19.1,95.0,20.992684283376235,45.85650000000006
Q2757,2025-06-03 14:00:00,高子河,十堰市,竹溪县,31.8119,109.7686,1063.6,894.1,15.9,100.0,18.05354288087027,52.91050000000001
Q2903,2025-06-03 14:00:00,新华,省直辖县级行政区划,神农架林区,31.5953,110.8861,716.7,930.3,18.5,86.0,18.304043684871,35.21849999999999
Q2906,2025-06-03 14:00:00,徐家庄,省直辖县级行政区划,神农架林区,31.5622,110.5533,1398.1,859.8,13.4,92.0,14.13347710386539,26.35550000000001
Q2910,2025-06-03 14:00:00,木鱼,省直辖县级行政区划,神农架林区,31.4828,110.3786,1245.0,873.6,15.5,80.0,14.07755300011936,22.82499999999996
Q2912,2025-06-03 14:00:00,神农架机场,省直辖县级行政区划,神农架林区,31.6119,110.3383,2597.4,746.0,9.3,40.0,4.683317997955072,7.705000000000012
Q2916,2025-06-03 14:00:00,板桥,省直辖县级行政区划,神农架林区,31.4089,110.1781,1026.6,897.9,15.7,96.0,17.11099790640054,28.463999999999977
Q2923,2025-06-03 14:00:00,牛场坪,省直辖县级行政区划,神农架林区,31.5508,110.3911,2285.0,774.1,9.8,75.0,9.081250760112717,16.814999999999966
Q2925,2025-06-03 14:00:00,九冲,省直辖县级行政区划,神农架林区,31.4083,110.5553,699.8,932.0,17.6,83.0,16.693315161958886,33.29699999999993
Q2933,2025-06-03 14:00:00,大九湖,省直辖县级行政区划,神农架林区,31.4958,109.9953,1752.0,825.5,11.3,94.0,12.578849541670907,22.270999999999997
Q2940,2025-06-03 14:00:00,红花,省直辖县级行政区划,神农架林区,31.3992,110.475,819.5,919.4,16.9,87.0,16.739608853630152,34.060499999999934
Q2950,2025-06-03 14:00:00,阳日,省直辖县级行政区划,神农架林区,31.7328,110.8061,498.0,953.5,20.1,79.0,18.57660020173435,32.12899999999997
Q2957,2025-06-03 14:00:00,青天袍,省直辖县级行政区划,神农架林区,31.5144,110.3881,1569.0,844.8,15.2,65.0,11.219771701982443,23.27550000000002
Q3005,2025-06-03 14:00:00,隆中,襄阳市,襄城区,31.9889,112.0322,107.3,995.2,21.5,90.0,23.06917497631453,43.96149999999999
Q3008,2025-06-03 14:00:00,襄阳老站,襄阳市,襄城区,32.0283,112.1664,68.6,999.5,24.5,63.0,19.367048090916008,37.74849999999994
Q3012,2025-06-03 14:00:00,刘集小学,襄阳市,襄州区,32.1517,112.2992,70.1,999.0,23.9,72.0,21.3506156594545,44.52050000000001
Q3100,2025-06-03 14:00:00,东津,襄阳市,襄州区,32.0631,112.2203,69.7,999.0,23.9,84.0,24.90905160269692,34.29499999999994
Q3101,2025-06-03 14:00:00,朱集,襄阳市,襄州区,32.2967,112.3483,79.0,998.5,23.2,75.0,21.320516864508267,44.563999999999936
Q3103,2025-06-03 14:00:00,峪山,襄阳市,襄州区,31.9919,112.3706,93.0,997.4,23.4,75.0,21.579826950484318,44.63249999999999
Q3104,2025-06-03 14:00:00,龙王,襄阳市,襄州区,32.2089,111.9589,86.0,996.0,24.2,76.0,22.94683286881217,43.47950000000005
Q3106,2025-06-03 14:00:00,黄龙,襄阳市,襄州区,31.9858,112.4556,84.6,994.8,23.3,76.0,21.735826366995635,30.933000000000003
Q3107,2025-06-03 14:00:00,石桥,襄阳市,襄州区,32.3633,111.9611,110.7,994.4,24.6,72.0,22.266710655879965,40.926500000000026
Q3108,2025-06-03 14:00:00,程河,襄阳市,襄州区,32.2664,112.4508,114.6,994.9,25.2,58.0,18.591526017902076,33.876999999999974
Q3109,2025-06-03 14:00:00,伙牌,襄阳市,襄州区,32.1878,112.1847,108.3,994.6,24.8,60.0,18.77890994772971,35.75299999999999
Q3112,2025-06-03 14:00:00,张湾,襄阳市,襄州区,32.0886,112.1903,65.4,999.5,25.3,66.0,21.282279298230428,41.98699999999999
Q3113,2025-06-03 14:00:00,黄集,襄阳市,襄州区,32.3253,112.1328,142.2,991.1,25.3,57.0,18.380150303017185,31.70960000000007
Q3202,2025-06-03 14:00:00,枣阳吴店,襄阳市,枣阳市,31.9703,112.75,167.5,988.1,24.1,68.0,20.408430459358843,35.06550000000001
Q3203,2025-06-03 14:00:00,七方,襄阳市,枣阳市,32.2017,112.5589,131.0,992.0,25.0,61.0,19.32131956074244,31.78050000000001
Q3206,2025-06-03 14:00:00,枣阳新市,襄阳市,枣阳市,32.3414,112.9942,241.1,980.1,24.5,53.0,16.29291347331029,24.33500000000004
Q3207,2025-06-03 14:00:00,刘升榆树,襄阳市,枣阳市,32.12,112.8781,156.0,989.0,23.1,82.0,23.16979810500678,46.65199999999992
Q3212,2025-06-03 14:00:00,琚湾,襄阳市,枣阳市,32.0417,112.5906,72.0,996.9,24.0,73.0,21.777756425172463,37.12199999999997
Q3217,2025-06-03 14:00:00,姚棚水库,襄阳市,枣阳市,32.3253,112.8719,177.3,987.0,23.1,75.0,21.19188851067693,38.328
Q3218,2025-06-03 14:00:00,唐店,襄阳市,枣阳市,31.8503,112.8028,140.0,991.0,23.2,93.0,26.43744091199025,55.91825000000001
Q3237,2025-06-03 14:00:00,王城,襄阳市,枣阳市,31.9519,112.9217,115.0,993.9,22.5,88.0,23.976244735857392,50.86849999999998
Q3240,2025-06-03 14:00:00,北城,襄阳市,枣阳市,32.1411,112.7553,125.5,992.9,25.7,57.0,18.82255037226089,33.53419999999999
Q3305,2025-06-03 14:00:00,老河口半店,襄阳市,老河口市,32.4536,111.7536,153.1,989.1,24.2,76.0,22.94683286881217,38.01249999999993
Q3309,2025-06-03 14:00:00,方营,襄阳市,老河口市,32.3367,111.7022,90.0,997.1,23.0,100.0,28.085254030445235,54.41250000000011
Q3311,2025-06-03 14:00:00,老河口黄营,襄阳市,老河口市,32.3472,111.6742,80.3,997.5,23.0,92.0,25.838433708009617,42.62749999999999
Q3314,2025-06-03 14:00:00,农垦示范园,襄阳市,老河口市,32.4319,111.8458,148.3,990.2,24.8,70.0,21.908728272351325,36.61799999999997
Q3315,2025-06-03 14:00:00,老河口黑虎山水库,襄阳市,老河口市,32.5408,111.6622,163.3,988.2,23.2,78.0,22.1733375390886,38.17149999999992
Q3317,2025-06-03 14:00:00,古城水库,襄阳市,老河口市,32.5203,111.7786,145.2,990.3,24.2,75.0,22.644900857380428,34.78499999999999
Q3318,2025-06-03 14:00:00,老河口西关,襄阳市,老河口市,32.4217,111.6878,84.4,996.2,23.4,88.0,25.320330288568265,40.79649999999995
Q3321,2025-06-03 14:00:00,老河口老站,襄阳市,老河口市,32.38,111.67,90.0,996.9,24.3,82.0,24.907465161565483,42.53850000000001
Q3326,2025-06-03 14:00:00,白鹤岗,襄阳市,老河口市,32.2931,111.7247,89.0,997.1,24.6,89.0,27.5241284496294,48.10800000000009
Q3401,2025-06-03 14:00:00,五山,襄阳市,谷城县,32.2931,111.3314,180.0,987.7,21.5,86.0,22.043878310700556,33.313500000000005
Q3404,2025-06-03 14:00:00,谷城南河,襄阳市,谷城县,32.1678,111.4981,146.4,990.6,23.0,78.0,21.90649814374728,44.36449999999999
Q3405,2025-06-03 14:00:00,赵湾,襄阳市,谷城县,31.9917,111.4303,518.0,950.7,20.2,80.0,18.928550016544385,29.950000000000003
Q3409,2025-06-03 14:00:00,薤山,襄阳市,谷城县,32.1725,111.4061,701.7,930.0,24.0,37.0,11.03804092782714,18.2505
Q3413,2025-06-03 14:00:00,茨河,襄阳市,谷城县,32.0483,111.8314,158.0,988.8,23.2,79.0,22.45761109728204,38.49299999999998
Q3414,2025-06-03 14:00:00,谷城城关,襄阳市,谷城县,32.2692,111.6333,86.6,997.6,25.5,0.0,0.0,6.176500000000001
Q3420,2025-06-03 14:00:00,紫金,襄阳市,谷城县,32.1342,111.3078,247.7,977.2,22.4,78.0,21.122784699346056,40.3445
Q3501,2025-06-03 14:00:00,寺坪,襄阳市,保康县,31.9906,111.1233,275.0,977.5,22.1,93.0,24.72873032055432,45.33599999999999
Q3516,2025-06-03 14:00:00,两峪,襄阳市,保康县,31.5581,111.3953,660.0,934.8,19.0,84.0,18.446452826771157,26.396
Q3517,2025-06-03 14:00:00,歇马毛家岭,襄阳市,保康县,31.6419,111.1967,796.0,919.8,21.2,63.0,15.853982139769844,25.528500000000005
Q3520,2025-06-03 14:00:00,保康天宝寨,襄阳市,保康县,31.4017,111.2936,997.0,900.0,18.8,74.0,16.048613550559963,24.912499999999994
Q3525,2025-06-03 14:00:00,马良产业园,襄阳市,保康县,31.4942,111.3539,292.0,976.2,20.4,100.0,23.95508309608492,46.65299999999996
Q3545,2025-06-03 14:00:00,尧治河,襄阳市,保康县,31.8447,110.8022,1576.0,841.7,16.0,59.0,10.71989197430371,20.60600000000001
Q3555,2025-06-03 14:00:00,团结,襄阳市,保康县,31.68,111.0128,1064.0,890.5,19.0,64.0,14.054440248968495,27.970500000000005
Q3606,2025-06-03 14:00:00,武镇,襄阳市,南漳县,31.6647,111.9922,120.0,994.1,22.7,100.0,27.578864330645896,54.91474999999997
Q3608,2025-06-03 14:00:00,东巩,襄阳市,南漳县,31.3292,111.8253,183.0,983.7,20.5,96.0,23.1393430255204,36.758
Q3617,2025-06-03 14:00:00,薛坪,襄阳市,南漳县,31.6231,111.6778,820.0,918.4,17.3,91.0,17.958641862338293,29.32800000000001
Q3618,2025-06-03 14:00:00,长坪,襄阳市,南漳县,31.7775,111.5617,254.0,981.3,20.9,90.0,22.234657832325297,32.14349999999999
Q3623,2025-06-03 14:00:00,南漳大坪,襄阳市,南漳县,31.5489,111.8342,343.2,969.3,20.1,100.0,23.514683799663736,46.51050000000001
Q3632,2025-06-03 14:00:00,赵店,襄阳市,南漳县,31.9058,111.6194,271.6,977.0,20.6,88.0,21.342364939687148,32.2915
Q3641,2025-06-03 14:00:00,漫云,襄阳市,南漳县,31.4556,111.6847,342.0,969.2,20.1,92.0,21.63350909569064,33.60749999999997
Q3748,2025-06-03 14:00:00,高楼,襄阳市,宜城市,31.6356,112.5942,141.0,991.7,22.7,81.0,22.33888010782318,42.535000000000025
Q3750,2025-06-03 14:00:00,孔湾,襄阳市,宜城市,31.5681,112.2661,55.0,1001.5,23.7,79.0,23.145917034792348,41.279
Q3751,2025-06-03 14:00:00,二库,襄阳市,宜城市,31.7467,112.4303,89.0,996.9,23.2,83.0,23.594705330055817,46.79799999999993
Q3752,2025-06-03 14:00:00,小南河,襄阳市,宜城市,31.4622,111.9878,177.5,987.6,22.0,83.0,21.93547665305786,27.77050000000004
Q3760,2025-06-03 14:00:00,刘猴,襄阳市,宜城市,31.4853,112.0169,159.0,990.3,22.6,82.0,22.4777211239831,26.891500000000004
Q3770,2025-06-03 14:00:00,谭湾,襄阳市,宜城市,31.7736,112.0389,94.0,996.2,24.4,79.0,24.14056017040567,31.47999999999999
Q3782,2025-06-03 14:00:00,联合,襄阳市,宜城市,31.8692,112.2653,86.0,997.4,21.5,91.0,23.325499142718037,39.467000000000056
Q3792,2025-06-03 14:00:00,流水,襄阳市,宜城市,31.5683,112.455,62.0,1001.2,22.3,92.0,24.76284207639641,47.17750000000004
Q3802,2025-06-03 14:00:00,殷店,随州市,随县,32.0808,113.5014,145.6,990.7,20.5,89.0,21.45209926324287,35.48949999999999
Q3803,2025-06-03 14:00:00,洪山,随州市,随县,31.6611,112.9072,154.4,990.0,22.2,89.0,23.809855958143583,44.68900000000006
Q3804,2025-06-03 14:00:00,柳林,随州市,随县,31.5336,113.2278,120.0,993.7,21.7,90.0,23.3533852570699,35.72599999999999
Q3805,2025-06-03 14:00:00,唐镇,随州市,随县,32.0003,113.105,127.7,993.2,22.5,94.0,25.610988695120398,52.16750000000008
Q3807,2025-06-03 14:00:00,厉山,随州市,随县,31.8839,113.3125,92.0,997.2,24.7,79.0,24.57816237275061,51.12850000000004
Q3809,2025-06-03 14:00:00,淮河,随州市,随县,32.3436,113.6333,153.8,989.5,20.6,84.0,20.37225744242864,43.07049999999997
Q3812,2025-06-03 14:00:00,万店,随州市,曾都区,31.8386,113.5169,115.0,994.0,24.0,80.0,23.86603443854517,46.47749999999993
Q3815,2025-06-03 14:00:00,澴潭,随州市,随县,31.8106,113.0514,115.3,994.1,22.8,87.0,24.139685180172272,41.90699999999993
Q3820,2025-06-03 14:00:00,吴山,随州市,随县,32.1531,113.0822,215.4,983.2,22.1,72.0,19.14482347397754,39.10200000000005
Q3823,2025-06-03 14:00:00,南郊,随州市,曾都区,31.7278,113.2831,64.1,999.9,22.1,94.0,24.994630646581783,43.15299999999991
Q3829,2025-06-03 14:00:00,大堰坡,随州市,曾都区,31.61,113.4317,85.0,998.4,22.5,93.0,25.33853136857656,47.18002976190478
Q3830,2025-06-03 14:00:00,长岗,随州市,随县,31.53,112.9711,228.2,981.7,20.1,86.0,20.22262806771081,38.29700000000003
Q3831,2025-06-03 14:00:00,雷达站,随州市,曾都区,31.7164,113.3869,96.2,996.4,25.2,67.0,21.476417986197223,35.69500000000007
Q3832,2025-06-03 14:00:00,府河,随州市,曾都区,31.4911,113.5678,65.8,1000.2,23.1,93.0,26.2779417532394,54.92200000000008
Q3836,2025-06-03 14:00:00,新城,随州市,随县,32.3561,113.1931,215.4,983.1,19.6,76.0,17.325309398674516,23.696500000000015
Q3844,2025-06-03 14:00:00,东庄畈,随州市,随县,31.5131,113.0106,274.3,976.6,19.7,76.0,17.43329347076076,18.914
Q3845,2025-06-03 14:00:00,城南新区,随州市,曾都区,31.6922,113.3744,78.4,998.3,23.4,81.0,23.30621310652306,44.0175
Q3847,2025-06-03 14:00:00,金顶,随州市,随县,31.4867,112.9781,1042.0,894.0,20.0,50.0,11.684735617032215,23.08850000000001
Q3852,2025-06-03 14:00:00,王家河,随州市,随县,31.9353,113.3081,122.2,993.3,23.6,89.0,25.919049270436403,50.88883333333333
Q3853,2025-06-03 14:00:00,银杏谷,随州市,曾都区,31.4347,113.2972,175.7,987.5,21.1,93.0,23.260166748164192,42.870500000000014
Q3854,2025-06-03 14:00:00,自在谷,随州市,随县,31.4703,112.9844,467.3,955.6,18.0,75.0,15.469380373975728,34.049499999999966
Q3855,2025-06-03 14:00:00,状元台,随州市,随县,31.4778,112.9647,981.1,900.7,20.0,52.0,12.152125041713504,23.56749999999997
Q3856,2025-06-03 14:00:00,北郊,随州市,曾都区,31.7839,113.3958,105.4,995.4,23.4,92.0,26.47125439259409,54.00525000000003
Q3857,2025-06-03 14:00:00,西城,随州市,曾都区,31.7206,113.3617,64.5,999.9,24.0,81.0,24.164359869026985,46.872625000000006
Q3901,2025-06-03 14:00:00,余店,随州市,广水市,31.7872,113.6322,109.6,995.1,22.5,91.0,24.79361671548889,53.39100000000008
Q3902,2025-06-03 14:00:00,长岭,随州市,广水市,31.4711,113.5781,47.3,1002.2,23.3,92.0,26.311789812678928,58.39699999999991
Q3909,2025-06-03 14:00:00,蔡河,随州市,广水市,31.7264,113.8322,120.0,994.4,23.9,86.0,25.502124259903987,47.70650000000008
Q3911,2025-06-03 14:00:00,太平,随州市,广水市,31.4608,113.9217,46.4,1000.5,24.0,85.0,25.35766159095424,42.43599999999997
Q3913,2025-06-03 14:00:00,武胜关,随州市,广水市,31.7358,114.0353,100.0,995.5,21.7,92.0,23.87234937389368,41.37749999999996
Q3918,2025-06-03 14:00:00,应山,随州市,广水市,31.62,113.82,93.3,997.1,24.7,74.0,23.02258247574108,37.99800000000002
Q3924,2025-06-03 14:00:00,尹家湾,随州市,广水市,32.0019,113.7164,203.6,984.7,19.0,92.0,20.20325785789222,41.92549999999999
Q4000,2025-06-03 14:00:00,葛洲坝,宜昌市,西陵区,30.7433,111.2694,67.8,1000.2,23.0,82.0,23.02990830496509,41.938
Q4001,2025-06-03 14:00:00,王家河公园,宜昌市,伍家岗区,30.6589,111.3303,56.3,1002.0,23.9,78.0,23.12983363107571,38.46199999999999
Q4002,2025-06-03 14:00:00,窑湾,宜昌市,西陵区,30.7186,111.3436,160.0,988.5,23.8,78.0,22.99101711009572,42.12950000000001
Q4003,2025-06-03 14:00:00,猇亭,宜昌市,猇亭区,30.5061,111.4444,42.6,1002.4,23.4,84.0,24.16940618454243,46.63849999999999
Q4005,2025-06-03 14:00:00,土城,宜昌市,点军区,30.6931,111.0022,615.0,939.8,18.9,78.0,17.022185797368323,32.59549999999999
Q4015,2025-06-03 14:00:00,白龙岗公园,宜昌市,西陵区,30.7067,111.2972,116.6,993.2,24.2,71.0,21.437172811653475,45.84799999999996
Q4019,2025-06-03 14:00:00,艾家小学,宜昌市,点军区,30.6183,111.3422,87.0,998.0,23.6,68.0,19.803318543704226,45.504000000000005
Q4022,2025-06-03 14:00:00,猇亭古战场,宜昌市,猇亭区,30.5697,111.3964,78.5,999.0,23.2,82.0,23.31043177186237,47.7995
Q4023,2025-06-03 14:00:00,长岭,宜昌市,点军区,30.6519,111.205,100.0,996.7,22.9,86.0,24.0073814219645,47.1425
Q4025,2025-06-03 14:00:00,鸣翠谷,宜昌市,点军区,30.7389,111.2333,98.8,996.7,22.5,84.0,22.886415429682053,45.94799999999999
Q4026,2025-06-03 14:00:00,沙河公园,宜昌市,西陵区,30.7417,111.3144,86.3,998.3,23.8,79.0,23.285773739712333,41.392
Q4032,2025-06-03 14:00:00,宜昌一中,宜昌市,点军区,30.7086,111.2361,78.9,999.0,23.6,84.0,24.46292290692874,43.01250000000002
Q4033,2025-06-03 14:00:00,水井湾,宜昌市,伍家岗区,30.6853,111.3367,84.3,998.4,22.2,89.0,23.809855958143583,43.55949999999995
Q4034,2025-06-03 14:00:00,龙盘湖,宜昌市,伍家岗区,30.6161,111.4,62.5,1000.9,21.3,93.0,23.547602096427187,49.60949999999991
Q4035,2025-06-03 14:00:00,碧桂园公园,宜昌市,伍家岗区,30.6478,111.3658,88.6,997.9,23.8,79.0,23.285773739712333,41.392
Q4036,2025-06-03 14:00:00,夷陵中学,宜昌市,夷陵区,30.6967,111.3817,113.0,995.1,22.8,87.0,24.139685180172272,34.312000000000026
Q4037,2025-06-03 14:00:00,李家咀,宜昌市,点军区,30.7214,111.1625,389.1,964.4,20.9,84.0,20.75234731017028,41.08400000000002
Q4105,2025-06-03 14:00:00,太平溪,宜昌市,夷陵区,30.8789,110.9697,215.0,984.3,22.7,70.0,19.305205031452125,43.06749999999995
Q4109,2025-06-03 14:00:00,樟村坪林场,宜昌市,夷陵区,31.2667,111.15,1162.0,884.4,14.8,81.0,13.626053509259805,28.295000000000023
Q4111,2025-06-03 14:00:00,鸦鹊岭,宜昌市,夷陵区,30.6117,111.5211,109.2,995.6,23.9,80.0,23.722906288282783,35.47750000000002
Q4112,2025-06-03 14:00:00,王家垭,宜昌市,夷陵区,30.9667,110.9878,990.0,901.0,20.5,51.0,12.292775982307711,20.58099999999997
Q4113,2025-06-03 14:00:00,古村坪,宜昌市,夷陵区,30.9228,110.9672,855.0,914.5,21.5,56.0,14.354153318595712,26.742000000000008
Q4115,2025-06-03 14:00:00,百里荒,宜昌市,夷陵区,30.96,111.5114,1251.8,873.1,18.9,48.0,10.475191259918969,15.517500000000028
Q4120,2025-06-03 14:00:00,秀水,宜昌市,夷陵区,31.1456,111.0747,1068.2,892.5,17.2,88.0,17.25704472915439,33.37600000000001
Q4127,2025-06-03 14:00:00,十字沟,宜昌市,夷陵区,31.0511,111.4406,402.0,963.5,20.4,80.0,19.164066476867934,25.56300000000003
Q4131,2025-06-03 14:00:00,二户坪,宜昌市,夷陵区,31.0117,111.3114,945.0,906.5,19.0,76.0,16.689647795650092,29.18249999999999
Q4140,2025-06-03 14:00:00,三峡大瀑布,宜昌市,夷陵区,30.9325,111.3158,169.1,987.2,20.4,98.0,23.475981434163216,43.42750000000004
Q4146,2025-06-03 14:00:00,沙坪,宜昌市,夷陵区,30.9192,111.0428,403.0,963.4,21.4,82.0,20.89014740575394,42.67100000000001
Q4148,2025-06-03 14:00:00,黄金河,宜昌市,夷陵区,31.0078,110.9369,705.9,930.4,19.5,64.0,14.499295022167384,28.130499999999994
Q4150,2025-06-03 14:00:00,古村,宜昌市,夷陵区,31.4353,111.2158,1098.9,889.4,15.8,85.0,15.247662517532524,29.48750000000004
Q4153,2025-06-03 14:00:00,马卧泥,宜昌市,夷陵区,31.2117,111.2406,1073.1,892.1,18.4,74.0,15.6515405296648,32.49950000000002
Q4154,2025-06-03 14:00:00,青龙,宜昌市,夷陵区,30.7428,111.5075,108.8,995.6,22.6,85.0,23.30007677486053,34.085500000000046
Q4201,2025-06-03 14:00:00,傅家堰,宜昌市,五峰土家族自治县,30.3053,110.4817,705.3,929.8,20.1,60.0,14.108810279798242,24.525499999999987
Q4202,2025-06-03 14:00:00,长乐坪,宜昌市,五峰土家族自治县,30.1778,110.8722,1004.1,899.4,16.4,73.0,13.606415142874194,25.88449999999997
Q4203,2025-06-03 14:00:00,湾潭,宜昌市,五峰土家族自治县,30.0528,110.4344,1139.2,883.7,15.4,74.0,12.938448990552391,27.16749999999993
Q4204,2025-06-03 14:00:00,仁和坪,宜昌市,五峰土家族自治县,30.1022,111.2453,591.9,942.5,17.7,80.0,16.191773473807395,31.506000000000004
Q4205,2025-06-03 14:00:00,牛庄,宜昌市,五峰土家族自治县,30.2381,110.3611,1830.5,816.9,13.6,45.0,7.003771614708887,12.573999999999996
Q4206,2025-06-03 14:00:00,采花,宜昌市,五峰土家族自治县,30.2056,110.445,506.8,952.9,19.6,82.0,18.6930969827804,36.53425
Q4207,2025-06-03 14:00:00,渔关,宜昌市,五峰土家族自治县,30.1831,111.075,255.1,979.4,21.8,72.0,18.797310468990634,33.174
Q4208,2025-06-03 14:00:00,清水湾,宜昌市,五峰土家族自治县,30.0797,110.9669,853.1,914.0,16.9,78.0,15.007925179116686,21.5235
Q4209,2025-06-03 14:00:00,后河,宜昌市,五峰土家族自治县,30.0789,110.6214,952.7,905.2,15.2,88.0,15.189844765760848,24.188999999999997
Q4210,2025-06-03 14:00:00,水浕司,宜昌市,五峰土家族自治县,30.2494,110.6283,564.8,946.3,19.8,79.0,18.23430993721387,26.2655
Q4213,2025-06-03 14:00:00,北风垭,宜昌市,五峰土家族自治县,30.14,110.5681,2213.7,780.6,11.9,25.0,3.4808211422706887,8.507999999999996
Q4214,2025-06-03 14:00:00,涨水坪,宜昌市,五峰土家族自治县,30.2553,111.02,737.6,927.3,17.3,88.0,17.366598724019447,31.714999999999986
Q4215,2025-06-03 14:00:00,三教庙,宜昌市,五峰土家族自治县,30.2011,110.9022,1031.0,895.5,14.9,89.0,15.068663075932069,26.26549999999997
Q4218,2025-06-03 14:00:00,大龙坪,宜昌市,五峰土家族自治县,30.3589,110.4706,1157.3,884.2,15.0,78.0,13.291585739600457,27.587499999999995
Q4238,2025-06-03 14:00:00,万里,宜昌市,五峰土家族自治县,30.1997,110.4069,1174.1,881.8,17.7,51.0,10.322255589552212,19.08600000000001
Q4249,2025-06-03 14:00:00,柴埠溪,宜昌市,五峰土家族自治县,30.2219,110.8947,1259.0,873.5,15.9,53.0,9.568377726861245,17.8805
Q4252,2025-06-03 14:00:00,万马池,宜昌市,五峰土家族自治县,30.2056,110.665,619.4,940.6,19.1,74.0,16.35219617862991,30.75750000000001
Q4309,2025-06-03 14:00:00,胡家畈,宜昌市,枝江市,30.5808,111.6733,125.7,992.9,23.0,86.0,24.1533184661829,56.837000000000046
Q4321,2025-06-03 14:00:00,雅畈,宜昌市,枝江市,30.3967,111.5886,68.0,1000.0,22.8,85.0,23.584749888674057,47.527499999999925
Q4323,2025-06-03 14:00:00,马家店,宜昌市,枝江市,30.43,111.7592,44.5,1002.6,24.4,73.0,22.307099904298912,35.96350000000003
Q4325,2025-06-03 14:00:00,万福垴,宜昌市,枝江市,30.4386,111.4522,55.9,1001.5,22.4,85.0,23.01841922364634,41.17800000000009
Q4326,2025-06-03 14:00:00,田家河,宜昌市,枝江市,30.3369,111.5311,57.0,1001.4,22.6,100.0,27.41185502924769,58.83299999999994
Q4327,2025-06-03 14:00:00,姚家港工业园,宜昌市,枝江市,30.4011,111.6131,87.7,997.8,25.0,68.0,21.538520166073543,42.32500000000001
Q4401,2025-06-03 14:00:00,社坪,宜昌市,长阳土家族自治县,30.63,110.5428,506.0,952.4,18.4,88.0,18.612642792033817,26.096500000000027
Q4403,2025-06-03 14:00:00,渔峡口,宜昌市,长阳土家族自治县,30.4286,110.4992,380.0,967.4,21.3,81.0,20.509201825920453,33.44600000000007
Q4404,2025-06-03 14:00:00,高家堰,宜昌市,长阳土家族自治县,30.6069,111.0583,167.0,989.6,21.6,90.0,23.210898715463625,44.51700000000003
Q4406,2025-06-03 14:00:00,大堰,宜昌市,长阳土家族自治县,30.3353,111.0731,631.0,938.3,18.6,81.0,17.348213376961535,31.7765
Q4411,2025-06-03 14:00:00,横山,宜昌市,长阳土家族自治县,30.3692,110.9569,473.0,955.2,20.5,75.0,18.07761173868781,26.0375
Q4415,2025-06-03 14:00:00,火烧坪,宜昌市,长阳土家族自治县,30.4944,110.7997,1546.9,844.5,13.5,52.0,8.04071690043198,17.019500000000008
Q4425,2025-06-03 14:00:00,榔坪,宜昌市,长阳土家族自治县,30.6219,110.4972,490.0,956.2,18.7,87.0,18.750292941387865,32.04200000000003
Q4437,2025-06-03 14:00:00,中岭,宜昌市,长阳土家族自治县,30.6211,110.8139,1055.0,894.1,16.5,78.0,14.631226954687724,23.4155
Q4441,2025-06-03 14:00:00,龙池山,宜昌市,长阳土家族自治县,30.5814,111.0614,680.0,932.5,21.1,58.0,14.506340552618529,22.89750000000004
Q4443,2025-06-03 14:00:00,清江画廊,宜昌市,长阳土家族自治县,30.4703,111.1336,190.3,986.7,22.3,70.0,18.841292884214656,24.63049999999998
Q4446,2025-06-03 14:00:00,三洞水,宜昌市,长阳土家族自治县,30.3936,111.1128,220.0,985.0,21.8,83.0,21.66912179064198,36.389999999999965
Q4447,2025-06-03 14:00:00,都镇湾,宜昌市,长阳土家族自治县,30.4117,110.97,290.0,977.2,22.1,86.0,22.867428038362057,39.04450000000002
Q4453,2025-06-03 14:00:00,崩尖子,宜昌市,长阳土家族自治县,30.3731,110.7244,283.3,977.3,19.6,85.0,19.376990774833335,28.08650000000002
Q4510,2025-06-03 14:00:00,九道河,宜昌市,宜都市,30.1967,111.4717,199.8,985.5,21.4,83.0,21.14490530094606,37.13850000000002
Q4519,2025-06-03 14:00:00,陆城,宜昌市,宜都市,30.3839,111.4547,74.1,999.6,25.3,63.0,20.31490296649268,34.360999999999976
Q4604,2025-06-03 14:00:00,草埠湖,宜昌市,当阳市,30.5725,111.9686,74.0,1001.1,23.9,84.0,24.90905160269692,48.12637500000006
Q4606,2025-06-03 14:00:00,王店,宜昌市,当阳市,30.7075,111.675,158.6,989.4,22.4,92.0,24.91405374794663,55.99350000000002
Q4610,2025-06-03 14:00:00,红旗岗,宜昌市,当阳市,31.0844,111.9219,102.3,994.1,22.0,89.0,23.52117376050783,47.97600000000005
Q4611,2025-06-03 14:00:00,淯溪光明,宜昌市,当阳市,30.9275,111.9269,58.0,1001.5,22.5,95.0,25.883446021664227,54.75775000000009
Q4612,2025-06-03 14:00:00,向家草坝,宜昌市,当阳市,30.9167,111.685,96.0,997.1,22.0,96.0,25.37115371919945,53.41975000000003
Q4614,2025-06-03 14:00:00,长坂雄风,宜昌市,当阳市,30.8369,111.7611,70.0,1000.0,23.6,87.0,25.33659872503334,47.86619999999997
Q4701,2025-06-03 14:00:00,嫘祖,宜昌市,远安县,31.1906,111.4081,553.8,946.9,19.3,88.0,19.689851067473207,30.4695
Q4708,2025-06-03 14:00:00,茅坪场,宜昌市,远安县,31.1481,111.6794,179.8,987.3,20.4,87.0,20.84092229359388,35.547999999999995
Q4709,2025-06-03 14:00:00,洋坪,宜昌市,远安县,31.2208,111.5594,152.4,991.5,21.8,94.0,24.54093311229333,51.21200000000009
Q4710,2025-06-03 14:00:00,晓坪水库,宜昌市,远安县,31.1881,111.7553,391.9,964.2,18.6,89.0,19.06161716727872,30.65800000000004
Q4718,2025-06-03 14:00:00,芭芒店,宜昌市,远安县,31.2361,111.5361,186.0,985.3,22.4,80.0,21.664394563431856,41.79199999999998
Q4729,2025-06-03 14:00:00,龙凤,宜昌市,远安县,30.9167,111.5608,723.5,925.3,19.6,32.0,7.294867115231375,10.468500000000004
Q4801,2025-06-03 14:00:00,高桥,宜昌市,兴山县,31.2092,110.53,992.5,900.2,17.8,72.0,14.664753374574016,23.659500000000023
Q4802,2025-06-03 14:00:00,昭君,宜昌市,兴山县,31.2261,110.7697,286.0,977.2,21.0,84.0,20.88041874892609,34.89500000000004
Q4804,2025-06-03 14:00:00,峡口,宜昌市,兴山县,31.1192,110.7786,266.0,980.5,22.0,89.0,23.52117376050783,44.25049999999997
Q4806,2025-06-03 14:00:00,榛子,宜昌市,兴山县,31.5008,111.0083,1281.0,870.9,15.1,79.0,13.548917574559855,25.229999999999983
Q4808,2025-06-03 14:00:00,南对河,宜昌市,兴山县,31.1778,111.0017,644.1,938.3,18.6,92.0,19.70414358864767,42.56499999999997
Q4818,2025-06-03 14:00:00,观音河,宜昌市,兴山县,31.5183,110.8078,498.7,956.8,19.5,89.0,20.16308214020152,31.64350000000004
Q4837,2025-06-03 14:00:00,和平,宜昌市,兴山县,31.4728,110.9975,1301.6,869.8,15.0,85.0,14.484420357256903,26.22299999999999
Q4901,2025-06-03 14:00:00,彭家坡,宜昌市,秭归县,31.0306,110.6972,190.3,986.8,22.3,87.0,23.41703544180965,45.79
Q4902,2025-06-03 14:00:00,郭家坝,宜昌市,秭归县,30.9564,110.7569,351.0,970.7,21.6,84.0,21.663505467766047,33.27799999999994
Q4903,2025-06-03 14:00:00,两河口,宜昌市,秭归县,30.8722,110.5756,620.5,940.2,19.9,90.0,20.902541556741287,42.52050000000004
Q4905,2025-06-03 14:00:00,杨林桥,宜昌市,秭归县,30.7458,110.7553,421.8,962.8,19.9,93.0,21.599292941966,43.1105
Q4909,2025-06-03 14:00:00,沙镇溪,宜昌市,秭归县,30.9614,110.6022,420.0,962.5,21.3,85.0,21.52200191608936,35.70049999999996
Q4911,2025-06-03 14:00:00,九畹溪,宜昌市,秭归县,30.8442,110.7836,499.0,954.2,18.8,92.0,19.95233036015563,39.36149999999995
Q4918,2025-06-03 14:00:00,金缸城,宜昌市,秭归县,30.8361,110.9464,547.7,947.2,20.7,77.0,18.79008065857607,25.43999999999996
Q4921,2025-06-03 14:00:00,芝兰,宜昌市,秭归县,30.7814,110.7939,271.1,979.1,21.1,91.0,22.75994810841873,34.821499999999986
Q4932,2025-06-03 14:00:00,九岭头,宜昌市,秭归县,30.9803,110.8039,1385.0,860.9,15.4,85.0,14.861731948607476,29.561000000000032
Q4941,2025-06-03 14:00:00,高潮,宜昌市,秭归县,30.9881,110.4783,753.0,927.4,19.1,86.0,19.00390366705638,34.68900000000002
Q4945,2025-06-03 14:00:00,七甲,宜昌市,秭归县,30.7944,110.4961,1330.0,866.4,16.6,79.0,14.913390719211142,20.506000000000014
Q4950,2025-06-03 14:00:00,雁落坪,宜昌市,秭归县,30.8117,110.3497,985.0,901.1,17.4,94.0,18.66836093150834,37.23650000000001
Q4957,2025-06-03 14:00:00,三台寺,宜昌市,秭归县,30.6814,110.7139,1085.0,892.2,17.1,55.0,10.717561594949425,17.418500000000005
Q4962,2025-06-03 14:00:00,吴家沟,宜昌市,秭归县,30.9811,110.7606,209.2,983.8,22.8,72.0,19.977670493935676,44.93850000000002
Q5102,2025-06-03 14:00:00,白杨坪,恩施土家族苗族自治州,恩施市,30.4808,109.5828,638.9,938.0,18.9,93.0,20.295683066093,38.2785
Q5106,2025-06-03 14:00:00,三岔,恩施土家族苗族自治州,恩施市,30.2978,109.6278,1054.7,894.3,18.3,90.0,18.916578089235625,42.65414999999994
Q5109,2025-06-03 14:00:00,芭蕉,恩施土家族苗族自治州,恩施市,30.1222,109.3956,599.8,942.3,19.8,89.0,20.54245043559537,45.64199999999999
Q5116,2025-06-03 14:00:00,金龙坝,恩施土家族苗族自治州,恩施市,30.0906,109.1692,881.0,913.6,17.9,91.0,18.6517420053096,35.07600000000006
Q5122,2025-06-03 14:00:00,望城坡,恩施土家族苗族自治州,恩施市,30.3303,109.4231,1113.0,888.5,16.9,80.0,15.392743773453011,35.3235
Q5133,2025-06-03 14:00:00,小卫家山,恩施土家族苗族自治州,恩施市,30.3539,109.6558,1312.4,868.6,18.5,56.0,11.918912166892744,27.13099999999997
Q5135,2025-06-03 14:00:00,神堂,恩施土家族苗族自治州,恩施市,30.3583,109.8217,1567.0,843.1,16.6,45.0,8.494969397019004,16.092499999999998
Q5150,2025-06-03 14:00:00,大峡谷顶,恩施土家族苗族自治州,恩施市,30.4167,109.1628,1615.0,836.3,14.7,63.0,10.529889346375857,18.088499999999996
Q5153,2025-06-03 14:00:00,马者滑坡点,恩施土家族苗族自治州,恩施市,30.3733,109.3019,946.0,906.9,17.9,73.0,14.962386443819785,33.394500000000015
Q5206,2025-06-03 14:00:00,宜影古镇,恩施土家族苗族自治州,利川市,30.3353,109.1053,1025.3,898.8,16.6,79.0,14.913390719211142,27.116
Q5207,2025-06-03 14:00:00,元堡,恩施土家族苗族自治州,利川市,30.2233,109.0339,1088.3,889.6,16.0,93.0,16.89745684085161,35.66239999999999
Q5208,2025-06-03 14:00:00,黄泥塘,恩施土家族苗族自治州,利川市,30.0775,108.8592,1469.7,857.7,14.6,88.0,14.613759161051098,26.46599999999999
Q5209,2025-06-03 14:00:00,龙桥,恩施土家族苗族自治州,利川市,29.9294,108.7097,474.0,956.1,19.8,91.0,21.004078535271677,40.16599999999997
Q5211,2025-06-03 14:00:00,建南,恩施土家族苗族自治州,利川市,30.4353,108.5392,676.0,934.6,19.2,90.0,20.012235465447663,38.87499999999998
Q5214,2025-06-03 14:00:00,南坪,恩施土家族苗族自治州,利川市,30.43,108.7925,1129.0,886.9,17.2,87.0,17.060941948141274,41.1897
Q5222,2025-06-03 14:00:00,凉雾,恩施土家族苗族自治州,利川市,30.2664,108.805,1092.5,889.4,17.1,89.0,17.342963308190885,34.70900000000001
Q5226,2025-06-03 14:00:00,利川团堡,恩施土家族苗族自治州,利川市,30.3353,109.1494,986.8,901.1,17.2,86.0,16.864839167128153,34.13600000000009
Q5241,2025-06-03 14:00:00,小河,恩施土家族苗族自治州,利川市,30.0786,108.6025,1074.0,893.4,16.6,94.0,17.745047184884143,34.12125000000005
Q5249,2025-06-03 14:00:00,铁峰,恩施土家族苗族自治州,利川市,30.4533,108.6578,1558.5,843.0,14.7,73.0,12.201300353737103,22.182999999999986
Q5250,2025-06-03 14:00:00,药材,恩施土家族苗族自治州,利川市,30.4922,108.7469,1406.0,856.5,14.9,89.0,15.068663075932069,27.655499999999915
Q5301,2025-06-03 14:00:00,黄金洞,恩施土家族苗族自治州,咸丰县,29.9539,109.0781,788.1,921.3,18.1,95.0,19.71817960326951,42.50149999999999
Q5307,2025-06-03 14:00:00,朝阳寺,恩施土家族苗族自治州,咸丰县,29.6125,108.9175,468.0,956.9,21.0,93.0,23.11760647202531,40.64075000000003
Q5309,2025-06-03 14:00:00,坪坝营,恩施土家族苗族自治州,咸丰县,29.3997,108.9803,1268.8,872.5,15.2,95.0,16.39812787212819,32.756800000000005
Q5310,2025-06-03 14:00:00,茅坝,恩施土家族苗族自治州,咸丰县,29.7658,108.8233,723.6,929.5,18.1,93.0,19.303060032674363,40.87599999999998
Q5326,2025-06-03 14:00:00,李子溪,恩施土家族苗族自治州,咸丰县,29.8839,108.9089,832.0,918.3,18.5,96.0,20.432420857530417,40.58049999999995
Q5327,2025-06-03 14:00:00,中心场,恩施土家族苗族自治州,咸丰县,29.9194,108.9083,847.0,916.6,17.8,96.0,19.55300449943202,37.55249999999998
Q5330,2025-06-03 14:00:00,八家台,恩施土家族苗族自治州,咸丰县,29.8736,108.8114,869.0,911.8,18.3,92.0,19.33694649121864,37.31174999999994
Q5338,2025-06-03 14:00:00,柏杨坪,恩施土家族苗族自治州,咸丰县,29.8175,109.0397,872.4,910.8,17.9,89.0,18.241813609588505,34.78700000000002
Q5421,2025-06-03 14:00:00,兴隆坳,恩施土家族苗族自治州,来凤县,29.3261,109.2883,602.0,939.8,20.4,92.0,22.038676448398125,43.13699999999999
Q5422,2025-06-03 14:00:00,沙坝水库,恩施土家族苗族自治州,来凤县,29.4094,109.3228,512.0,951.1,20.9,88.0,21.74055432494029,41.80350000000006
Q5508,2025-06-03 14:00:00,沙道,恩施土家族苗族自治州,宣恩县,29.6986,109.5653,589.0,943.1,21.0,89.0,22.123300817314544,45.04900000000004
Q5509,2025-06-03 14:00:00,椿木营,恩施土家族苗族自治州,宣恩县,30.0575,109.8269,1681.0,831.5,12.7,92.0,13.50129749911143,30.733500000000014
Q5515,2025-06-03 14:00:00,中间河,恩施土家族苗族自治州,宣恩县,30.1294,109.6347,664.8,935.2,20.3,93.0,22.14096203624281,47.31699999999994
Q5516,2025-06-03 14:00:00,长潭北,恩施土家族苗族自治州,宣恩县,30.0081,109.5883,490.9,954.2,19.9,94.0,21.831543403707567,42.48283333333337
Q5517,2025-06-03 14:00:00,荆竹坪,恩施土家族苗族自治州,宣恩县,29.96,109.3461,1134.7,886.0,16.7,94.0,17.858221084060382,32.24850000000003
Q5530,2025-06-03 14:00:00,洗草坝,恩施土家族苗族自治州,宣恩县,29.9867,109.3608,743.4,927.3,17.7,97.0,19.63252533699146,41.24249999999994
Q5532,2025-06-03 14:00:00,金盆村,恩施土家族苗族自治州,宣恩县,29.8356,109.6717,655.8,936.6,19.5,93.0,21.069288079086977,42.79149999999992
Q5539,2025-06-03 14:00:00,竹园,恩施土家族苗族自治州,宣恩县,29.9019,109.26,1180.2,881.8,16.2,92.0,16.930575550824,33.76500000000006
Q5543,2025-06-03 14:00:00,彭家寨,恩施土家族苗族自治州,宣恩县,29.6717,109.6153,582.9,943.3,20.1,94.0,22.103802771683917,46.42699999999999
Q5601,2025-06-03 14:00:00,江坪河,恩施土家族苗族自治州,鹤峰县,29.7383,110.3472,467.0,955.9,20.8,85.0,20.870500685249475,43.56049999999998
Q5603,2025-06-03 14:00:00,蛤蟆颈,恩施土家族苗族自治州,鹤峰县,30.0658,110.2706,1382.0,859.2,13.7,85.0,13.315706763501854,28.71050000000001
Q5605,2025-06-03 14:00:00,清湖,恩施土家族苗族自治州,鹤峰县,30.0139,110.2697,1300.0,867.2,15.1,81.0,13.891928146067704,26.7295
Q5610,2025-06-03 14:00:00,五里,恩施土家族苗族自治州,鹤峰县,29.8969,110.3406,1142.0,885.9,16.0,88.0,15.988991419300447,25.744500000000016
Q5620,2025-06-03 14:00:00,堰塘,恩施土家族苗族自治州,鹤峰县,29.8628,109.8564,1175.0,881.7,16.3,93.0,17.224094129729487,33.20000000000001
Q5621,2025-06-03 14:00:00,云蒙,恩施土家族苗族自治州,鹤峰县,30.0564,110.0675,1011.3,898.3,15.9,95.0,17.150865736826756,34.06899999999998
Q5626,2025-06-03 14:00:00,龚家垭,恩施土家族苗族自治州,鹤峰县,30.1083,110.1294,1215.7,877.5,17.7,81.0,16.394170642229987,29.13300000000002
Q5628,2025-06-03 14:00:00,马家,恩施土家族苗族自治州,鹤峰县,29.7681,110.5636,509.0,950.0,18.6,89.0,19.06161716727872,35.92733333333333
Q5629,2025-06-03 14:00:00,细杉,恩施土家族苗族自治州,鹤峰县,29.8014,110.6133,673.7,933.5,17.4,86.0,17.079564256486353,32.147499999999994
Q5630,2025-06-03 14:00:00,堰垭,恩施土家族苗族自治州,鹤峰县,29.7203,110.2667,912.3,908.5,19.0,88.0,19.324855342331684,36.437499999999964
Q5632,2025-06-03 14:00:00,上六峰,恩施土家族苗族自治州,鹤峰县,29.9206,110.4636,1194.0,879.7,14.6,92.0,15.278020941098877,25.652
Q5633,2025-06-03 14:00:00,中坪,恩施土家族苗族自治州,鹤峰县,29.9917,110.4858,1137.0,883.3,15.0,85.0,14.484420357256903,25.872000000000003
Q5634,2025-06-03 14:00:00,水泉,恩施土家族苗族自治州,鹤峰县,29.9133,110.2561,606.5,941.0,20.1,92.0,21.63350909569064,35.918000000000006
Q5706,2025-06-03 14:00:00,溪丘湾,恩施土家族苗族自治州,巴东县,31.1572,110.4386,741.0,926.6,18.1,100.0,20.75597852975738,38.22850000000005
Q5707,2025-06-03 14:00:00,大支坪,恩施土家族苗族自治州,巴东县,30.6875,110.1708,1411.0,857.9,16.9,48.0,9.235646264071809,20.043000000000017
Q5708,2025-06-03 14:00:00,朱砂土,恩施土家族苗族自治州,巴东县,30.8936,110.3064,1166.0,881.0,17.2,69.0,13.531091889905149,26.583500000000026
Q5709,2025-06-03 14:00:00,玉米塘,恩施土家族苗族自治州,巴东县,30.6925,110.2486,1570.6,840.4,15.5,49.0,8.622501212573107,16.126500000000007
Q5710,2025-06-03 14:00:00,茅山岭,恩施土家族苗族自治州,巴东县,31.2233,110.2003,942.7,904.1,18.5,100.0,21.283771726594185,38.97483333333329
Q5712,2025-06-03 14:00:00,税家,恩施土家族苗族自治州,巴东县,30.9331,110.2219,1150.3,884.5,16.5,71.0,13.318168125420875,27.25199999999999
Q5720,2025-06-03 14:00:00,高家坡,恩施土家族苗族自治州,巴东县,31.1225,110.4797,735.0,927.7,19.1,79.0,17.457074298807605,32.341499999999954
Q5730,2025-06-03 14:00:00,麻沙坪,恩施土家族苗族自治州,巴东县,30.7125,110.4111,1234.0,874.5,16.1,64.0,11.702864808554676,23.529999999999998
Q5732,2025-06-03 14:00:00,庙坪,恩施土家族苗族自治州,巴东县,30.6672,110.2142,1261.9,871.9,16.2,76.0,13.986127628941563,28.14300000000002
Q5736,2025-06-03 14:00:00,倒卜龙,恩施土家族苗族自治州,巴东县,30.4069,110.1308,950.0,904.0,18.7,80.0,17.24164868173597,32.09199999999996
Q5751,2025-06-03 14:00:00,绿葱坡滑雪场,恩施土家族苗族自治州,巴东县,30.8117,110.2419,1663.0,832.0,13.5,60.0,9.277750269729204,18.367000000000004
Q5802,2025-06-03 14:00:00,茅田,恩施土家族苗族自治州,建始县,30.8097,109.8839,1364.3,862.4,13.6,85.0,13.229346383339008,29.033499999999982
Q5804,2025-06-03 14:00:00,高坪,恩施土家族苗族自治州,建始县,30.5989,110.0597,1239.1,872.2,18.2,63.0,13.15870747636744,26.914999999999985
Q5819,2025-06-03 14:00:00,封竹,恩施土家族苗族自治州,建始县,30.8222,109.9811,1731.3,826.2,13.3,68.0,10.37857349650339,17.831000000000007
Q5823,2025-06-03 14:00:00,石垭子,恩施土家族苗族自治州,建始县,30.6128,110.0208,777.3,922.5,18.5,90.0,19.15539455393477,35.29950000000001
Q5824,2025-06-03 14:00:00,落水洞,恩施土家族苗族自治州,建始县,30.5825,109.9603,917.0,906.8,18.1,89.0,18.472820891484066,38.836000000000006
Q5827,2025-06-03 14:00:00,冷竹,恩施土家族苗族自治州,建始县,30.5347,109.9972,1227.8,875.3,14.4,91.0,14.917847865542257,31.646999999999963
Q5829,2025-06-03 14:00:00,粟谷坝,恩施土家族苗族自治州,建始县,30.3572,110.0744,754.5,923.7,18.3,81.0,17.024920280312063,32.104999999999926
Q5831,2025-06-03 14:00:00,竹园坝,恩施土家族苗族自治州,建始县,30.2125,109.9622,1551.0,844.0,14.4,78.0,12.786726741893364,26.98199999999994
Q5836,2025-06-03 14:00:00,野三河景区,恩施土家族苗族自治州,建始县,30.6983,110.0806,896.7,911.3,17.7,82.0,16.596567810652573,32.314500000000024
Q6080,2025-06-03 14:00:00,掇刀,荆门市,掇刀区,30.975,112.2028,108.5,994.9,23.6,81.0,23.589247088824145,39.05999999999997
Q6082,2025-06-03 14:00:00,麻城,荆门市,掇刀区,30.9114,112.2447,85.0,998.0,23.3,91.0,26.025792097323723,39.4734999999999
Q6083,2025-06-03 14:00:00,樊桥,荆门市,掇刀区,30.7958,112.2522,82.0,998.6,23.8,92.0,27.11760992472829,39.3374999999999
Q6084,2025-06-03 14:00:00,凤凰,荆门市,掇刀区,30.9525,112.1789,106.0,995.6,23.4,88.0,25.320330288568265,41.34199999999991
Q6085,2025-06-03 14:00:00,龙泉,荆门市,掇刀区,30.8675,112.0964,97.5,996.7,23.8,91.0,26.82285329511168,37.74599999999989
Q6086,2025-06-03 14:00:00,仙女,荆门市,掇刀区,31.0422,112.1217,190.0,986.4,21.5,89.0,22.81285080991104,42.79599999999997
Q6111,2025-06-03 14:00:00,后港,荆门市,沙洋县,30.5242,112.3883,31.2,1004.1,23.9,88.0,26.095196917111057,46.88600000000003
Q6113,2025-06-03 14:00:00,高阳,荆门市,沙洋县,30.7592,112.46,65.0,1000.4,23.1,92.0,25.995383239763708,49.70416666666668
Q6114,2025-06-03 14:00:00,五里,荆门市,沙洋县,30.7297,112.2397,67.0,1000.2,23.7,92.0,26.9547388253278,38.09399999999989
Q6115,2025-06-03 14:00:00,十里,荆门市,沙洋县,30.6244,112.1758,56.2,1001.2,22.9,95.0,26.51978180333288,51.42325000000002
Q6117,2025-06-03 14:00:00,拾回桥,荆门市,沙洋县,30.5508,112.275,36.5,1003.6,24.1,90.0,27.011157960916112,49.88499999999996
Q6118,2025-06-03 14:00:00,曾集,荆门市,沙洋县,30.7172,112.3717,71.0,999.7,23.8,92.0,27.11760992472829,42.52400000000002
Q6122,2025-06-03 14:00:00,雷集,荆门市,掇刀区,30.8122,112.2886,104.0,995.8,23.2,92.0,26.15316735379681,39.31549999999989
Q6125,2025-06-03 14:00:00,双堰,荆门市,沙洋县,30.8186,112.4253,60.1,1001.0,23.7,90.0,26.368766242168498,42.22750000000006
Q6128,2025-06-03 14:00:00,港口,荆门市,沙洋县,30.4275,112.3442,40.0,1003.3,24.3,88.0,26.72996261241174,43.119749999999975
Q6129,2025-06-03 14:00:00,姚集,荆门市,沙洋县,30.8017,112.6122,40.0,1003.2,23.8,90.0,26.528096665495063,51.916000000000025
Q6160,2025-06-03 14:00:00,石桥驿,荆门市,东宝区,31.2861,112.1533,98.0,996.7,21.7,87.0,22.57493908183424,40.39599999999999
Q6162,2025-06-03 14:00:00,仙居,荆门市,东宝区,31.3903,112.0286,129.0,993.0,21.8,84.0,21.93019554715574,40.70200000000002
Q6163,2025-06-03 14:00:00,马河,荆门市,东宝区,31.1444,111.935,134.0,992.9,19.9,93.0,21.599292941966,44.91599999999997
Q6164,2025-06-03 14:00:00,栗溪,荆门市,东宝区,31.2678,111.9847,231.2,982.0,19.7,94.0,21.562231398046205,44.48999999999999
Q6167,2025-06-03 14:00:00,观音寺,荆门市,东宝区,31.0697,111.925,129.0,993.0,21.9,91.0,23.903334708668204,44.27000000000001
Q6168,2025-06-03 14:00:00,东宝,荆门市,东宝区,31.0633,112.2033,110.0,995.2,23.5,74.0,21.421041319236867,35.767000000000024
Q6169,2025-06-03 14:00:00,岩垱,荆门市,东宝区,31.2031,112.1422,112.5,995.1,20.4,84.0,20.12226980071133,41.087500000000034
Q6170,2025-06-03 14:00:00,象河,荆门市,东宝区,31.3072,112.1028,121.0,994.1,20.8,84.0,20.624965383070077,44.36050000000003
Q6171,2025-06-03 14:00:00,安河,荆门市,东宝区,31.0814,112.1022,246.3,980.2,21.9,87.0,22.85263867751795,58.69950000000004
Q6172,2025-06-03 14:00:00,圣境山,荆门市,东宝区,31.12,112.1464,355.3,967.9,25.2,44.0,14.103916289442951,23.962
Q6173,2025-06-03 14:00:00,东宝八角,荆门市,东宝区,31.1497,112.2619,70.8,999.2,22.1,91.0,24.19692966849939,46.58149999999997
Q6174,2025-06-03 14:00:00,文丰,荆门市,东宝区,31.1786,112.0386,179.5,987.6,19.8,93.0,21.46570663494797,47.22416666666663
Q6175,2025-06-03 14:00:00,琵琶洲,荆门市,东宝区,31.135,111.9811,156.5,990.1,19.9,90.0,20.902541556741287,40.504500000000014
Q6176,2025-06-03 14:00:00,铁坪,荆门市,东宝区,31.2347,111.9575,270.2,977.4,20.2,79.0,18.69194314133757,36.91949999999994
Q6210,2025-06-03 14:00:00,长寿,荆门市,钟祥市,31.4994,112.5936,124.4,993.6,23.0,91.0,25.55758116770517,44.70999999999994
Q6213,2025-06-03 14:00:00,客店,荆门市,钟祥市,31.4353,112.8739,207.8,984.1,22.3,81.0,21.80206748030553,54.24150000000005
Q6217,2025-06-03 14:00:00,张集,荆门市,钟祥市,31.5064,112.72,136.9,992.2,22.2,92.0,24.61243537246303,39.017000000000046
Q6218,2025-06-03 14:00:00,洋梓,荆门市,钟祥市,31.2917,112.6356,56.0,1002.4,23.6,89.0,25.919049270436403,42.00699999999998
Q6219,2025-06-03 14:00:00,柴湖,荆门市,钟祥市,30.9944,112.5881,40.0,1003.3,23.9,88.0,26.095196917111057,42.57749999999996
Q6220,2025-06-03 14:00:00,磷矿,荆门市,钟祥市,31.2944,112.4272,47.9,1002.1,21.5,91.0,23.325499142718037,42.32550000000008
Q6223,2025-06-03 14:00:00,九里,荆门市,钟祥市,31.1669,112.6503,53.0,1002.5,23.6,87.0,25.33659872503334,43.85999999999994
Q6224,2025-06-03 14:00:00,文集,荆门市,钟祥市,31.1594,112.5319,54.6,1002.4,23.8,88.0,25.93858340626184,42.49049999999997
Q6235,2025-06-03 14:00:00,洪山寺,荆门市,钟祥市,31.4969,112.5197,56.0,1000.5,23.7,88.0,25.7827936590092,52.84049999999996
Q6236,2025-06-03 14:00:00,北山,荆门市,钟祥市,31.2022,112.4103,93.0,997.3,21.9,88.0,23.115312685305515,45.089
Q6237,2025-06-03 14:00:00,陈坡,荆门市,钟祥市,31.0467,112.4686,43.0,1002.1,24.4,88.0,26.89075056956581,47.4945
Q6260,2025-06-03 14:00:00,钟祥杨集,荆门市,钟祥市,31.3961,112.4883,59.0,1001.9,23.0,89.0,24.99587608709626,43.75499999999994
Q6263,2025-06-03 14:00:00,明显陵,荆门市,钟祥市,31.2106,112.6344,65.0,1000.8,21.7,91.0,23.61286731548179,44.83945000000001
Q6264,2025-06-03 14:00:00,郢中,荆门市,钟祥市,31.1667,112.5667,65.8,1000.6,24.8,77.0,24.09960109958646,45.77500000000005
Q6317,2025-06-03 14:00:00,宋河,荆门市,京山市,31.1814,113.3008,77.2,998.9,23.5,89.0,25.76314428935245,44.21350000000001
Q6319,2025-06-03 14:00:00,永兴,荆门市,京山市,30.9697,113.2225,63.0,999.8,24.6,82.0,25.35930935808551,47.6045
Q6320,2025-06-03 14:00:00,钱场,荆门市,京山市,30.8547,113.0992,49.6,1002.2,24.4,83.0,25.362867014476844,48.8365
Q6321,2025-06-03 14:00:00,石龙,荆门市,京山市,30.8972,112.8411,34.0,1003.3,24.1,91.0,27.311281938259626,52.16400000000002
Q6322,2025-06-03 14:00:00,永漋,荆门市,京山市,30.7744,112.8278,33.9,1003.8,24.0,84.0,25.059336160472427,43.00200000000001
Q6323,2025-06-03 14:00:00,坪坝,荆门市,京山市,31.2839,113.3547,73.0,999.0,22.6,92.0,25.21890662690787,41.50533333333331
Q6324,2025-06-03 14:00:00,屈家岭,荆门市,市辖区,30.8344,112.945,77.0,999.1,22.9,91.0,25.4031594116136,41.80000000000002
Q6333,2025-06-03 14:00:00,三阳,荆门市,京山市,31.3436,113.1756,203.2,984.5,21.8,80.0,20.88590052110071,38.85450000000006
Q6335,2025-06-03 14:00:00,三台,荆门市,京山市,31.2819,112.9369,174.2,987.6,21.0,94.0,23.366182885703,48.046999999999954
Q6336,2025-06-03 14:00:00,将军岭,荆门市,京山市,31.2428,112.9794,208.9,984.3,21.2,93.0,23.40349744442215,47.39499999999999
Q6339,2025-06-03 14:00:00,空山洞,荆门市,京山市,30.9928,113.045,105.0,995.9,22.1,92.0,24.462829994526857,45.647333333333336
Q6343,2025-06-03 14:00:00,四股泉,荆门市,京山市,31.1531,113.2286,226.5,981.9,22.4,84.0,22.747614291603444,43.81100000000004
Q6344,2025-06-03 14:00:00,马岭,荆门市,京山市,31.0558,113.4464,45.0,1001.8,24.5,83.0,25.51531732612744,47.067
Q6349,2025-06-03 14:00:00,中南山,荆门市,京山市,30.9269,113.0072,111.0,995.4,22.9,91.0,25.4031594116136,45.87433333333334
Q6353,2025-06-03 14:00:00,黄台,荆门市,京山市,31.1539,112.8736,115.4,994.8,23.1,94.0,26.56050026671509,49.51149999999997
Q6358,2025-06-03 14:00:00,绿林寨,荆门市,京山市,31.3367,113.0661,174.0,989.0,21.5,74.0,18.967988313858616,37.46850000000002
Q6370,2025-06-03 14:00:00,罗汉寺,荆门市,市辖区,30.9961,112.6831,38.0,1003.4,23.9,94.0,27.874414888732264,58.56997500000002
Q6371,2025-06-03 14:00:00,长滩办事处,荆门市,市辖区,30.9972,112.7556,57.0,1001.7,23.5,94.0,27.210511946057643,51.09874999999995
Q6372,2025-06-03 14:00:00,月宝山,荆门市,市辖区,30.9675,112.7822,89.0,997.7,24.0,86.0,25.65598702143605,46.26649999999999
Q6373,2025-06-03 14:00:00,牙谷山,荆门市,市辖区,30.9711,112.8208,105.0,996.0,22.8,91.0,25.2495557631687,46.78450000000004
Q6374,2025-06-03 14:00:00,刘台,荆门市,市辖区,30.8964,112.7422,38.5,1003.7,23.9,93.0,27.57787856012873,45.62350000000006
Q6375,2025-06-03 14:00:00,种业基地,荆门市,市辖区,30.8661,112.8697,73.3,999.8,23.6,84.0,24.46292290692874,49.97900000000001
Q6376,2025-06-03 14:00:00,蔡垱,荆门市,市辖区,30.7656,112.8836,33.1,1003.9,24.0,91.0,27.14761417384513,51.26524999999995
Q6401,2025-06-03 14:00:00,洈水,荆州市,松滋市,29.9694,111.5644,100.3,997.7,23.4,84.0,24.16940618454243,50.83199999999992
Q6402,2025-06-03 14:00:00,沙道观,荆州市,松滋市,30.1794,111.9433,38.4,1003.3,24.1,86.0,25.81066205154206,55.11250000000002
Q6403,2025-06-03 14:00:00,纸厂河,荆州市,松滋市,30.0286,111.8453,52.1,1002.9,23.2,84.0,23.87897888824926,49.90349999999996
Q6404,2025-06-03 14:00:00,南海,荆州市,松滋市,30.1169,111.85,48.2,1003.6,22.4,85.0,23.01841922364634,46.99600000000004
Q6406,2025-06-03 14:00:00,卸甲坪,荆州市,松滋市,30.03,111.37,136.0,994.2,21.9,80.0,21.013920623005014,32.023000000000025
Q6407,2025-06-03 14:00:00,北干渠,荆州市,松滋市,30.0261,111.6894,43.0,1001.7,23.0,87.0,24.434171006487357,51.05825000000005
Q6408,2025-06-03 14:00:00,北河,荆州市,松滋市,30.0728,111.6294,164.0,989.3,24.1,65.0,19.508058527328306,23.368999999999986
Q6409,2025-06-03 14:00:00,陈店,荆州市,松滋市,30.2792,111.6517,122.0,993.1,23.0,70.0,19.65967782131166,31.238000000000007
Q6411,2025-06-03 14:00:00,涴市,荆州市,松滋市,30.2714,112.0189,50.1,1003.2,23.5,85.0,24.60525016398829,42.96799999999994
Q6412,2025-06-03 14:00:00,杨林市,荆州市,松滋市,29.9758,111.7756,69.2,1000.5,23.7,86.0,25.196821075849897,38.81950000000004
Q6414,2025-06-03 14:00:00,八宝,荆州市,松滋市,30.18,111.8686,46.1,1003.4,23.0,89.0,24.99587608709626,55.188
Q6415,2025-06-03 14:00:00,万家,荆州市,松滋市,29.9686,111.6961,76.2,1001.0,22.5,93.0,25.33853136857656,44.72449999999998
Q6417,2025-06-03 14:00:00,三堰淌,荆州市,松滋市,30.0903,111.4008,626.8,938.9,18.9,72.0,15.712786889878451,22.70449999999998
Q6418,2025-06-03 14:00:00,卸甲坪村,荆州市,松滋市,30.0397,111.3681,220.0,983.0,19.5,88.0,19.93653065548015,33.96100000000007
Q6426,2025-06-03 14:00:00,新江口,荆州市,松滋市,30.1769,111.7736,69.5,1000.2,25.5,63.0,20.55811527721376,33.10600000000004
Q6494,2025-06-03 14:00:00,南平,荆州市,公安县,29.9206,112.0969,44.0,1003.6,23.8,79.0,23.285773739712333,40.58649999999998
Q6495,2025-06-03 14:00:00,狮子口,荆州市,公安县,29.99,112.0072,48.0,1003.0,23.6,79.0,23.006796543421075,42.79949999999989
Q6496,2025-06-03 14:00:00,杨家厂,荆州市,公安县,30.0592,112.3197,30.0,1004.1,23.4,82.0,23.593944132529515,39.78749999999998
Q6497,2025-06-03 14:00:00,孟家溪,荆州市,公安县,29.8575,112.0914,40.0,1004.2,23.7,79.0,23.145917034792348,39.20350000000002
Q6498,2025-06-03 14:00:00,麻豪口,荆州市,公安县,29.9631,112.3392,40.0,1004.0,25.3,76.0,24.506867070689584,47.53000000000009
Q6499,2025-06-03 14:00:00,夹竹园,荆州市,公安县,29.99,112.1083,37.0,1004.0,24.4,78.0,23.83498345938788,36.38649999999994
Q6500,2025-06-03 14:00:00,甘厂,荆州市,公安县,29.7447,112.0739,36.9,1004.2,23.7,84.0,24.6108484926906,45.90300000000002
Q6502,2025-06-03 14:00:00,斑竹垱,荆州市,公安县,30.0544,112.0081,39.5,1003.8,24.9,89.0,28.02231507142312,44.22249999999998
Q6503,2025-06-03 14:00:00,埠河,荆州市,公安县,30.2919,112.2406,44.0,1003.3,24.1,80.0,24.00991818748099,44.02800000000004
Q6577,2025-06-03 14:00:00,大垸,荆州市,石首市,29.8425,112.4731,35.7,1004.0,24.7,83.0,25.82262629035824,46.60800000000001
Q6651,2025-06-03 14:00:00,监利汪桥,荆州市,监利市,29.98,112.7044,26.1,1004.8,24.3,86.0,26.12246346212965,54.185000000000045
Q6656,2025-06-03 14:00:00,监利上车,荆州市,监利市,29.8086,113.0083,26.5,1004.6,24.1,84.0,25.21041409685504,41.38549999999997
Q6657,2025-06-03 14:00:00,监利周老嘴,荆州市,监利市,30.0322,112.9767,25.1,1004.6,23.5,81.0,23.447356038624143,45.53350000000006
Q6658,2025-06-03 14:00:00,监利朱河,荆州市,监利市,29.7317,113.1064,24.9,1004.7,23.6,88.0,25.627823997734872,47.316750000000056
Q6659,2025-06-03 14:00:00,监利福田,荆州市,监利市,29.9039,113.0831,24.7,1004.8,23.1,90.0,25.43026621281232,51.73350000000002
Q6660,2025-06-03 14:00:00,监利黄歇口,荆州市,监利市,30.0361,112.8011,26.1,1004.9,25.1,78.0,24.853786526437407,51.28850000000002
Q6661,2025-06-03 14:00:00,监利大垸,荆州市,监利市,29.8486,112.7075,24.2,1004.1,24.7,88.0,27.37820618736777,50.55399999999996
Q6662,2025-06-03 14:00:00,监利网市,荆州市,监利市,30.1097,113.1147,25.8,1004.8,24.0,89.0,26.5509633128815,54.42649999999994
Q6665,2025-06-03 14:00:00,监利分盐,荆州市,监利市,29.9844,113.0503,31.9,1004.6,24.5,75.0,23.056009632042866,38.77700000000004
Q6667,2025-06-03 14:00:00,监利柘木,荆州市,监利市,29.59,113.1403,26.4,1004.7,23.8,77.0,22.69626048047911,37.753000000000014
Q6668,2025-06-03 14:00:00,监利汴河,荆州市,监利市,29.8086,113.0872,25.1,1004.8,23.5,87.0,25.18419722667037,43.58000000000001
Q6670,2025-06-03 14:00:00,三洲,荆州市,监利市,29.545,112.9406,29.0,1004.6,23.1,92.0,25.995383239763708,51.37449999999999
Q6750,2025-06-03 14:00:00,曹市,荆州市,洪湖市,29.8625,113.5478,29.8,1004.8,24.7,87.0,27.067090207965865,48.86749999999989
Q6751,2025-06-03 14:00:00,黄家口,荆州市,洪湖市,30.0486,113.5617,20.0,1005.2,22.6,95.0,26.0412622777853,44.31825000000007
Q6753,2025-06-03 14:00:00,瞿家湾渡口,荆州市,洪湖市,29.9325,113.2267,30.0,1004.8,24.8,84.0,26.29047392682159,48.06649999999997
Q6754,2025-06-03 14:00:00,洪狮渔场,荆州市,洪湖市,29.9217,113.29,20.0,1005.0,25.0,83.0,26.289664320354465,42.96750000000001
Q6755,2025-06-03 14:00:00,瞿家湾,荆州市,洪湖市,29.9614,113.1831,23.5,1004.8,23.6,93.0,27.083950361242536,52.56700000000005
Q6756,2025-06-03 14:00:00,八卦洲,荆州市,洪湖市,29.8175,113.4078,34.0,1005.3,23.6,100.0,29.122527270153263,57.21774999999993
Q6757,2025-06-03 14:00:00,螺山,荆州市,洪湖市,29.6706,113.3161,26.7,1004.9,22.8,82.0,22.75234695142673,34.67850000000001
Q6758,2025-06-03 14:00:00,乌林,荆州市,洪湖市,29.9078,113.6072,30.0,1005.1,24.2,85.0,25.66422097169782,44.51250000000005
Q6759,2025-06-03 14:00:00,大沙,荆州市,洪湖市,30.0072,113.8642,30.0,1005.5,23.0,85.0,23.872465925878448,43.64849999999998
Q6760,2025-06-03 14:00:00,燕窝,荆州市,洪湖市,30.0958,113.9672,30.0,1005.1,23.4,89.0,25.60806131457472,44.98649999999998
Q6761,2025-06-03 14:00:00,汊河,荆州市,洪湖市,29.9578,113.4517,27.6,1005.1,25.4,78.0,25.301952665012323,48.62449999999999
Q6764,2025-06-03 14:00:00,大同湖,荆州市,洪湖市,30.0467,113.7133,23.7,1005.4,23.6,79.0,23.006796543421075,44.582999999999984
Q6767,2025-06-03 14:00:00,峰口,荆州市,洪湖市,30.1211,113.3494,25.3,1005.1,24.4,85.0,25.97402043651243,52.22650000000009
Q6769,2025-06-03 14:00:00,土地湖,荆州市,洪湖市,29.9361,113.3403,20.0,1005.1,23.8,89.0,26.23334003587845,38.226499999999945
Q6770,2025-06-03 14:00:00,袁新泵站,荆州市,洪湖市,29.7106,113.3156,20.0,1004.9,22.9,90.0,25.124003813683775,48.02049999999996
Q6771,2025-06-03 14:00:00,府场,荆州市,洪湖市,30.1222,113.1589,31.2,1004.8,24.5,90.0,27.66721155845144,56.43850000000002
Q6772,2025-06-03 14:00:00,洪湖龙口,荆州市,洪湖市,29.9878,113.7756,25.1,1005.2,24.5,81.0,24.90049040260629,47.8945
Q6773,2025-06-03 14:00:00,洪湖经开区,荆州市,洪湖市,29.8489,113.4908,23.2,1005.0,24.0,83.0,24.761010729990613,38.65749999999994
Q6847,2025-06-03 14:00:00,江滩公园,荆州市,洪湖市,29.8033,113.4594,28.5,1004.2,23.1,84.0,23.734915131958168,46.14099999999998
Q6853,2025-06-03 14:00:00,纪南,荆州市,荆州区,30.4272,112.2525,33.0,1003.7,23.7,88.0,25.7827936590092,46.5228
Q6856,2025-06-03 14:00:00,荆州中学,荆州市,荆州区,30.3653,112.2097,32.0,1004.2,24.7,76.0,23.64481443454489,41.429000000000016
Q6862,2025-06-03 14:00:00,乐居,荆州市,荆州区,30.3531,112.1147,38.6,1004.3,23.6,90.0,26.21027454313793,47.89837499999999
Q6863,2025-06-03 14:00:00,麋鹿,荆州市,石首市,29.7822,112.5547,35.4,1004.2,21.1,97.0,24.260604027655123,43.322250000000025
Q6901,2025-06-03 14:00:00,观音垱,荆州市,沙市区,30.3797,112.4003,28.0,1004.0,24.2,89.0,26.87194901742477,43.33849999999996
Q6951,2025-06-03 14:00:00,秦市,荆州市,江陵县,29.9672,112.6025,30.3,1004.7,24.5,92.0,28.282038481972585,53.70649999999998
Q6953,2025-06-03 14:00:00,沙岗,荆州市,江陵县,30.0603,112.6308,30.0,1004.5,24.6,78.0,24.12226987720329,38.286749999999984
Q6954,2025-06-03 14:00:00,熊河,荆州市,江陵县,30.1106,112.44,30.1,1004.5,25.5,75.0,24.473946758587804,40.20899999999994
Q6957,2025-06-03 14:00:00,三湖,荆州市,江陵县,30.1967,112.5561,26.0,1004.8,23.5,82.0,23.736829569965177,40.80449999999998
Q6958,2025-06-03 14:00:00,郝穴,荆州市,江陵县,29.9919,112.4553,31.3,1004.4,25.4,74.0,24.004416630909127,41.1065
Q6960,2025-06-03 14:00:00,江北农场,荆州市,江陵县,30.1814,112.3494,30.0,1004.4,22.6,94.0,25.767143727492822,44.823000000000064
Q7030,2025-06-03 14:00:00,悟峰山,孝感市,大悟县,31.7775,114.1636,92.4,997.1,21.1,95.0,23.760385387909658,50.65499999999998
Q7038,2025-06-03 14:00:00,新城,孝感市,大悟县,31.4925,114.2794,120.0,992.6,22.8,87.0,24.139685180172272,46.49250000000003
Q7087,2025-06-03 14:00:00,河口茶园,孝感市,大悟县,31.3186,114.3764,56.4,999.7,20.9,93.0,22.97581309340281,43.70949999999999
Q7092,2025-06-03 14:00:00,大悟城关,孝感市,大悟县,31.5711,114.1214,74.9,998.2,24.3,80.0,24.2999660112834,40.04100000000005
Q7138,2025-06-03 14:00:00,雷公,孝感市,安陆市,31.2953,113.515,101.0,996.2,22.9,91.0,25.4031594116136,54.238500000000016
Q7165,2025-06-03 14:00:00,接官,孝感市,安陆市,31.4175,113.7522,68.6,999.9,23.3,100.0,28.59977153552057,41.10500000000005
Q7166,2025-06-03 14:00:00,辛榨,孝感市,安陆市,31.1122,113.6156,45.9,1002.5,24.0,100.0,29.832543048181464,39.7905
Q7167,2025-06-03 14:00:00,府河,孝感市,安陆市,31.2575,113.6686,36.4,1003.5,23.9,93.0,27.57787856012873,60.12950000000001
Q7218,2025-06-03 14:00:00,田店,孝感市,应城市,31.0317,113.4494,52.5,1001.9,24.3,87.0,26.4262130372707,40.038500000000006
Q7266,2025-06-03 14:00:00,义和,孝感市,应城市,30.7686,113.4944,28.9,1004.6,24.2,88.0,26.57001700599304,53.65000000000007
Q7315,2025-06-03 14:00:00,城隍,孝感市,汉川市,30.6261,113.7594,24.9,1004.8,24.0,87.0,25.954312451917872,51.76300000000001
Q7316,2025-06-03 14:00:00,华严农场,孝感市,汉川市,30.6256,113.6964,24.1,1005.2,24.1,86.0,25.81066205154206,52.92199999999997
Q7317,2025-06-03 14:00:00,回龙,孝感市,汉川市,30.565,113.4961,24.3,1004.9,24.0,88.0,26.25263788239969,60.29850000000005
Q7318,2025-06-03 14:00:00,脉旺,孝感市,汉川市,30.5175,113.5933,23.9,1004.7,23.7,89.0,26.07577995058885,60.9530000000001
Q7350,2025-06-03 14:00:00,庙头,孝感市,汉川市,30.5944,113.7875,27.0,1004.8,23.2,89.0,25.30034667921648,45.08649999999998
Q7354,2025-06-03 14:00:00,刘家隔,孝感市,汉川市,30.7539,113.8008,25.0,1005.1,21.9,94.0,24.69135673203089,60.70754166666662
Q7358,2025-06-03 14:00:00,麻河,孝感市,汉川市,30.775,113.6914,22.2,1005.2,23.5,92.0,26.631564883375567,54.05499999999998
Q7378,2025-06-03 14:00:00,南河,孝感市,汉川市,30.4967,113.7769,25.0,1004.4,23.8,83.0,24.464800258178784,38.721
Q7387,2025-06-03 14:00:00,新河,孝感市,汉川市,30.6956,113.9111,30.0,1005.1,22.8,92.0,25.52702340891781,50.962499999999984
Q7392,2025-06-03 14:00:00,西江,孝感市,汉川市,30.4806,113.6775,24.0,1004.8,24.1,83.0,24.91029011951153,44.31249999999997
Q7393,2025-06-03 14:00:00,韩集,孝感市,汉川市,30.6742,113.5964,28.0,1005.2,24.9,82.0,25.818312762434783,41.37169999999998
Q7426,2025-06-03 14:00:00,周巷,孝感市,孝昌县,31.2169,114.1108,105.8,995.8,22.3,91.0,24.493680749479054,50.61400000000001
Q7432,2025-06-03 14:00:00,丰和,孝感市,孝昌县,31.1422,114.1475,85.0,998.1,22.8,87.0,24.139685180172272,56.55600000000001
Q7442,2025-06-03 14:00:00,花西,孝感市,孝昌县,31.1939,113.8561,72.2,999.6,24.2,96.0,28.98547309744695,53.78050000000016
Q7461,2025-06-03 14:00:00,双峰山景区,孝感市,孝昌县,31.2011,114.1914,582.5,943.9,20.9,79.0,19.51708854170776,33.49999999999994
Q7538,2025-06-03 14:00:00,隔蒲潭,孝感市,云梦县,30.9461,113.7253,28.7,1004.7,24.2,81.0,24.456492925970867,45.124999999999936
Q7546,2025-06-03 14:00:00,倒店,孝感市,云梦县,31.1844,113.7389,58.9,1001.0,24.3,84.0,25.51496431184757,49.64250000000001
Q7554,2025-06-03 14:00:00,清明河,孝感市,云梦县,31.0272,113.6944,34.0,1004.2,23.8,85.0,25.054313517412005,52.81050000000009
Q7618,2025-06-03 14:00:00,杨店,孝感市,孝南区,31.025,114.1083,52.0,1002.8,23.1,91.0,25.712824726288016,43.76849999999997
Q7622,2025-06-03 14:00:00,陡岗,孝感市,孝南区,31.0397,113.8556,30.1,1003.8,24.0,83.0,24.761010729990613,45.01699999999999
Q7626,2025-06-03 14:00:00,肖港,孝感市,孝南区,31.0981,113.975,46.5,1002.1,23.3,95.0,27.16978295874454,67.9175
Q7630,2025-06-03 14:00:00,毛陈,孝感市,孝南区,30.8239,113.9908,23.2,1005.1,23.5,91.0,26.34209135203453,54.388499999999965
Q7642,2025-06-03 14:00:00,新铺,孝感市,孝南区,30.9806,113.98,46.2,1002.6,23.1,86.0,24.30003215890955,49.96049999999995
Q7650,2025-06-03 14:00:00,卧龙,孝感市,孝南区,30.8961,113.9025,27.1,1005.1,24.7,81.0,25.200394331554428,55.341
Q7654,2025-06-03 14:00:00,闵集,孝感市,孝南区,30.8508,114.1303,46.2,1004.1,22.9,89.0,24.84484821575396,45.52299999999995
Q7658,2025-06-03 14:00:00,东山头,孝感市,孝南区,30.7981,114.0183,25.3,1005.1,23.1,87.0,24.582590672385248,57.76100000000006
Q7659,2025-06-03 14:00:00,朱湖,孝感市,孝南区,30.8081,113.9397,19.7,1005.3,23.4,93.0,26.758985418600552,51.99499999999995
Q7663,2025-06-03 14:00:00,郑家河,孝感市,市辖区,31.3603,113.2903,96.0,996.4,23.0,100.0,28.085254030445235,56.42799999999981
Q7701,2025-06-03 14:00:00,拖市,省直辖县级行政区划,天门市,30.7267,112.8314,40.0,1003.9,23.2,88.0,25.016073121023037,48.067
Q7704,2025-06-03 14:00:00,佛子山,省直辖县级行政区划,天门市,30.7503,113.0092,35.2,1003.7,24.4,89.0,27.196327280583603,50.99365000000002
Q7705,2025-06-03 14:00:00,汪场,省直辖县级行政区划,天门市,30.61,113.0192,26.7,1004.5,23.8,94.0,27.707123183961517,61.24185000000005
Q7708,2025-06-03 14:00:00,岳口,省直辖县级行政区划,天门市,30.5239,113.0894,38.0,1004.2,24.2,83.0,25.060356948834343,46.620000000000026
Q7709,2025-06-03 14:00:00,九真,省直辖县级行政区划,天门市,30.7694,113.2297,29.7,1004.6,24.0,87.0,25.954312451917872,48.18825000000001
Q7712,2025-06-03 14:00:00,皂市,省直辖县级行政区划,天门市,30.8636,113.3256,39.0,1004.6,24.0,85.0,25.35766159095424,44.13600000000001
