Station_Id_C,Datetime,Lat,Lon,Alti,City,Station_Name,Cnty,PRS,TEM,RHU,PWV,VAP
57544,2025-06-03 10:00:00,29.4583,109.4433,485.4,湘西土家族苗族自治州,龙山,龙山县,953.1,25.9,59,42.8,19.715546783175448
57554,2025-06-03 10:00:00,29.4011,110.1622,318.8,张家界市,桑植,桑植县,970.5,27.3,62,42.4,22.501309210333982
57558,2025-06-03 10:00:00,29.1183,110.4172,218.5,张家界市,张家界,永定区,981.7,28.6,54,41.6,21.143523129395643
57562,2025-06-03 10:00:00,29.5833,111.3633,119,常德市,石门,石门县,993.2,27.9,55,39,20.67444217012206
57564,2025-06-03 10:00:00,29.4317,111.0892,168.7,张家界市,慈利,慈利县,986.6,27.2,66,37.7,23.812827010478856
57565,2025-06-03 10:00:00,29.6669,111.7253,40.2,常德市,澧县,澧县,1002.1,27.9,66,38.8,24.80933060414647
57566,2025-06-03 10:00:00,29.4692,111.67,86,常德市,临澧,临澧县,996.5,27.4,64,32.1211219171639,23.363788546954254
57574,2025-06-03 10:00:00,29.3517,112.4317,40.3,益阳市,南县,南县,1001.9,27.5,58,33.227379235475375,21.297891074664044
57575,2025-06-03 10:00:00,29.525,112.5567,49.4,岳阳市,华容,华容县,1000.8,27.4,54,37.6,19.713196586492653
57577,2025-06-03 10:00:00,29.4103,112.205,42.2,常德市,安乡,安乡县,1002.7,27.4,60,37.9,21.90355176276961
57584,2025-06-03 10:00:00,29.3808,113.088,52.7,岳阳市,岳阳,岳阳楼区,1000.5,26.8,60,36.1,21.1447767328269
57585,2025-06-03 10:00:00,29.4814,113.4478,64,岳阳市,临湘,临湘市,999.3,27.5,56,37.5,20.563481037606667
57587,2025-06-03 10:00:00,29.1914,113.1092,48.4,岳阳市,洞庭湖,岳阳县,1000.5,26.8,67,40.97446555813558,23.611667351656706
57640,2025-06-03 10:00:00,28.5364,109.4625,532.8,湘西土家族苗族自治州,花垣,花垣县,947.4,25.2,60,37.44060674766353,19.23261312196766
57642,2025-06-03 10:00:00,28.6808,109.6481,438.1,湘西土家族苗族自治州,保靖,保靖县,957.8,26.0,64,43.141890616752704,21.51347277690443
57643,2025-06-03 10:00:00,29.0083,109.8383,272.6,湘西土家族苗族自治州,永顺,永顺县,975.9,28.1,56,41.5,21.29752634989458
57646,2025-06-03 10:00:00,28.6222,109.9469,318,湘西土家族苗族自治州,古丈,古丈县,970.6,28.1,53,46.4,20.15658743829308
57649,2025-06-03 10:00:00,28.2381,109.6825,253.6,湘西土家族苗族自治州,吉首,吉首市,977.5,27.8,49,41.6,18.311729933172437
57655,2025-06-03 10:00:00,28.4633,110.4031,151.6,怀化市,沅陵县,沅陵县,989.1,29.0,50,44.5,20.037067547102016
57657,2025-06-03 10:00:00,28.21,110.2286,216.4,湘西土家族苗族自治州,泸溪,泸溪县,981.7,26.8,57,34.999637956592174,20.087537896185555
57658,2025-06-03 10:00:00,28.0069,110.1928,155.3,怀化市,辰溪,辰溪县,988.7,28.4,53,48.5,20.51200252524752
57661,2025-06-03 10:00:00,28.9133,111.4797,51.1,常德市,桃源,桃源县,1001.2,28.7,54,45.3,21.266708256890137
57662,2025-06-03 10:00:00,29.1164,111.6767,151.4,常德市,常德,武陵区,989.6,27.4,57,41.3,20.80837417463113
57663,2025-06-03 10:00:00,28.9203,111.9583,36.2,常德市,汉寿,汉寿县,1002.9,28.6,55,42.2,21.53506985401408
57666,2025-06-03 10:00:00,28.5159,112.1366,139.4,益阳市,桃江,桃江县,990.9,27.9,57,39.3,21.426240067217403
57669,2025-06-03 10:00:00,28.3847,111.2203,129.8,益阳市,安化,安化县,984.0,28.2,51,47.7,19.509382673399543
57671,2025-06-03 10:00:00,28.84,112.3722,43.7,益阳市,沅江,沅江市,1001.9,27.9,62,38.9,23.305734809955773
57673,2025-06-03 10:00:00,28.7283,112.9253,63,岳阳市,湘阴,湘阴县,998.9,26.9,62,35.90537433787237,21.978607244208703
57674,2025-06-03 10:00:00,28.5722,112.3783,49.6,益阳市,赫山,赫山区,993.0,27.3,55,41.8,19.960838815618857
57678,2025-06-03 10:00:00,28.2514,112.5433,60.9,长沙市,宁乡,宁乡市,997.6,28.2,53,46.9,20.27445650372894
57679,2025-06-03 10:00:00,28.2117,113.1972,103.6,长沙市,长沙黄花,长沙县,994.0,28.9,53,49.2,21.116535280638782
57680,2025-06-03 10:00:00,28.8565,113.1071,82,岳阳市,汨罗,汨罗市,997.1,27.0,60,38.6,21.395107071056287
57682,2025-06-03 10:00:00,28.7117,113.5717,106.9,岳阳市,平江,平江县,993.5,28.1,53,41.2,20.15658743829308
57687,2025-06-03 10:00:00,28.1086,112.7864,119,长沙市,长沙,岳麓区,992.5,27.3,60,43.791147003818544,21.77546052612966
57688,2025-06-03 10:00:00,28.1561,113.6308,102.6,长沙市,浏阳,浏阳市,993.9,28.2,59,54.5,22.56967799471712
57740,2025-06-03 10:00:00,27.9528,109.5953,353,湘西土家族苗族自治州,凤凰,凤凰县,967.0,27.6,50,41,18.46809285805948
57743,2025-06-03 10:00:00,27.8586,109.8139,176.8,怀化市,麻阳国家基本观测站,麻阳苗族自治县,983.9,27.9,53,47.7,19.92264427302671
57744,2025-06-03 10:00:00,27.3682,109.1635,353,怀化市,新晃,新晃侗族自治县,966.9,28.8,32,41.6,12.675863590610492
57745,2025-06-03 10:00:00,27.455,109.6811,272.9,怀化市,芷江,芷江侗族自治县,975.7,27.1,50,43.4,17.934367510286346
57749,2025-06-03 10:00:00,27.6069,110.0306,286.9,怀化市,怀化,鹤城区,974.0,26.8,56,33.709556084470904,19.735124950638443
57752,2025-06-03 10:00:00,27.9125,110.6008,207.4,怀化市,溆浦,溆浦县,982.7,29.5,38,39.5,15.674977169052058
57754,2025-06-03 10:00:00,27.2117,109.8353,252,怀化市,洪江,洪江市,977.6,28.2,51,34.754684040516715,19.509382673399543
57758,2025-06-03 10:00:00,27.0253,110.6067,342.2,邵阳市,洞口,洞口县,967.7,27.3,48,44.7,17.420368420903728
57760,2025-06-03 10:00:00,27.6964,111.4367,249.2,娄底市,冷水江,冷水江市,977.6,28.4,53,30.767985649360256,20.51200252524752
57761,2025-06-03 10:00:00,27.7467,111.2939,215.4,娄底市,新化,新化县,981.8,29.4,37,44.8,15.174587478362428
57762,2025-06-03 10:00:00,27.6961,111.7033,167.2,娄底市,涟源,涟源市,977.8,27.5,45,46.8,16.52422583379107
57763,2025-06-03 10:00:00,27.6911,112.0019,155.5,娄底市,娄底,娄底市,982.9,27.1,51,46.7,18.293054860492074
57765,2025-06-03 10:00:00,27.325,110.4072,1386.6,怀化市,雪峰山,洪江市,856.7,17.5,86,31.1424756545166,17.1878248751002
57766,2025-06-03 10:00:00,27.185,111.4536,311,邵阳市,邵阳,大祥区,971.0,27.1,48,28.36974098757877,17.216992809874892
57767,2025-06-03 10:00:00,27.1133,111.0325,310.8,邵阳市,隆回,隆回县,971.2,27.5,44,43.9,16.15702081526238
57768,2025-06-03 10:00:00,27.3411,111.4464,294.1,邵阳市,新邵,新邵县,972.7,27.1,53,45.9,19.01042956090353
57769,2025-06-03 10:00:00,27.2375,111.7361,253.9,邵阳市,邵东,邵东市,972.0,26.3,51,46.9,17.4506044555117
57771,2025-06-03 10:00:00,27.8867,112.5925,127.6,湘潭市,韶山,韶山市,991.8,27.4,56,42.28667169849298,20.443314978584972
57772,2025-06-03 10:00:00,27.751,112.5059,86.9,湘潭市,湘乡,湘乡市,996.5,27.6,51,51.8,18.83745471522067
57773,2025-06-03 10:00:00,27.8756,112.8275,63.8,湘潭市,湘潭观测站,雨湖区,998.8,28.0,51,31.049418571902983,19.283116891045175
57774,2025-06-03 10:00:00,27.4486,112.1733,103.1,娄底市,双峰,双峰县,988.7,27.3,54,52.7,19.597914473516695
57776,2025-06-03 10:00:00,27.2961,112.6936,1265.9,衡阳市,南岳,南岳区,869.7,16.3,100,50.70220894011706,18.52053132228977
57777,2025-06-03 10:00:00,27.2581,112.8372,159.1,衡阳市,衡山,衡山县,988.2,25.9,68,46.92077820851583,22.72300307213442
57778,2025-06-03 10:00:00,27.0525,112.9847,112.4,衡阳市,衡东,衡东县,993.8,24.7,80,53.7,24.88927835215252
57779,2025-06-03 10:00:00,27.0556,113.3528,115.2,株洲市,攸县,攸县,993.0,24.7,82,52.6,25.51151031095633
57780,2025-06-03 10:00:00,27.8689,113.1736,74.6,株洲市,株洲,荷塘区,997.3,28.0,55,38.801361493368816,20.795518215833035
57781,2025-06-03 10:00:00,27.6406,113.5069,75.9,株洲市,醴陵,醴陵市,997.7,27.0,61,53.6,21.751692188907228
57841,2025-06-03 10:00:00,26.5619,109.6736,322.5,怀化市,靖州,靖州苗族侗族自治县,969.6,28.0,50,47.4,18.90501655984821
57842,2025-06-03 10:00:00,26.8767,109.7208,287.8,怀化市,会同,会同县,974.0,28.1,49,47.9,18.635335556157756
57845,2025-06-03 10:00:00,26.1589,109.7778,400.2,怀化市,通道,通道侗族自治县,960.8,27.4,45,46,16.427663822077207
57846,2025-06-03 10:00:00,26.5867,110.1419,382.7,邵阳市,绥宁,绥宁县,962.7,28.1,31,39.6,11.789702086548782
57851,2025-06-03 10:00:00,26.4418,110.8528,348.4,邵阳市,新宁,新宁县,966.9,26.9,62,46.8,21.978607244208703
57853,2025-06-03 10:00:00,26.7386,110.6371,340.1,邵阳市,武冈,武冈市,967.9,27.3,43,45,15.605746710392923
57857,2025-06-03 10:00:00,26.3726,110.311,479.1,邵阳市,城步,城步苗族自治县,952.4,27.2,39,41.4,14.071215960737504
57860,2025-06-03 10:00:00,27.0022,111.2884,288.5,邵阳市,邵阳县,邵阳县,966.0,27.1,47,47.9,16.858305459669165
57865,2025-06-03 10:00:00,26.4956,111.6161,192.8,永州市,冷水滩,冷水滩区,984.2,26.3,55,38.063605052316795,18.819279314767524
57866,2025-06-03 10:00:00,26.226,111.6167,173.4,永州市,永州,零陵区,986.6,26.2,60,49.9,20.409085150712055
57867,2025-06-03 10:00:00,26.4025,111.2892,174.9,永州市,东安,东安县,986.2,28.7,48,48.9,18.90374067279123
57868,2025-06-03 10:00:00,26.5494,111.8622,163.3,永州市,祁阳,祁阳市,987.4,26.2,62,41.29077611104626,21.089387989069124
57870,2025-06-03 10:00:00,26.7633,112.0825,218.9,衡阳市,祁东,祁东县,981.3,26.0,64,51.3,21.51347277690443
57871,2025-06-03 10:00:00,26.9742,112.3669,90.8,衡阳市,衡阳县,衡阳县,995.7,27.0,60,44.634885941836046,21.395107071056287
57872,2025-06-03 10:00:00,26.9775,112.5942,122.1,衡阳市,衡阳,石鼓区,992.6,25.5,66,55.6,21.53707314755727
57874,2025-06-03 10:00:00,26.4092,112.3939,119,衡阳市,常宁,常宁市,993.1,26.2,62,52.3,21.089387989069124
57875,2025-06-03 10:00:00,26.755,112.6914,137,衡阳市,衡南,衡南县,990.6,25.5,68,43.94843448406606,22.18971172778628
57876,2025-06-03 10:00:00,26.4278,112.8292,138,衡阳市,耒阳,耒阳市,991.0,25.1,65,53,20.711488772031174
57881,2025-06-03 10:00:00,26.7139,113.2586,104.8,郴州市,安仁,安仁县,984.4,24.1,76,58.8,22.80942227810694
57882,2025-06-03 10:00:00,26.7892,113.545,133.2,株洲市,茶陵,茶陵县,990.3,25.2,74,37.771576912803646,23.720222850426783
57886,2025-06-03 10:00:00,26.4778,113.7922,273.2,株洲市,炎陵,炎陵县,975.6,23.4,64,54.6,18.41478566441328
57887,2025-06-03 10:00:00,26.1192,113.1144,169.4,郴州市,永兴,永兴县,987.1,24.6,72,54,22.266710655879965
57889,2025-06-03 10:00:00,26.0797,113.9447,834.1,郴州市,桂东,桂东县,913.8,20.6,79,32.7769247875679,19.159623070855506
57962,2025-06-03 10:00:00,25.9617,111.6544,206.7,永州市,双牌,双牌县,982.8,26.7,57,49.6,19.969545993910955
57965,2025-06-03 10:00:00,25.5339,111.5958,192.7,永州市,道县,道县,984.1,26.4,63,52.6,21.684377359651602
57966,2025-06-03 10:00:00,25.5947,111.9594,243.1,永州市,宁远,宁远县,978.3,25.8,63,52,20.927710534748073
57969,2025-06-03 10:00:00,25.2758,111.3106,259.4,永州市,江永,江永县,975.2,25.8,68,41.70241370155885,22.588639942267765
57971,2025-06-03 10:00:00,25.9117,112.2067,227.4,永州市,新田,新田县,981.0,26.4,56,50.9,19.275002097468093
57972,2025-06-03 10:00:00,25.7356,112.9772,368.6,郴州市,郴州,北湖区,965.0,22.2,77,41.04169006221375,20.599538300865795
57973,2025-06-03 10:00:00,25.7494,112.7247,329.8,郴州市,桂阳,桂阳县,969.6,23.6,71,50.5,20.676994361808816
57974,2025-06-03 10:00:00,25.5814,112.3653,214.5,郴州市,嘉禾,嘉禾县,982.1,25.0,67,34.46207867066501,21.221777222454808
57975,2025-06-03 10:00:00,25.4006,112.1678,345.9,永州市,蓝山,蓝山县,967.2,24.2,74,49.87781658988875,22.34296884594869
57976,2025-06-03 10:00:00,25.4058,112.9406,225.2,郴州市,宜章,宜章县,980.5,24.7,69,54.1,21.467002578731545
57978,2025-06-03 10:00:00,25.2731,112.5461,295.7,郴州市,临武,临武县,972.9,24.6,70,50.5,21.64819091543885
57981,2025-06-03 10:00:00,25.9744,113.2169,142.2,郴州市,资兴,资兴市,990.3,24.5,77,55.2,23.67083655556401
57985,2025-06-03 10:00:00,25.5558,113.6881,648.2,郴州市,汝城,汝城县,934.2,20.9,90,52.5,22.234657832325297
59063,2025-06-03 10:00:00,25.1819,111.5703,265.7,永州市,江华,江华瑶族自治县,975.6,26.4,57,33.0693646199626,19.619198563494304
P1000,2025-06-03 10:00:00,29.5819,109.5853,523,湘西土家族苗族自治州,石牌,龙山县,944.3,24.4,72,47.750093296821994,22.00152319328112
P1001,2025-06-03 10:00:00,29.4103,109.5969,803.2,湘西土家族苗族自治州,茨岩塘,龙山县,918.7,22.9,69,36.2775096783538,19.261736257157562
P1003,2025-06-03 10:00:00,29.3381,109.4894,848,湘西土家族苗族自治州,茅坪,龙山县,911.6,22.6,70,35.66795576817949,19.188298520473378
P1006,2025-06-03 10:00:00,29.2897,109.4136,1224,湘西土家族苗族自治州,可立坡,龙山县,873.9,19.3,70,25.938148938850958,15.662381530944595
P1009,2025-06-03 10:00:00,28.8125,109.3497,330.2,湘西土家族苗族自治州,树木,龙山县,968.0,25.8,91,55.04977638932967,30.22891521685833
P1016,2025-06-03 10:00:00,28.2761,109.6769,243.7,湘西土家族苗族自治州,红枫林场,吉首市,976.5,26.5,68,41.606815687046335,23.543960867522838
P1018,2025-06-03 10:00:00,29.1372,109.3714,791.6,湘西土家族苗族自治州,喳啦坪,龙山县,916.8,22.9,82,45.950773088594026,22.890759030245217
P1021,2025-06-03 10:00:00,29.0394,109.3542,338,湘西土家族苗族自治州,咱果,龙山县,967.0,25.8,73,39.86500416482096,24.24956934978745
P1060,2025-06-03 10:00:00,29.1431,109.6892,372,湘西土家族苗族自治州,两岔,永顺县,963.0,26.4,81,47.96768303737027,27.87991374812349
P1062,2025-06-03 10:00:00,29.0975,109.7117,307.2,湘西土家族苗族自治州,首车,永顺县,967.7,27.2,66,45.87341918873596,23.812827010478856
P1063,2025-06-03 10:00:00,28.9867,109.6683,434.2,湘西土家族苗族自治州,西歧,永顺县,958.2,25.7,65,39.38799017462613,21.46431182801681
P1066,2025-06-03 10:00:00,28.8458,110.1953,845.2,湘西土家族苗族自治州,三合,永顺县,912.0,22.7,68,37.49754548659214,18.753627744839214
P1069,2025-06-03 10:00:00,29.0336,110.2889,352.2,湘西土家族苗族自治州,永茂,永顺县,960.1,25.5,61,35.51082994199423,19.90547669698475
P1070,2025-06-03 10:00:00,29.0189,110.1378,543.6,湘西土家族苗族自治州,五里,永顺县,945.8,25.6,62,36.78034348885206,20.352409317456356
P1073,2025-06-03 10:00:00,28.8172,110.1172,218.7,湘西土家族苗族自治州,长官,永顺县,978.2,27.7,55,39.15257815427111,20.43413678459568
P1074,2025-06-03 10:00:00,28.8608,109.9961,615.3,湘西土家族苗族自治州,马鞍,永顺县,944.0,24.7,59,35.338122565734515,18.355842784712483
P1075,2025-06-03 10:00:00,29.2,109.8333,561.1,湘西土家族苗族自治州,李家,永顺县,941.3,24.8,68,36.10656696770547,21.282764607427005
P1076,2025-06-03 10:00:00,29.2864,109.8842,447.4,湘西土家族苗族自治州,毛坝,永顺县,954.2,25.3,76,44.567113591181716,24.506867070689584
P1077,2025-06-03 10:00:00,29.2017,109.9564,405.1,湘西土家族苗族自治州,隆发,永顺县,958.7,25.9,65,41.776421198565224,21.72051764248143
P1083,2025-06-03 10:00:00,29.1953,109.7719,750.7,湘西土家族苗族自治州,岩门,永顺县,922.7,23.0,74,35.04491906631627,20.783087982529473
P1084,2025-06-03 10:00:00,29.0697,110.2394,416,湘西土家族苗族自治州,青坪,永顺县,958.9,25.4,83,48.838010813805774,26.92387270764132
P1086,2025-06-03 10:00:00,29.1339,110.1864,401.2,湘西土家族苗族自治州,柯溪,永顺县,960.5,27.6,59,43.12806493429458,21.792349572510187
P1089,2025-06-03 10:00:00,29.0811,109.9828,625.8,湘西土家族苗族自治州,天堂,永顺县,935.8,24.3,64,31.895103083516553,19.43997280902672
P1091,2025-06-03 10:00:00,28.7372,109.965,486.3,湘西土家族苗族自治州,新区,永顺县,949.7,26.2,62,38.286564492397815,21.089387989069124
P1093,2025-06-03 10:00:00,28.8628,109.7828,399.7,湘西土家族苗族自治州,西那司,永顺县,960.0,26.1,66,36.34213226530266,22.317539208047936
P1095,2025-06-03 10:00:00,29.2839,110.0114,435.2,湘西土家族苗族自治州,砂坝,永顺县,954.8,26.2,72,42.28967088879563,24.49090218085447
P1096,2025-06-03 10:00:00,28.9219,110.3042,576.2,湘西土家族苗族自治州,朗溪,永顺县,940.1,24.1,76,42.30114295700976,22.80942227810694
P1097,2025-06-03 10:00:00,28.8928,109.6961,441.7,湘西土家族苗族自治州,宝石,永顺县,953.1,25.4,69,38.82345634238638,22.38249658828013
P1098,2025-06-03 10:00:00,28.8408,109.2558,1225,湘西土家族苗族自治州,八面山景区,龙山县,872.6,18.5,70,26.81259161154353,14.898640208615927
P1099,2025-06-03 10:00:00,28.2106,109.5614,268.4,湘西土家族苗族自治州,黄石洞水库,吉首市,971.3,25.8,85,50.898209567690984,28.2357999278347
P1100,2025-06-03 10:00:00,28.4428,109.4178,544.4,湘西土家族苗族自治州,三塘,花垣县,946.8,25.1,63,40.52405700440957,20.074212194430213
P1101,2025-06-03 10:00:00,28.5158,109.5869,675.8,湘西土家族苗族自治州,排力,保靖县,929.1,24.6,79,49.90716208601427,24.43152974742385
P1103,2025-06-03 10:00:00,28.5381,109.7606,363,湘西土家族苗族自治州,葫芦,保靖县,964.6,27.1,63,47.597070631752985,22.597303062960798
P1104,2025-06-03 10:00:00,28.1497,109.3761,837.6,湘西土家族苗族自治州,两林,凤凰县,912.9,22.8,54,24.428863485334215,14.983252870451755
P1113,2025-06-03 10:00:00,28.61,109.3547,325.4,湘西土家族苗族自治州,毛沟,保靖县,968.0,26.0,73,52.33885281110893,24.538804886156612
P1127,2025-06-03 10:00:00,28.6269,109.5519,214.7,湘西土家族苗族自治州,复兴,保靖县,979.2,28.0,57,43.363315883132074,21.55171887822696
P1152,2025-06-03 10:00:00,28.5181,109.2814,301.4,湘西土家族苗族自治州,曲乐,花垣县,969.2,25.3,71,48.923375310431354,22.894573184460004
P1154,2025-06-03 10:00:00,28.4247,109.5,742.3,湘西土家族苗族自治州,排达鲁,花垣县,922.6,23.8,91,57.06077662465981,26.82285329511168
P1172,2025-06-03 10:00:00,28.4964,109.3892,520.6,湘西土家族苗族自治州,祥和,花垣县,946.8,25.6,65,45.78170398892312,21.337203316688118
P1173,2025-06-03 10:00:00,28.5092,109.4736,478.5,湘西土家族苗族自治州,兄弟河水库,花垣县,951.8,26.0,66,50.285248672424565,22.185768801182693
P1203,2025-06-03 10:00:00,28.6939,109.8253,382.8,湘西土家族苗族自治州,米多,古丈县,961.0,26.5,70,42.8792040220025,24.236430304802916
P1208,2025-06-03 10:00:00,28.4803,109.8911,271,湘西土家族苗族自治州,中寨,古丈县,973.0,27.3,63,37.525250204121,22.864233552436147
P1231,2025-06-03 10:00:00,28.3511,109.9481,345.4,湘西土家族苗族自治州,大坪,吉首市,964.7,26.1,64,39.39208143036984,21.64125014113739
P1232,2025-06-03 10:00:00,28.3381,109.5619,622.2,湘西土家族苗族自治州,排兄,吉首市,934.4,24.2,71,44.36285715172656,21.437172811653475
P1233,2025-06-03 10:00:00,28.2128,109.695,265.6,湘西土家族苗族自治州,周家寨,吉首市,973.8,27.2,47,37.542919709511445,16.957619234734942
P1236,2025-06-03 10:00:00,28.2122,109.8067,176.6,湘西土家族苗族自治州,河溪,吉首市,984.0,27.9,63,45.10806667633799,23.681633758503448
P1240,2025-06-03 10:00:00,28.3172,109.6519,388,湘西土家族苗族自治州,寨阳炮点,吉首市,960.5,27.6,55,37.084656486293206,20.314902143865428
P1241,2025-06-03 10:00:00,28.3233,109.5911,212.6,湘西土家族苗族自治州,矮寨,吉首市,979.6,28.3,62,42.78046973193243,23.85587725951968
P1246,2025-06-03 10:00:00,28.2561,109.6425,176.2,湘西土家族苗族自治州,八月湖水库,吉首市,982.0,26.6,77,51.10513067255082,26.817830935325865
P1248,2025-06-03 10:00:00,28.2953,109.7417,275.3,湘西土家族苗族自治州,镇溪,吉首市,974.6,27.6,54,40.82411047353966,19.94554028670424
P1291,2025-06-03 10:00:00,28.2233,110.0886,290.9,湘西土家族苗族自治州,大长坡,泸溪县,971.0,26.9,51,27.777704474928008,18.079176926687804
P1295,2025-06-03 10:00:00,28.0111,109.9969,235.1,湘西土家族苗族自治州,公羊,泸溪县,977.4,27.7,55,38.333323861563706,20.43413678459568
P1298,2025-06-03 10:00:00,28.1747,109.9475,213.8,湘西土家族苗族自治州,白羊溪,泸溪县,979.3,27.6,58,39.31662006047748,21.422987715348995
P1300,2025-06-03 10:00:00,28.1306,109.7322,140.2,湘西土家族苗族自治州,水卡,泸溪县,982.8,27.1,65,42.70054155993441,23.314677763372252
P1302,2025-06-03 10:00:00,28.11,109.89,383.2,湘西土家族苗族自治州,永兴场,泸溪县,961.9,25.7,58,32.424570177403254,19.152770554230383
P1303,2025-06-03 10:00:00,28.1264,109.8864,345,湘西土家族苗族自治州,小章,泸溪县,964.8,27.1,55,37.58636505218989,19.727804261314983
P1304,2025-06-03 10:00:00,28.2622,109.9231,150,湘西土家族苗族自治州,潭溪,泸溪县,989.7,26.6,70,39.272850986095825,24.379846304841692
P1306,2025-06-03 10:00:00,28.2403,110.0172,130,湘西土家族苗族自治州,甘溪,泸溪县,990.8,26.4,76,50.24516174389532,26.15893141799241
P1307,2025-06-03 10:00:00,28.3397,110.0339,230.1,湘西土家族苗族自治州,梁家潭,泸溪县,979.1,25.6,68,41.36199167294675,22.32199731591988
P1321,2025-06-03 10:00:00,28.0744,110.0911,139,湘西土家族苗族自治州,罗家,泸溪县,989.2,28.2,51,33.60283195403956,19.509382673399543
P1333,2025-06-03 10:00:00,27.9553,109.9908,172.6,湘西土家族苗族自治州,石榴坪,泸溪县,985.7,28.0,72,50.226409104026445,27.223223846181426
P1345,2025-06-03 10:00:00,28.0725,109.3836,799.3,湘西土家族苗族自治州,腊尔山,凤凰县,916.4,23.4,49,21.988042500339983,14.09882027431642
P1346,2025-06-03 10:00:00,28.1683,109.6061,226,湘西土家族苗族自治州,拉务,凤凰县,978.3,24.8,87,49.51609118006604,27.22941942420808
P1347,2025-06-03 10:00:00,28.0433,109.4572,605.5,湘西土家族苗族自治州,山江,凤凰县,937.4,24.5,62,40.06966297189384,19.059634629155433
P1348,2025-06-03 10:00:00,28.095,109.6017,337.4,湘西土家族苗族自治州,吉信,凤凰县,967.1,28.1,82,57.30414695026868,31.185663583774197
P1349,2025-06-03 10:00:00,27.9136,109.3144,673.9,湘西土家族苗族自治州,龙塘河水库,凤凰县,929.7,24.4,50,21.902891672819596,15.278835550889665
P1357,2025-06-03 10:00:00,27.9906,109.5111,378.5,湘西土家族苗族自治州,长潭岗水库,凤凰县,961.9,26.9,49,24.379651696388876,17.370189596229462
P1358,2025-06-03 10:00:00,28.0781,109.7528,401.4,湘西土家族苗族自治州,雷公洞,凤凰县,959.2,26.3,82,58.75814870962312,28.0578346147443
P1359,2025-06-03 10:00:00,27.8781,109.4486,427.3,湘西土家族苗族自治州,新场中学,凤凰县,958.8,26.8,56,40.854706718467604,19.735124950638443
P1367,2025-06-03 10:00:00,27.8942,109.5522,398.9,湘西土家族苗族自治州,林峰,凤凰县,960.0,29.6,82,54.99854784369799,34.02071891182742
P1368,2025-06-03 10:00:00,27.9197,109.6119,322,湘西土家族苗族自治州,古城,凤凰县,967.2,28.1,49,40.16661519955584,18.635335556157756
P1370,2025-06-03 10:00:00,28.2753,109.7925,162.3,湘西土家族苗族自治州,马鞍,吉首市,985.6,28.9,49,34.011703874415566,19.522834504741517
P1371,2025-06-03 10:00:00,28.1964,109.9825,359.9,湘西土家族苗族自治州,马入田,泸溪县,964.1,26.7,49,22.893532050195613,17.166802696519948
P1372,2025-06-03 10:00:00,28.755,109.85,433.1,湘西土家族苗族自治州,红石林,古丈县,957.0,26.0,59,39.2459651353329,19.83273271620877
P1373,2025-06-03 10:00:00,28.4178,109.9347,236,湘西土家族苗族自治州,坪坝学校,古丈县,979.3,27.3,59,41.384808699646655,21.4125361840275
P1374,2025-06-03 10:00:00,28.1769,109.4631,766.4,湘西土家族苗族自治州,大坪,凤凰县,920.0,23.7,82,44.650143922071884,24.024875909531296
P1375,2025-06-03 10:00:00,28.0228,109.5153,444,湘西土家族苗族自治州,建塘,凤凰县,954.7,25.9,53,27.46347166301484,17.71057592386947
P1376,2025-06-03 10:00:00,28.4506,109.8275,339.8,湘西土家族苗族自治州,团结,吉首市,966.7,27.0,66,40.769358296815106,23.53461777816192
P1383,2025-06-03 10:00:00,28.7953,110.2147,765.7,湘西土家族苗族自治州,竹坪,永顺县,920.1,23.1,69,40.035608872050354,19.49653742982278
P1385,2025-06-03 10:00:00,28.4478,109.7886,222.1,湘西土家族苗族自治州,冷寨河茶园,保靖县,979.4,27.7,65,44.56344455892535,24.149434381794897
P1386,2025-06-03 10:00:00,28.7764,109.7872,444.3,湘西土家族苗族自治州,友和,永顺县,954.8,24.6,80,51.914137725268716,24.740789617644406
P1387,2025-06-03 10:00:00,29.1019,109.9569,411.8,湘西土家族苗族自治州,颗砂,永顺县,958.3,26.2,62,38.555801834839,21.089387989069124
P1390,2025-06-03 10:00:00,29.5056,109.4525,526,湘西土家族苗族自治州,白泥,龙山县,946.8,24.6,69,41.74317780040319,21.338931045218295
P1393,2025-06-03 10:00:00,29.5736,109.7031,817.3,湘西土家族苗族自治州,乌鸦,龙山县,917.2,23.6,74,45.09030300826761,21.550670179913414
P1395,2025-06-03 10:00:00,29.1778,109.6242,590,湘西土家族苗族自治州,马蹄,龙山县,941.1,24.9,66,35.62534013167278,20.78059319903288
P1397,2025-06-03 10:00:00,28.9228,109.4531,327,湘西土家族苗族自治州,金星,龙山县,966.8,25.9,72,52.35079201724022,24.059650311671735
P1400,2025-06-03 10:00:00,28.3761,109.6114,780.8,湘西土家族苗族自治州,排料,花垣县,920.7,23.3,69,37.7080286139228,19.733842359509193
P1414,2025-06-03 10:00:00,28.9036,110.0658,714.9,湘西土家族苗族自治州,花桥,永顺县,926.1,23.5,64,34.32440885860846,18.52630600582648
P1415,2025-06-03 10:00:00,28.4339,109.7911,219,湘西土家族苗族自治州,隘口,吉首市,979.1,27.5,64,42.760502825334214,23.50112118583619
P1416,2025-06-03 10:00:00,29.4122,109.9217,352.6,湘西土家族苗族自治州,万民,永顺县,963.3,25.4,76,49.679218150217764,24.653184647960728
P1418,2025-06-03 10:00:00,27.8297,109.6186,448.7,湘西土家族苗族自治州,水打田,凤凰县,953.5,25.6,54,27.66566360756047,17.726291986171667
P1421,2025-06-03 10:00:00,27.9817,109.3531,650.8,湘西土家族苗族自治州,麻冲,凤凰县,932.0,24.5,46,23.224088969342557,14.141019240986292
P1422,2025-06-03 10:00:00,28.1561,109.7278,172.8,湘西土家族苗族自治州,大兴,吉首市,984.7,26.4,59,37.91482284898317,20.30759149554674
P1423,2025-06-03 10:00:00,28.3494,109.7561,174.4,湘西土家族苗族自治州,峒河,吉首市,984.3,27.8,65,41.501094847125025,24.29107031951446
P1424,2025-06-03 10:00:00,28.3158,109.8158,272.3,湘西土家族苗族自治州,深坳,吉首市,973.6,27.5,68,44.65446150206616,24.969941259950957
P1425,2025-06-03 10:00:00,28.3147,109.6806,262.5,湘西土家族苗族自治州,曙光,吉首市,974.6,29.4,52,38.546575249127734,21.326447266887737
P1438,2025-06-03 10:00:00,28.2097,109.6703,261.4,湘西土家族苗族自治州,高新区,吉首市,973.8,28.5,48,41.19050017706529,18.685299331032553
P1439,2025-06-03 10:00:00,28.2308,109.5711,667.8,湘西土家族苗族自治州,十八湾,吉首市,930.6,24.5,57,26.008349715789123,17.522567320352575
P1440,2025-06-03 10:00:00,28.2758,109.8289,166.4,湘西土家族苗族自治州,司马,吉首市,984.2,26.9,69,44.184413613828646,24.46006290081291
P1441,2025-06-03 10:00:00,28.3139,109.7672,227,湘西土家族苗族自治州,望江坳,吉首市,977.8,26.8,68,43.41619121731595,23.964080297203825
P1442,2025-06-03 10:00:00,28.1961,109.8253,365.1,湘西土家族苗族自治州,楠木,吉首市,963.2,26.3,54,30.29886115570184,18.47711059995357
P1443,2025-06-03 10:00:00,28.3708,109.8458,446.9,湘西土家族苗族自治州,檀木,吉首市,953.4,25.8,60,38.57741988525289,19.93115289023626
P1444,2025-06-03 10:00:00,28.3614,109.6964,195.1,湘西土家族苗族自治州,龙舞,吉首市,981.0,27.7,68,49.68300219156306,25.264023660954663
P1446,2025-06-03 10:00:00,28.8114,109.7364,295.3,湘西土家族苗族自治州,柏杨,永顺县,974.5,25.3,77,47.07856432076802,24.829325847935497
P1450,2025-06-03 10:00:00,29.1842,109.8922,440,湘西土家族苗族自治州,廻龙,永顺县,954.9,24.2,78,43.63108861797149,23.550696891675646
P1451,2025-06-03 10:00:00,28.9425,110.0286,559.4,湘西土家族苗族自治州,铜瓦,永顺县,942.1,24.6,61,34.89797791230537,18.864852083453858
P1452,2025-06-03 10:00:00,29.3308,109.8131,454.2,湘西土家族苗族自治州,西库,永顺县,953.9,25.5,73,43.168695133940815,23.821308178358795
P1461,2025-06-03 10:00:00,28.7444,109.8122,359.8,湘西土家族苗族自治州,坐苦坝,古丈县,962.9,26.2,74,45.54114285312623,25.171205019211538
P1462,2025-06-03 10:00:00,28.5697,109.8733,687.3,湘西土家族苗族自治州,翁草,古丈县,928.0,24.7,81,43.12989578152263,25.200394331554428
P1463,2025-06-03 10:00:00,28.0042,109.8947,202.1,湘西土家族苗族自治州,晒洲田,泸溪县,981.1,27.4,68,50.10997061580004,24.8240253311389
P1472,2025-06-03 10:00:00,27.9958,109.8042,279.5,湘西土家族苗族自治州,踏虎,泸溪县,973.2,26.8,56,37.104266636629816,19.735124950638443
P1473,2025-06-03 10:00:00,28.1917,110.1078,325.8,湘西土家族苗族自治州,顺江田,泸溪县,967.7,26.8,60,38.07264767159853,21.1447767328269
P1479,2025-06-03 10:00:00,28.5933,109.8417,636.5,湘西土家族苗族自治州,排茹,古丈县,932.9,24.8,66,36.85993160211655,20.65680094250268
P1480,2025-06-03 10:00:00,29.1408,110.0103,392.3,湘西土家族苗族自治州,车坪,永顺县,959.9,25.1,87,48.402258226313705,27.721531125641725
P1484,2025-06-03 10:00:00,29.4811,109.4144,510,湘西土家族苗族自治州,华塘,龙山县,947.7,24.4,77,50.537769033952024,23.529406748370086
P1485,2025-06-03 10:00:00,28.9583,109.3989,254.1,湘西土家族苗族自治州,贾市,龙山县,975.6,26.3,82,56.29232592472323,28.0578346147443
P1486,2025-06-03 10:00:00,29.33,109.9081,442.7,湘西土家族苗族自治州,团结,永顺县,953.1,25.4,78,54.722637448695515,25.301952665012323
P1487,2025-06-03 10:00:00,29.2878,109.8228,539.5,湘西土家族苗族自治州,农林,永顺县,943.7,24.7,74,39.63769604955522,23.02258247574108
P1488,2025-06-03 10:00:00,28.9267,110.2083,345.3,湘西土家族苗族自治州,官坝,永顺县,967.1,25.3,63,34.84456780782499,20.31490296649268
P1489,2025-06-03 10:00:00,28.8511,110.3261,326.9,湘西土家族苗族自治州,楠木,永顺县,969.1,24.5,75,42.51314758760414,23.056009632042862
P1490,2025-06-03 10:00:00,29.2603,109.73,392.5,湘西土家族苗族自治州,新场,永顺县,959.6,24.5,85,46.940225511809686,26.13014424964858
P1501,2025-06-03 10:00:00,29.5308,110.0994,318.6,张家界市,凉水口,桑植县,971.2,25.2,97,62.655930512619086,31.092724547181053
P1503,2025-06-03 10:00:00,29.5092,110.2944,334.5,张家界市,芙蓉桥,桑植县,969.1,25.8,80,53.20653588421738,26.574870520315017
P1504,2025-06-03 10:00:00,29.7025,110.5811,1067.1,张家界市,人潮溪镇白石,桑植县,891.7,20.6,74,36.354620518039546,17.94698869928237
P1505,2025-06-03 10:00:00,29.67,109.8344,1053,张家界市,八大公山,桑植县,892.8,21.0,81,38.67695881911741,20.134689507893015
P1506,2025-06-03 10:00:00,29.6097,110.4733,538.8,张家界市,官地坪,桑植县,944.3,25.7,60,34.242892904543844,19.81321091816936
P1508,2025-06-03 10:00:00,29.4389,110.2358,290.4,张家界市,瑞塔铺,桑植县,973.7,27.0,79,53.08791848041291,28.170224310224114
P1509,2025-06-03 10:00:00,29.4633,110.4847,376,张家界市,走马坪,桑植县,962.9,25.9,76,53.3606724042065,25.396297551209056
P1510,2025-06-03 10:00:00,29.6764,110.1533,394,张家界市,龙潭坪,桑植县,959.5,26.0,76,57.52361223407736,25.54724892257401
P1511,2025-06-03 10:00:00,29.6558,110.0108,503.9,张家界市,桑植坪,桑植县,950.7,24.3,83,54.68877426182175,25.211214736706527
P1512,2025-06-03 10:00:00,29.7036,109.9156,438.1,张家界市,五道水,桑植县,960.8,24.8,86,62.63514640438203,26.916437591745915
P1513,2025-06-03 10:00:00,29.3911,110.0075,489.3,张家界市,廖家村,桑植县,952.8,25.3,88,57.91296218236568,28.37637239764057
P1514,2025-06-03 10:00:00,29.4925,109.9892,307.4,张家界市,陈家河,桑植县,969.5,25.6,90,57.193004453623445,29.543819976952776
P1515,2025-06-03 10:00:00,29.5467,109.8644,377.4,张家界市,河口,桑植县,964.3,24.6,80,51.9189207892305,24.740789617644406
P1516,2025-06-03 10:00:00,29.4869,110.1578,458.6,张家界市,洪家关,桑植县,955.4,25.5,87,58.17196610912748,28.389778239961856
P1517,2025-06-03 10:00:00,29.4761,110.2389,298,张家界市,刘家坪,桑植县,973.3,22.4,94,52.99701523207923,25.455663612032428
P1518,2025-06-03 10:00:00,29.6175,110.6047,271,张家界市,人潮溪,桑植县,978.8,24.9,81,47.8353247502679,25.50345528972217
P1521,2025-06-03 10:00:00,29.3569,110.0775,311.6,张家界市,利福塔,桑植县,971.6,27.3,70,50.77379168882473,25.40470394715127
P1522,2025-06-03 10:00:00,29.5875,110.0053,564.7,张家界市,沙塔坪,桑植县,943.3,24.7,85,61.02250251313788,26.44485824916205
P1523,2025-06-03 10:00:00,29.5469,110.3881,455,张家界市,马合口,桑植县,956.6,25.3,76,48.58010357240801,24.506867070689584
P1524,2025-06-03 10:00:00,29.4897,110.3567,490.6,张家界市,麦地坪,桑植县,952.4,24.8,78,49.14139830583079,24.412582932048622
P1526,2025-06-03 10:00:00,29.6494,110.0861,485.5,张家界市,苦竹坪,桑植县,953.3,25.8,75,49.18618800380766,24.91394111279532
P1527,2025-06-03 10:00:00,29.4667,109.8192,616.8,张家界市,上河溪,桑植县,939.9,23.9,87,62.664737812670275,25.798660588507524
P1528,2025-06-03 10:00:00,29.4292,110.3028,346.7,张家界市,空壳树,桑植县,968.0,26.6,69,43.46190717843104,24.031562786201096
P1529,2025-06-03 10:00:00,29.6306,110.3592,241.2,张家界市,淋溪河,桑植县,979.8,25.2,100,61.43322494899588,32.054355203279435
P1530,2025-06-03 10:00:00,29.4875,110.5503,375.6,张家界市,竹叶坪,桑植县,966.7,24.7,96,56.76964343987666,29.86713402258302
P1531,2025-06-03 10:00:00,29.6497,109.8639,644.8,张家界市,细砂坪,桑植县,935.7,23.9,98,65.31922375121664,29.060560203146405
P1532,2025-06-03 10:00:00,29.5192,110.1553,475,张家界市,桥自弯,桑植县,953.8,25.1,79,53.59542431697336,25.172424815237886
P1533,2025-06-03 10:00:00,29.3258,109.9839,385.8,张家界市,上洞街,桑植县,963.0,26.4,82,57.34643805145841,28.2241102141497
P1534,2025-06-03 10:00:00,29.77,110.0656,1327,张家界市,天平山,桑植县,866.2,18.1,90,38.50715040737577,18.68038067678164
P1537,2025-06-03 10:00:00,29.3897,110.1606,367.6,张家界市,澧源,桑植县,965.7,25.8,85,53.261452727902,28.2357999278347
P1538,2025-06-03 10:00:00,29.5481,110.4925,475.3,张家界市,分水岭,桑植县,953.3,25.1,76,49.48950388061878,24.21650994883645
P1540,2025-06-03 10:00:00,29.6375,110.275,795.2,张家界市,天星山林场,桑植县,920.3,23.7,87,60.51959216206345,25.48980736742955
P1542,2025-06-03 10:00:00,29.4267,110.1075,286.6,张家界市,洪家关乡南岔,桑植县,974.2,27.6,76,52.67691175558848,28.071501144250412
P1543,2025-06-03 10:00:00,29.465,109.91,626.7,张家界市,夹石河,桑植县,940.7,23.3,91,61.98360993954894,26.025792097323723
P1544,2025-06-03 10:00:00,29.7122,110.1894,786.9,张家界市,赶坪,桑植县,920.8,22.9,71,36.92227059052858,19.820047453017203
P1545,2025-06-03 10:00:00,29.5228,110.6036,838.8,张家界市,竹叶坪乡鸡公垭,桑植县,917.6,22.9,66,36.66227352763357,18.424269463368105
P1546,2025-06-03 10:00:00,29.7336,109.8025,681,张家界市,五道水镇连家湾,桑植县,932.5,21.2,89,47.29654764063109,22.396895403801842
P1547,2025-06-03 10:00:00,29.7419,110.0153,1127.8,张家界市,四门岩林场,桑植县,886.2,20.9,86,40.03976803175631,21.24645081755528
P1549,2025-06-03 10:00:00,29.5375,109.8092,631.2,张家界市,河口乡塘坊,桑植县,937.7,22.8,77,43.21345735525558,21.365008722681207
P1601,2025-06-03 10:00:00,29.3428,110.5597,450.3,张家界市,武陵源,武陵源区,956.6,26.6,64,43.6026439621388,22.29014519299812
P1602,2025-06-03 10:00:00,29.2456,110.5181,332.9,张家界市,协合,武陵源区,970.4,26.1,76,41.98094180187724,25.698984542600655
P1603,2025-06-03 10:00:00,29.3553,110.5294,375.4,张家界市,军地坪,武陵源区,966.0,24.3,88,45.58894842227451,26.72996261241174
P1604,2025-06-03 10:00:00,29.4078,110.4433,547,张家界市,天子山,武陵源区,947.4,24.4,75,42.335777837008074,22.918253326334497
P1605,2025-06-03 10:00:00,29.3589,110.3836,359.4,张家界市,中湖,武陵源区,961.5,25.3,78,53.092801964484735,25.151784625181413
P1606,2025-06-03 10:00:00,29.3664,110.5828,264.5,张家界市,索溪峪,武陵源区,974.5,26.2,75,42.29880057513495,25.51135643839007
P1607,2025-06-03 10:00:00,29.3031,110.4344,652.9,张家界市,锣鼓塔,武陵源区,934.8,23.3,99,39.986478174513444,28.313773820165366
P1610,2025-06-03 10:00:00,29.3897,110.4583,1087,张家界市,武陵源景区,武陵源区,887.8,20.5,74,36.33955345847295,17.836576915505308
P1702,2025-06-03 10:00:00,29.5033,110.7636,152.1,张家界市,江垭,慈利县,987.5,27.3,64,43.14263440869775,23.227157894538305
P1703,2025-06-03 10:00:00,29.2647,110.725,156.6,张家界市,阳和,慈利县,986.4,28.0,63,39.69561256430847,23.820320865408746
P1708,2025-06-03 10:00:00,29.3925,110.9825,170.4,张家界市,岩泊渡,慈利县,986.9,26.7,72,52.75043726685911,25.224689676519105
P1709,2025-06-03 10:00:00,29.4267,110.6156,352.4,张家界市,三官寺,慈利县,965.2,26.3,65,42.30587630572242,22.24096646290707
P1717,2025-06-03 10:00:00,29.1594,110.8261,840.7,张家界市,洞溪,慈利县,912.7,21.9,65,32.606384308232116,17.073810506191574
P1718,2025-06-03 10:00:00,29.4986,111.3256,102.8,张家界市,广福桥,慈利县,993.2,27.5,51,28.474746271353457,18.727455944963214
P1722,2025-06-03 10:00:00,29.5528,111.0339,179.4,张家界市,东岳观,慈利县,985.5,27.3,66,49.471940144360524,23.953006578742627
P1731,2025-06-03 10:00:00,29.4453,110.9283,589.6,张家界市,高峰,慈利县,941.7,24.3,66,30.68855191382771,20.047471959308805
P1732,2025-06-03 10:00:00,29.175,110.6789,239.8,张家界市,金岩,慈利县,979.4,25.9,72,47.16903523767559,24.059650311671735
P1733,2025-06-03 10:00:00,29.2819,110.9356,595.3,张家界市,赵家垭水库,慈利县,939.7,24.3,56,33.47984601458549,17.009976207898383
P1734,2025-06-03 10:00:00,29.6422,110.9561,395.1,张家界市,国太桥,慈利县,983.3,26.4,76,50.136070599844246,26.15893141799241
P1746,2025-06-03 10:00:00,29.4006,110.6997,614.9,张家界市,大峡谷,慈利县,938.9,21.1,100,43.1813398069501,25.010931987273324
P1801,2025-06-03 10:00:00,29.0119,110.4953,498.1,张家界市,天门山,永定区,948.7,25.7,66,42.483658180312744,21.7945320099863
P1802,2025-06-03 10:00:00,29.2275,110.6203,292,张家界市,合作桥,永定区,974.2,27.4,72,48.620120324863784,26.284262115323536
P1803,2025-06-03 10:00:00,29.0169,110.7228,372.2,张家界市,沅古坪,永定区,965.3,25.9,55,32.64973408456667,18.37889954363813
P1804,2025-06-03 10:00:00,29.2819,110.3253,386.9,张家界市,教字垭,永定区,944.1,26.8,65,41.56524928604722,22.90684146056248
P1805,2025-06-03 10:00:00,29.1869,110.3919,219.4,张家界市,尹家溪,永定区,979.1,28.1,61,42.43598995020704,23.199091202563736
P1806,2025-06-03 10:00:00,29.1486,110.5622,190.4,张家界市,阳湖坪,永定区,985.6,29.1,60,45.85752388377684,24.184155494154254
P1807,2025-06-03 10:00:00,29.165,110.2031,187.1,张家界市,茅岩河,永定区,982.1,27.9,74,53.55260694660265,27.81652219252786
P1808,2025-06-03 10:00:00,29.0464,110.8164,383.1,张家界市,王家坪,永定区,963.8,26.7,62,42.552881681801416,21.72126055478034
P1809,2025-06-03 10:00:00,29.1167,110.3794,214,张家界市,枫香岗,永定区,982.3,26.7,79,52.33786612078256,27.677090061736237
P1810,2025-06-03 10:00:00,29.1853,110.1164,336.1,张家界市,罗塔坪,永定区,965.2,25.5,83,50.480211891356774,27.084501079503838
P1811,2025-06-03 10:00:00,29.2661,110.2558,369.4,张家界市,罗水,永定区,965.4,26.5,74,48.3333209530905,25.621369179363086
P1812,2025-06-03 10:00:00,29.0867,110.3375,162,张家界市,后坪,永定区,985.6,27.3,66,45.92562905147387,23.953006578742627
P1813,2025-06-03 10:00:00,29.1603,110.4053,173.8,张家界市,大庸桥,永定区,986.4,28.5,60,38.40665314850553,23.356624163790688
P1814,2025-06-03 10:00:00,29.3397,110.3097,504.2,张家界市,桥头,永定区,948.9,25.6,76,48.40460510465186,24.94811464720457
P1815,2025-06-03 10:00:00,28.9797,110.6728,392,张家界市,和平岗,永定区,971.3,27.0,60,38.33259045865396,21.395107071056287
P1816,2025-06-03 10:00:00,29.0183,110.6217,602.7,张家界市,谢家垭,永定区,937.8,24.7,66,32.44036824584308,20.53365464052583
P1817,2025-06-03 10:00:00,29.1556,110.3086,407.4,张家界市,三家馆,永定区,959.3,27.2,73,49.0272054636259,26.33842987522661
P1818,2025-06-03 10:00:00,28.9306,110.4356,348.6,张家界市,四都坪,永定区,960.5,27.5,65,41.52860397165955,23.86832620436488
P1820,2025-06-03 10:00:00,29.2656,110.15,376.2,张家界市,青安,永定区,962.0,26.6,77,52.92898214899173,26.817830935325865
P1821,2025-06-03 10:00:00,29.0967,110.4478,203.4,张家界市,南庄坪,永定区,983.4,28.2,66,52.38048120003598,25.24743640087
P1822,2025-06-03 10:00:00,29.1864,110.5069,252.8,张家界市,新桥,永定区,978.1,28.2,64,42.249551191397444,24.482362570540605
P1824,2025-06-03 10:00:00,29.1114,110.5189,253.3,张家界市,西溪坪,永定区,977.9,28.6,57,40.84662986524795,22.31816330325095
P1826,2025-06-03 10:00:00,28.9906,110.8103,220.9,张家界市,马头溪,永定区,982.5,25.7,74,50.277702940347474,24.436293465742214
P1851,2025-06-03 10:00:00,29.3461,110.3644,468,张家界市,小溪峪水库,永定区,955.9,23.8,95,66.28230736061543,28.001879813578125
P1852,2025-06-03 10:00:00,29.0808,110.4783,255,张家界市,官黎坪,永定区,975.6,26.5,67,39.36817060004019,23.197726148882793
P1856,2025-06-03 10:00:00,29.1397,110.4892,186.8,张家界市,崇文,永定区,983.6,27.9,66,51.29475906574874,24.80933060414647
P1857,2025-06-03 10:00:00,29.2292,110.4403,248,张家界市,沙堤,永定区,975.9,26.7,74,44.63405237925125,25.925375500866856
P1858,2025-06-03 10:00:00,28.9697,110.4528,892.5,张家界市,姚家界,永定区,908.8,23.5,66,35.98479228100805,19.10525306850856
P1904,2025-06-03 10:00:00,29.9367,110.7842,285,常德市,壶瓶山,石门县,978.4,24.3,89,50.6215843877343,27.033712187552783
P1909,2025-06-03 10:00:00,29.8836,110.5408,1123,常德市,南北,石门县,886.2,20.5,69,28.670887835926482,16.631402799592788
P1910,2025-06-03 10:00:00,29.9258,110.6756,1469,常德市,东山峰,石门县,847.8,18.3,62,24.314922877338457,13.031420461473429
P1913,2025-06-03 10:00:00,29.7033,112.0272,38,常德市,青龙窖,澧县,1002.6,27.2,56,40.36022389570669,20.20482291798206
P1914,2025-06-03 10:00:00,29.8247,111.5922,99,常德市,金罗,澧县,995.0,27.8,54,29.392108795194293,20.18027380390432
P1920,2025-06-03 10:00:00,29.9772,111.0706,274,常德市,太平,石门县,975.3,27.4,47,30.876599201415466,17.15778221416953
P1931,2025-06-03 10:00:00,29.7106,111.5417,76,常德市,官亭水库,临澧县,997.6,28.3,60,38.67736794524231,23.086332831793236
P1933,2025-06-03 10:00:00,29.6758,111.6553,26.1,常德市,城头山,澧县,1001.7,27.4,75,48.448034664463975,27.379439703462012
P1940,2025-06-03 10:00:00,29.6808,111.1444,717.7,常德市,白云山林场,石门县,927.6,22.5,63,30.943658489508785,17.16481157226154
P1950,2025-06-03 10:00:00,29.5639,111.6178,55,常德市,停弦渡,临澧县,998.4,28.1,63,40.69662950429715,23.959717143631398
P1953,2025-06-03 10:00:00,29.5764,112.105,30,常德市,水管站,安乡县,1003.2,26.5,72,47.37981408397474,24.928899742083004
P1960,2025-06-03 10:00:00,29.5481,111.6556,70,常德市,水阁,临澧县,996.3,27.7,61,33.542564765266604,22.663315342915208
P1968,2025-06-03 10:00:00,29.5453,112.1906,41,常德市,安全,安乡县,1002.8,27.5,61,29.605607362662507,22.399506130250117
P1973,2025-06-03 10:00:00,29.4153,111.3825,100.9,常德市,蒙泉水库,石门县,995.1,27.7,73,43.29411378203653,27.121672459554265
P1979,2025-06-03 10:00:00,29.4189,111.9708,48.8,常德市,毛里湖,津市市,1002.6,27.7,60,30.72387472174731,22.291785583195285
P1981,2025-06-03 10:00:00,29.3769,111.5444,83,常德市,文家店,临澧县,997.0,27.8,59,34.591116627629305,22.0488176746362
P1985,2025-06-03 10:00:00,29.3478,111.7061,89,常德市,四新岗,临澧县,996.5,27.4,59,39.25621576316583,21.538492566723452
P1993,2025-06-03 10:00:00,29.28,112.1528,31,常德市,下渔口,安乡县,1003.2,27.8,71,48.67548508488651,26.533322964392717
P1999,2025-06-03 10:00:00,29.2581,111.5381,83.6,常德市,王家垱水库,桃源县,995.2,27.7,64,42.30841890750141,23.777904622074974
P2002,2025-06-03 10:00:00,29.1975,111.1814,98.5,常德市,黄石水库,桃源县,993.7,27.8,63,42.28110654570096,23.543652771221705
P2005,2025-06-03 10:00:00,29.1881,111.6328,20.4,常德市,蔡家岗,鼎城区,1002.2,28.2,59,43.97783480222337,22.56967799471712
P2025,2025-06-03 10:00:00,29.0611,110.9786,173.8,常德市,牛车河,桃源县,983.1,26.6,77,56.10169400949146,26.817830935325865
P2027,2025-06-03 10:00:00,29.0508,111.9961,27,常德市,罐头嘴,汉寿县,1003.2,27.4,62,40.324283469870934,22.63367015486193
P2028,2025-06-03 10:00:00,29.0361,111.6239,36,常德市,农科院,武陵区,1002.5,28.4,56,41.88388836436814,21.673059271959648
P2029,2025-06-03 10:00:00,29.0325,111.7306,29,常德市,东江,武陵区,1003.0,28.7,64,42.90321530563948,25.20498756372164
P2030,2025-06-03 10:00:00,29.0528,111.6778,51,常德市,文理学院,武陵区,1002.8,28.5,52,29.277767825330557,20.2424076086186
P2042,2025-06-03 10:00:00,28.9864,111.7983,28,常德市,观音寺电排,武陵区,1003.0,28.2,66,45.28881202897242,25.24743640087
P2043,2025-06-03 10:00:00,28.8669,111.475,48.7,常德市,新桥电排,桃源县,1001.6,28.4,58,40.801003198100794,22.447097103101058
P2044,2025-06-03 10:00:00,28.9611,111.7544,50,常德市,伍家嘴,武陵区,1002.5,28.4,66,40.446883823618116,25.543248427666725
P2047,2025-06-03 10:00:00,28.945,110.9653,371.5,常德市,观音寺,桃源县,963.4,25.0,74,43.31474951067923,23.43897782778591
P2049,2025-06-03 10:00:00,28.91,111.7369,40,常德市,市二中,武陵区,1000.3,28.2,64,43.86191441022639,24.482362570540605
P2054,2025-06-03 10:00:00,28.8933,111.8183,55,常德市,聂家桥,汉寿县,1002.9,28.2,53,29.263190094569232,20.27445650372894
P2074,2025-06-03 10:00:00,28.7228,111.7731,86,常德市,江东市水库,汉寿县,996.5,26.5,62,38.124575968716435,21.466552555682586
P2075,2025-06-03 10:00:00,28.6942,112.1417,95,常德市,军山铺,汉寿县,995.9,27.6,57,29.388770031517364,21.053625858187807
P2076,2025-06-03 10:00:00,28.7069,111.5464,120,常德市,花岩溪,鼎城区,992.2,28.0,59,40.550962732589454,22.30791954062089
P2083,2025-06-03 10:00:00,28.6486,111.3175,56.6,常德市,沙坪,桃源县,998.5,28.4,57,44.02183002452517,22.06007818753035
P2089,2025-06-03 10:00:00,29.8928,111.0164,418,常德市,里山河水库,石门县,958.0,24.2,100,54.90707277041051,30.193201143173905
P2090,2025-06-03 10:00:00,29.8706,111.8003,100,常德市,盐井,澧县,995.5,27.7,46,32.784590548722704,17.09036894711639
P2091,2025-06-03 10:00:00,29.2086,111.9756,30,常德市,南湖,武陵区,1003.0,27.6,63,33.40891825304512,23.269797001154945
P2092,2025-06-03 10:00:00,29.0175,112.0069,38,常德市,洲口,汉寿县,1002.9,27.3,64,40.21584896446043,23.227157894538305
P2093,2025-06-03 10:00:00,28.7522,111.33,58,常德市,剪市,桃源县,1000.6,28.2,64,47.36390640740947,24.482362570540605
P2106,2025-06-03 10:00:00,29.1533,112.1192,31,常德市,十美堂,鼎城区,1003.3,28.1,60,28.738110137521886,22.818778232029903
P2107,2025-06-03 10:00:00,29.7494,110.8531,213.4,常德市,南岳寺,石门县,982.9,25.4,78,39.75600320580995,25.301952665012323
P2122,2025-06-03 10:00:00,29.8147,111.1167,583,常德市,大同山林场,石门县,940.1,24.0,67,38.33076306137386,19.98780384228158
P2127,2025-06-03 10:00:00,29.8519,111.3928,228,常德市,芦茅,澧县,981.1,27.1,56,32.4490400373525,20.08649161152071
P2128,2025-06-03 10:00:00,29.7669,111.5272,83,常德市,王家厂水库,澧县,997.0,28.9,48,33.28030666877634,19.1244093107672
P2130,2025-06-03 10:00:00,29.3072,111.765,56,常德市,鳌山小学,临澧县,998.7,27.7,66,43.69344079579915,24.520964141514817
P2135,2025-06-03 10:00:00,29.0197,111.5692,36,常德市,木塘垸,桃源县,1002.5,28.7,55,40.06058478613524,21.660536187573285
P2137,2025-06-03 10:00:00,28.7575,111.2289,73.4,常德市,凌津滩,桃源县,998.4,27.6,62,40.597887255337966,22.900435143993754
P2139,2025-06-03 10:00:00,28.7408,112.1842,73,常德市,赤港湾水库,汉寿县,998.0,28.3,57,37.68624280210625,21.932016190203576
P2140,2025-06-03 10:00:00,28.6681,111.9919,60,常德市,斋家冲水库,汉寿县,999.3,26.8,59,27.726132407929825,20.792363787279786
P2147,2025-06-03 10:00:00,28.85,111.65,56.3,常德市,草坪,鼎城区,1001.7,29.0,59,42.264414266546794,23.643739705580376
P2198,2025-06-03 10:00:00,28.6514,111.2442,114.3,常德市,杨溪桥,桃源县,994.4,28.3,62,40.73100733426381,23.85587725951968
P2203,2025-06-03 10:00:00,29.5131,111.7992,50,常德市,庹家峪水库,津市市,997.2,27.4,38,18.748822623188342,13.872249449754088
P2600,2025-06-03 10:00:00,29.4164,112.3169,34,益阳市,红堰湖,南县,1003.0,27.6,76,45.022877578888135,28.071501144250412
P2604,2025-06-03 10:00:00,29.2914,112.2467,35.5,益阳市,同跃,南县,1003.0,28.0,69,44.20441347011761,26.08892285259053
P2607,2025-06-03 10:00:00,29.2764,112.3436,32,益阳市,同湖,南县,1003.1,28.1,63,33.68844231905811,23.959717143631398
P2608,2025-06-03 10:00:00,29.1864,112.3614,34,益阳市,咸嘉垸,南县,1002.5,28.1,42,25.11137345458549,15.973144762420931
P2609,2025-06-03 10:00:00,29.1058,112.3444,26.8,益阳市,同春,南县,1003.1,28.0,62,38.01219982600485,23.44222053421178
P2614,2025-06-03 10:00:00,29.2403,112.4053,30,益阳市,青树嘴,南县,1003.0,27.9,58,28.8212587449252,21.802139015765075
P2615,2025-06-03 10:00:00,29.3075,112.2731,31,益阳市,六百弓,南县,1003.2,28.3,61,28.774374464847433,23.471105045656458
P2617,2025-06-03 10:00:00,29.295,112.5342,35,益阳市,大木桥,南县,1002.8,27.8,57,39.06681944022107,21.301400126343445
P2619,2025-06-03 10:00:00,29.2919,112.6567,31,益阳市,华东,南县,1003.2,27.6,63,41.60721079729737,23.269797001154945
P2631,2025-06-03 10:00:00,29.3522,112.4061,32.5,益阳市,一中,南县,1003.0,27.9,29,14.089770256783114,10.901069507882537
P2650,2025-06-03 10:00:00,29.1853,112.6258,33.9,益阳市,河坝,大通湖区,1003.1,27.6,60,43.97499178127791,22.161711429671374
P2652,2025-06-03 10:00:00,29.2256,112.5492,36,益阳市,沙堡州,大通湖区,1003.1,27.9,57,40.76993008836237,21.426240067217403
P2653,2025-06-03 10:00:00,29.1128,112.6697,33,益阳市,金盆,大通湖区,1003.3,27.8,62,31.10736652700707,23.16994399707533
P2654,2025-06-03 10:00:00,29.1294,112.4258,31,益阳市,千山红,大通湖区,1003.3,27.8,67,39.511213752286494,25.03848786780721
P2660,2025-06-03 10:00:00,29.0058,112.4864,34,益阳市,新村,沅江市,1003.3,26.9,70,47.94186335419956,24.814556566042082
P2667,2025-06-03 10:00:00,28.8325,112.3867,32,益阳市,城区水管站,沅江市,1003.2,28.1,55,31.933152338181458,20.917213379360746
P2673,2025-06-03 10:00:00,29.0719,112.4425,31,益阳市,乐安,沅江市,1003.4,28.1,57,29.571911894413052,21.677839320428408
P2674,2025-06-03 10:00:00,29.0364,112.2967,35,益阳市,南嘴,沅江市,999.7,28.6,61,40.39880772638209,23.884350201724704
P2677,2025-06-03 10:00:00,29.0789,112.6986,42.9,益阳市,石东港,沅江市,1002.9,27.4,64,29.89403983374765,23.363788546954254
P2680,2025-06-03 10:00:00,28.9883,112.8406,30,益阳市,漉湖芦苇场,沅江市,1003.1,28.6,64,41.777484634483784,25.05899037558002
P2682,2025-06-03 10:00:00,28.9406,112.5828,32,益阳市,双洲,沅江市,1003.3,28.6,48,22.702448787713106,18.794242781685014
P2684,2025-06-03 10:00:00,29.1172,112.5633,41,益阳市,四季红,沅江市,1003.3,28.0,57,29.30587952969142,21.55171887822696
P2686,2025-06-03 10:00:00,28.7569,112.3478,46,益阳市,三眼塘,沅江市,1002.5,28.6,58,43.736656502803946,22.709710027869388
P2687,2025-06-03 10:00:00,28.9481,112.3022,62,益阳市,新湾,沅江市,997.3,27.5,57,33.8686864636624,20.930686056135354
P2720,2025-06-03 10:00:00,28.6861,112.2436,45,益阳市,新塘,资阳区,998.7,28.9,43,29.272752473712753,17.132283340895615
P2721,2025-06-03 10:00:00,28.6033,112.2003,64.7,益阳市,新桥河,资阳区,1000.9,29.3,54,21.757056834219387,22.019068358722752
P2725,2025-06-03 10:00:00,28.6278,112.3161,49.2,益阳市,长春,资阳区,1001.5,28.8,48,33.310730164473405,19.01379538591574
P2726,2025-06-03 10:00:00,28.7667,112.4547,55,益阳市,张家塞,资阳区,1002.4,28.0,60,42.60076081687725,22.68601987181785
P2729,2025-06-03 10:00:00,28.8019,112.5844,38.9,益阳市,茈湖口,资阳区,1002.5,28.0,12,10.22521093516575,4.537203974363571
P2730,2025-06-03 10:00:00,28.6058,112.3467,31.5,益阳市,体育公园,资阳区,1002.8,28.5,48,34.33110598675615,18.685299331032553
P2731,2025-06-03 10:00:00,28.6103,112.1164,70,益阳市,蓼园,资阳区,998.7,29.4,51,35.09366163924847,20.91632328098605
P2760,2025-06-03 10:00:00,28.5892,112.2936,36,益阳市,会龙山,赫山区,1001.9,28.3,58,40.225392524123514,22.316788404066795
P2761,2025-06-03 10:00:00,28.4789,112.2547,73,益阳市,自搭桥,赫山区,997.9,29.0,46,36.216824673937424,18.434102143333853
P2764,2025-06-03 10:00:00,28.4839,112.5231,58,益阳市,新安山,赫山区,1002.7,28.6,54,42.798336487838704,21.143523129395643
P2768,2025-06-03 10:00:00,28.5881,112.4486,36,益阳市,兰溪,赫山区,1002.9,28.3,1,5.624654472781142,0.38477221386322064
P2769,2025-06-03 10:00:00,28.5042,112.395,46,益阳市,龙岭工业园,赫山区,1001.4,28.4,51,33.98726712386359,19.737964694106104
P2771,2025-06-03 10:00:00,28.3992,112.2811,53.1,益阳市,泥江口,赫山区,998.1,30.7,62,42.041958875447364,27.401234139976868
P2773,2025-06-03 10:00:00,28.4111,112.4353,55.7,益阳市,鱼形山水库,赫山区,999.5,27.6,58,37.81543414859341,21.422987715348995
P2774,2025-06-03 10:00:00,28.3506,112.4547,58,益阳市,朱公塘水库,赫山区,997.2,28.2,62,36.217755413690654,23.71728874021121
P2775,2025-06-03 10:00:00,28.6003,112.3694,46,益阳市,团洲,赫山区,1002.6,28.3,50,33.12164550798082,19.238610693161032
P2776,2025-06-03 10:00:00,28.4928,112.4283,44,益阳市,金山,赫山区,1000.3,29.2,54,31.776865999689516,21.89208417225952
P2777,2025-06-03 10:00:00,28.5083,112.4903,43,益阳市,笔架山,赫山区,1002.9,28.3,53,43.35764666780984,20.392927334750695
P2778,2025-06-03 10:00:00,28.3297,112.4097,80,益阳市,岳家桥,赫山区,997.1,27.7,40,14.832959255607468,14.86119038879686
P2780,2025-06-03 10:00:00,28.6306,112.5744,42,益阳市,八字哨,赫山区,1002.1,29.2,52,33.74347904739965,21.08126623995361
P2781,2025-06-03 10:00:00,28.4825,112.5644,39.7,益阳市,新和电排,赫山区,1002.8,28.5,54,43.70586112178805,21.020961747411622
P2782,2025-06-03 10:00:00,28.4753,112.5931,30,益阳市,红洲垸电排,赫山区,1002.3,27.6,58,39.11483956880124,21.422987715348995
P2784,2025-06-03 10:00:00,28.5456,112.6806,40,益阳市,流水口,赫山区,1002.4,27.7,58,43.50543449559487,21.548726063755442
P2789,2025-06-03 10:00:00,28.5414,112.4306,31,益阳市,大丰电排,赫山区,1002.5,27.1,66,42.54274814351791,23.673365113577976
P2820,2025-06-03 10:00:00,28.5617,112.3283,114.6,益阳市,市政府,赫山区,995.6,27.5,51,34.40902693547244,18.727455944963214
P2821,2025-06-03 10:00:00,28.5269,112.2589,56,益阳市,谢林港,赫山区,1001.1,27.5,61,24.49793014847138,22.399506130250117
P2823,2025-06-03 10:00:00,28.4403,112.4719,49,益阳市,管委会,赫山区,998.0,28.6,50,41.200336778280224,19.57733623092189
P2840,2025-06-03 10:00:00,28.6144,111.7447,112,益阳市,碧螺水库,桃江县,993.5,25.8,67,38.2932763341536,22.256454060763822
P2841,2025-06-03 10:00:00,28.5358,111.72,90.4,益阳市,武潭,桃江县,996.6,27.1,62,36.94021860078596,22.238615712755067
P2842,2025-06-03 10:00:00,28.4442,111.6533,55,益阳市,百乐,桃江县,998.1,29.9,60,48.589239269917556,25.327296002918697
P2843,2025-06-03 10:00:00,28.5608,111.8267,80.2,益阳市,鲊埠,桃江县,998.1,28.6,53,34.38352142494131,20.751976404777203
P2845,2025-06-03 10:00:00,28.435,111.7794,80.1,益阳市,沂溪河电站,桃江县,997.7,27.1,59,36.83118584085674,21.16255366213789
P2847,2025-06-03 10:00:00,28.4878,111.8461,68,益阳市,大栗港,桃江县,995.4,29.9,50,37.26541739482479,21.106080002432247
P2848,2025-06-03 10:00:00,28.4094,111.8381,92,益阳市,泗里河,桃江县,994.5,28.3,46,30.307050519279848,17.69952183770815
P2849,2025-06-03 10:00:00,28.5997,111.9967,82.7,益阳市,修山,桃江县,997.4,27.0,69,47.437882012438564,24.60437313171473
P2850,2025-06-03 10:00:00,28.5514,111.9658,33,益阳市,沾溪,桃江县,1000.7,29.5,51,33.43713014761801,21.0374693584646
P2851,2025-06-03 10:00:00,28.4717,111.9447,52.4,益阳市,鸬鹚渡,桃江县,998.6,28.8,52,33.95576633595263,20.59827833474205
P2852,2025-06-03 10:00:00,28.455,111.9333,124,益阳市,何家村,桃江县,995.3,29.1,53,37.990194339742935,21.362670686502927
P2853,2025-06-03 10:00:00,28.5383,112.0503,44,益阳市,水口山,桃江县,999.8,27.9,50,32.89450909784213,18.79494742738369
P2854,2025-06-03 10:00:00,28.3933,112.04,175,益阳市,罗溪,桃江县,984.6,27.6,67,49.225693948678625,24.747244429799704
P2855,2025-06-03 10:00:00,28.3203,112.0681,146,益阳市,松木塘,桃江县,990.2,26.7,58,34.40878987164887,20.31988890608483
P2857,2025-06-03 10:00:00,28.5158,112.1367,51.5,益阳市,曹家仑,桃江县,1001.2,29.1,50,31.405804245441722,20.153462911795213
P2858,2025-06-03 10:00:00,28.4433,111.9942,76,益阳市,高桥,桃江县,995.8,29.9,48,37.12629656316883,20.261836802334958
P2859,2025-06-03 10:00:00,28.3208,112.0717,105,益阳市,桃花江水库,桃江县,994.2,28.6,48,28.908925878275472,18.794242781685014
P2860,2025-06-03 10:00:00,28.5742,112.2017,64,益阳市,花果山,桃江县,1001.9,28.6,58,31.771439055594453,22.709710027869388
P2861,2025-06-03 10:00:00,28.4258,112.1567,71,益阳市,石牛江,桃江县,1000.1,29.4,45,38.804940890066725,18.455579365575925
P2862,2025-06-03 10:00:00,28.4056,112.1633,41,益阳市,牛田,桃江县,999.4,28.5,46,35.69508180875853,17.90674519223953
P2863,2025-06-03 10:00:00,28.2972,112.1433,176,益阳市,李家湾,桃江县,987.0,28.0,51,28.05091341315352,19.283116891045175
P2864,2025-06-03 10:00:00,28.2928,112.2267,114,益阳市,灰山港,桃江县,991.7,28.0,55,34.27744459612337,20.795518215833035
P2901,2025-06-03 10:00:00,28.2914,111.2853,271.2,益阳市,文溪,安化县,973.7,26.3,57,31.053538324827027,19.50361674439543
P2903,2025-06-03 10:00:00,28.4906,111.4861,143.3,益阳市,冷市,安化县,989.7,27.9,63,46.220720300143164,23.681633758503448
P2904,2025-06-03 10:00:00,28.3453,111.1011,195.9,益阳市,柘溪,安化县,983.4,27.5,64,41.17647626291867,23.50112118583619
P2905,2025-06-03 10:00:00,28.0603,111.7581,362,益阳市,清塘铺,安化县,966.3,27.7,53,45.13489048270793,19.691077265155837
P2907,2025-06-03 10:00:00,28.3919,111.4953,75.7,益阳市,小淹,安化县,996.5,29.8,52,45.014486267856334,21.824288980602976
P2908,2025-06-03 10:00:00,28.4631,111.3892,108.5,益阳市,龙塘,安化县,991.2,29.6,57,48.57716009457915,23.648548511880037
P2909,2025-06-03 10:00:00,28.2458,111.7108,158.9,益阳市,仙溪,安化县,990.0,28.8,47,28.94049300844194,18.617674648709162
P2910,2025-06-03 10:00:00,28.0986,111.5753,198.8,益阳市,乐安,安化县,981.9,29.1,55,44.4512509896593,22.168809202974735
P2911,2025-06-03 10:00:00,28.2603,111.7928,220.5,益阳市,九渡水,安化县,980.5,26.4,40,16.13442311329566,13.767858641048637
P2915,2025-06-03 10:00:00,28.0372,111.0864,221.9,益阳市,平口水厂,安化县,982.2,28.5,56,38.487703171477875,21.79951588620465
P2919,2025-06-03 10:00:00,28.3197,111.2906,148,益阳市,田庄,安化县,986.9,27.4,70,46.32025360213502,25.55414372323121
P2921,2025-06-03 10:00:00,28.2475,110.8294,272.4,益阳市,奎溪,安化县,975.1,28.5,47,32.36147294041698,18.29602226163604
P2925,2025-06-03 10:00:00,28.4467,111.2144,129.6,益阳市,红岩水库,安化县,989.4,27.4,59,43.55014981709448,21.538492566723452
P2926,2025-06-03 10:00:00,28.3411,111.6094,113.7,益阳市,滔溪,安化县,991.8,28.6,51,38.402704795348775,19.968882955540327
P2927,2025-06-03 10:00:00,28.1361,111.6633,188.7,益阳市,梅城,安化县,984.7,28.3,47,38.380932102962014,18.08429405157137
P2930,2025-06-03 10:00:00,28.0419,111.8275,307.3,益阳市,高明,安化县,971.6,27.6,36,22.521503898500203,13.297026857802825
P2931,2025-06-03 10:00:00,28.5319,111.6106,101.9,益阳市,羊角塘,安化县,995.2,28.4,53,33.208989252293556,20.51200252524752
P2936,2025-06-03 10:00:00,28.3739,111.4203,66.2,益阳市,红泥,安化县,996.7,28.7,50,35.588423044462104,19.691396534157533
P2954,2025-06-03 10:00:00,28.4353,111.2819,138,益阳市,马渡,安化县,989.3,29.2,60,47.597307871856884,24.32453796917724
P2956,2025-06-03 10:00:00,28.3475,111.4978,119.6,益阳市,大双,安化县,991.4,26.0,63,46.470746682475244,21.1773247647653
P3101,2025-06-03 10:00:00,28.4764,113.7175,320,岳阳市,白水水库,平江县,971.3,25.8,62,39.8665942761354,20.595524653244134
P3102,2025-06-03 10:00:00,28.7497,113.7131,142.9,岳阳市,童市,平江县,989.7,28.5,58,38.15996711683898,22.578070024997665
P3104,2025-06-03 10:00:00,28.6447,113.2828,77.1,岳阳市,向家,平江县,997.1,28.5,53,23.890589798992725,20.63168467801511
P3105,2025-06-03 10:00:00,28.9081,113.5981,148,岳阳市,大洲,平江县,989.2,27.4,60,42.57400314258871,21.90355176276961
P3106,2025-06-03 10:00:00,28.8419,113.6083,106.8,岳阳市,梅仙,平江县,993.3,28.5,53,38.18934474250069,20.63168467801511
P3109,2025-06-03 10:00:00,28.8483,113.9397,160,岳阳市,云洞水库,平江县,985.9,28.0,57,38.98307064932757,21.55171887822696
P3111,2025-06-03 10:00:00,28.7019,113.9439,130,岳阳市,长寿,平江县,991.1,28.8,43,28.724915099230735,17.03319169988285
P3112,2025-06-03 10:00:00,28.8733,113.5142,110,岳阳市,余坪,平江县,992.0,28.1,51,34.640780118440084,19.395961497225418
P3113,2025-06-03 10:00:00,29.0058,113.6906,183.8,岳阳市,板江,平江县,985.9,27.3,60,40.20186422109026,21.77546052612966
P3114,2025-06-03 10:00:00,29.0697,113.7783,177.6,岳阳市,上塔市,平江县,986.1,27.8,62,36.21942210939811,23.16994399707533
P3117,2025-06-03 10:00:00,28.9219,113.7825,384.5,岳阳市,大江洞水库,平江县,962.9,25.2,62,39.06897611233365,19.87370022603325
P3118,2025-06-03 10:00:00,28.9008,113.8356,274.8,岳阳市,虹桥正东,平江县,973.2,26.6,68,41.3865026380181,23.683279267560508
P3119,2025-06-03 10:00:00,28.9722,113.9222,360.2,岳阳市,石牛寨姜源,平江县,963.0,27.3,68,43.637253209315766,24.678855262946954
P3120,2025-06-03 10:00:00,28.5925,113.7253,100.8,岳阳市,三市,平江县,994.2,30.9,45,29.237949550437175,20.116758159143817
P3124,2025-06-03 10:00:00,28.5569,113.5975,130,岳阳市,秋湖水库,平江县,990.5,28.5,55,40.487442918508584,21.410238816808135
P3125,2025-06-03 10:00:00,28.6319,113.565,173.4,岳阳市,三阳,平江县,986.2,27.7,48,25.319361038061903,17.833428466556228
P3200,2025-06-03 10:00:00,28.8292,113.1581,32.8,岳阳市,罗江,汨罗市,1001.0,27.5,65,45.26004184119906,23.86832620436488
P3201,2025-06-03 10:00:00,28.5517,113.0753,638.8,岳阳市,玉池,汨罗市,933.6,22.2,74,35.11792162116995,19.796958886546346
P3204,2025-06-03 10:00:00,28.6881,113.1281,400,岳阳市,神鼎山,汨罗市,964.6,25.3,69,45.14741185470592,22.24965562996817
P3350,2025-06-03 10:00:00,29.3639,113.5269,71.1,岳阳市,忠防水库,临湘市,998.2,26.8,68,45.724894427474034,23.964080297203825
P3354,2025-06-03 10:00:00,29.5292,113.4131,286.7,岳阳市,荆竹山,临湘市,973.7,24.8,67,42.598099196982254,20.96978277496484
P3411,2025-06-03 10:00:00,29.4556,112.6736,24.7,岳阳市,钱粮湖,君山区,1002.2,27.7,58,37.43108448172371,21.548726063755442
P3413,2025-06-03 10:00:00,29.4875,112.7797,16.8,岳阳市,采桑湖,君山区,1003.5,27.5,64,41.624493853303676,23.50112118583619
P3510,2025-06-03 10:00:00,28.6403,113.8283,110,岳阳市,老丁源水库,平江县,992.7,29.6,45,21.92428985054361,18.669906719905292
P3511,2025-06-03 10:00:00,28.7119,113.4317,75.6,岳阳市,瓮江,平江县,997.1,28.2,47,29.969736989558736,17.97923501274076
P3512,2025-06-03 10:00:00,28.7497,113.2425,32,岳阳市,伍市,平江县,1000.0,27.3,57,34.98574131836822,20.686687499823176
P3513,2025-06-03 10:00:00,28.8106,114.0467,132.1,岳阳市,龙门,平江县,990.1,27.8,55,41.132367581842374,20.553982578050697
P3514,2025-06-03 10:00:00,28.8783,113.3742,115,岳阳市,兰家洞水库,汨罗市,993.6,27.6,63,42.575964749354426,23.269797001154945
P3518,2025-06-03 10:00:00,28.7714,113.0139,43.1,岳阳市,汨罗镇,汨罗市,999.9,27.5,74,45.616204052463736,27.173171371123093
P3520,2025-06-03 10:00:00,28.9992,112.9692,32.8,岳阳市,磊石山,汨罗市,1001.9,27.7,65,46.916644737919384,24.149434381794897
P3521,2025-06-03 10:00:00,29.7411,113.4411,53,岳阳市,谷花,临湘市,1002.5,26.6,69,41.4730325244114,24.031562786201096
P3523,2025-06-03 10:00:00,29.2331,113.3939,96.7,岳阳市,白羊田,临湘市,994.7,28.1,53,37.919021603880054,20.15658743829308
P3525,2025-06-03 10:00:00,29.3758,112.7408,38.6,岳阳市,良心堡,君山区,1003.0,27.6,61,43.853376249153214,22.531073286832566
P3526,2025-06-03 10:00:00,28.9444,113.7353,183.1,岳阳市,南江,平江县,985.7,27.1,57,40.03450088506565,20.445178961726434
P3528,2025-06-03 10:00:00,29.6497,113.6189,16.2,岳阳市,定湖,临湘市,1002.0,27.4,78,50.012185378370916,28.474617291600495
P3529,2025-06-03 10:00:00,28.7086,112.7744,37,岳阳市,杨林寨,湘阴县,1002.2,28.3,54,33.14071955063432,20.777699548613917
P3531,2025-06-03 10:00:00,29.5717,112.5108,11,岳阳市,涛湖,华容县,1002.8,27.3,70,42.99915331414908,25.40470394715127
P3532,2025-06-03 10:00:00,29.6311,112.7356,37,岳阳市,东山水库,华容县,1000.5,27.8,31,15.755273580808192,11.584971998537664
P3534,2025-06-03 10:00:00,29.6011,112.8114,54.1,岳阳市,幸福水库,君山区,999.5,27.3,59,30.158162427303814,21.4125361840275
P3536,2025-06-03 10:00:00,29.2639,113.5058,773.4,岳阳市,大云山,岳阳县,921.0,20.4,82,39.54579667075371,19.643168138789626
P3537,2025-06-03 10:00:00,29.0186,113.4906,131.3,岳阳市,张谷英,岳阳县,992.2,28.0,50,30.14132140518638,18.90501655984821
P3538,2025-06-03 10:00:00,29.4492,113.0503,33.7,岳阳市,展陈馆,君山区,1002.8,27.0,42,18.267519751422498,14.976574949739401
P3541,2025-06-03 10:00:00,29.0133,113.4411,122.7,岳阳市,岳坊水库,岳阳县,991.8,27.5,59,38.48158298585716,21.665096093192737
P3544,2025-06-03 10:00:00,29.2258,113.0858,28.4,岳阳市,麻塘,岳阳县,1003.0,27.5,48,18.693159671512603,17.62584088937714
P3547,2025-06-03 10:00:00,29.1339,113.0161,32.5,岳阳市,中洲,岳阳县,1002.1,28.0,56,32.15324947363338,21.17361854703
P3552,2025-06-03 10:00:00,29.7919,113.52,12.4,岳阳市,黄盖,临湘市,1002.9,26.3,67,37.60055432276615,22.92530389253498
P3553,2025-06-03 10:00:00,29.565,113.6956,51.5,岳阳市,晓阳,临湘市,998.1,27.5,63,46.70644662101332,23.1339161673075
P3554,2025-06-03 10:00:00,29.3889,113.6328,534.8,岳阳市,壁山,临湘市,944.3,23.4,77,44.85940761592501,22.15528900249723
P3558,2025-06-03 10:00:00,29.6639,113.3461,13.4,岳阳市,儒溪,临湘市,1002.2,27.8,63,41.53149276683709,23.543652771221705
P3559,2025-06-03 10:00:00,29.3117,113.4417,98.1,岳阳市,金盆,临湘市,994.3,27.6,53,38.123825900323574,19.57617842954305
P3562,2025-06-03 10:00:00,29.4708,112.4956,35,岳阳市,业谟小学,华容县,1003.1,27.8,64,37.935569773161475,23.91736154536808
P3565,2025-06-03 10:00:00,29.395,112.805,16.6,岳阳市,团华小学,华容县,1003.0,26.9,66,40.83192953974189,23.396581905125394
P3566,2025-06-03 10:00:00,29.7261,112.8489,43,岳阳市,小墨山,华容县,1002.0,27.4,67,43.9421503726276,24.458966135092734
P3568,2025-06-03 10:00:00,29.4917,112.4131,20,岳阳市,太仙,华容县,1003.0,27.4,50,32.61574650465563,18.25295980230801
P3570,2025-06-03 10:00:00,29.535,112.5558,14.6,岳阳市,华容河大堤,华容县,1002.6,27.5,60,38.463343686069436,22.032301111721427
P3572,2025-06-03 10:00:00,29.6033,112.4639,32,岳阳市,富强,华容县,1003.4,27.7,57,39.78516343518227,21.177196304035522
P3580,2025-06-03 10:00:00,28.7297,112.7042,27,岳阳市,湘滨,湘阴县,1002.3,27.4,60,35.61839250639588,21.90355176276961
P3587,2025-06-03 10:00:00,28.6281,112.5892,18,岳阳市,西林港,湘阴县,1003.1,28.0,27,16.205124462788397,10.208708942318035
P3588,2025-06-03 10:00:00,28.7647,112.9869,68,岳阳市,赛美水库,湘阴县,999.5,27.7,60,41.21118781352876,22.291785583195285
P3589,2025-06-03 10:00:00,28.63,112.8128,29,岳阳市,城西水管会,湘阴县,1003.0,28.8,53,35.8128206404632,20.994399071948628
P3592,2025-06-03 10:00:00,29.4889,113.1922,30.9,岳阳市,象骨港,云溪区,1003.0,27.3,54,19.95315739268394,19.597914473516695
P3593,2025-06-03 10:00:00,29.5444,113.2581,50.8,岳阳市,丁山,云溪区,1001.5,26.8,58,31.8164508545667,20.43995084173267
P3594,2025-06-03 10:00:00,29.5942,113.3344,5.7,岳阳市,钢铁,云溪区,1002.5,27.6,54,32.485294670052255,19.94554028670424
P3595,2025-06-03 10:00:00,29.5531,113.3572,40,岳阳市,长岭街道,云溪区,1002.6,27.1,56,36.55044858418346,20.08649161152071
P3596,2025-06-03 10:00:00,29.4825,113.2631,54.4,岳阳市,洗马塘,云溪区,1001.5,27.7,56,39.70105140318178,20.805666544315603
P3599,2025-06-03 10:00:00,29.31,113.3339,73.2,岳阳市,兰桥水库,岳阳楼区,997.6,26.7,76,50.32884070611355,26.62606132521461
P3603,2025-06-03 10:00:00,29.4553,113.2167,62.3,岳阳市,滨湖,云溪区,997.7,30.7,46,21.373429848834075,20.32994791030542
P3604,2025-06-03 10:00:00,28.9742,112.92,27.8,岳阳市,凤凰乡磊石,市辖区,1003.4,26.8,61,38.57881329797282,21.497189678374017
P3605,2025-06-03 10:00:00,28.8606,112.9194,19.2,岳阳市,屈子诗园,市辖区,1003.0,27.0,61,38.205101842490585,21.751692188907228
P3614,2025-06-03 10:00:00,29.4533,113.3578,127.2,岳阳市,清溪水库,云溪区,993.8,26.7,60,41.14941091100576,21.020574730432585
P3615,2025-06-03 10:00:00,29.235,113.1386,95.4,岳阳市,东风水库,岳阳县,995.4,25.8,67,41.09906832275326,22.256454060763822
P3620,2025-06-03 10:00:00,29.1897,113.5236,90,岳阳市,铁山水库,岳阳县,995.5,28.8,52,42.17556446565094,20.59827833474205
P3621,2025-06-03 10:00:00,29.2997,113.1031,134,岳阳市,风雨山,岳阳楼区,990.6,25.9,61,37.706210121601295,20.38387040294411
P3622,2025-06-03 10:00:00,29.5075,113.6161,99.3,岳阳市,羊楼司,临湘市,995.2,26.6,67,40.058228348181984,23.33499574891991
P3630,2025-06-03 10:00:00,29.4447,113.3122,60.1,岳阳市,建设,云溪区,999.5,26.5,58,27.25285127110406,20.081613681122416
P3631,2025-06-03 10:00:00,29.4083,113.3064,134.5,岳阳市,伍家洞水库,岳阳楼区,991.1,25.6,56,35.746864442360646,18.382821318992843
P3633,2025-06-03 10:00:00,28.5319,113.0111,58.8,岳阳市,桥坪水库,汨罗市,998.6,27.5,67,48.03748035581108,24.60273624142226
P3636,2025-06-03 10:00:00,28.5908,113.835,130.5,岳阳市,沱龙峡,平江县,991.0,27.7,52,32.08311623359578,19.319547505435917
P3637,2025-06-03 10:00:00,28.9742,113.8178,1160,岳阳市,幕阜山,平江县,880.0,20.5,81,41.936594594276315,19.52382067778284
P3640,2025-06-03 10:00:00,28.6933,113.0358,60.6,岳阳市,白水苗圃,汨罗市,996.8,27.3,68,40.64059839598968,24.678855262946954
P3641,2025-06-03 10:00:00,29.6411,113.4997,21,岳阳市,源潭,临湘市,1002.9,27.5,59,38.10142034037784,21.665096093192737
P3643,2025-06-03 10:00:00,29.3719,113.4747,103.6,岳阳市,桃矿,临湘市,994.2,26.7,61,41.2949794879774,21.370917642606464
P3650,2025-06-03 10:00:00,28.7758,113.6053,80.6,岳阳市,团山,平江县,995.0,28.1,57,33.75827861763357,21.677839320428408
P3659,2025-06-03 10:00:00,29.3592,112.5042,14,岳阳市,八一水厂,华容县,1003.1,27.9,56,33.53149095128249,21.050341118669735
P3660,2025-06-03 10:00:00,29.4222,112.6369,14.4,岳阳市,砂山,华容县,1002.8,28.0,30,13.770148752224395,11.343009935908926
P3661,2025-06-03 10:00:00,29.2167,112.705,29.3,岳阳市,隆庆莲场,华容县,1003.2,27.7,61,44.3355835811011,22.663315342915208
P3663,2025-06-03 10:00:00,29.5189,112.4686,6.6,岳阳市,蔡田湖,华容县,1003.1,27.4,59,40.67757343970704,21.538492566723452
P3664,2025-06-03 10:00:00,28.5367,112.9592,60,岳阳市,燎原,湘阴县,997.3,26.7,63,43.21838329032825,22.071603466954215
P3665,2025-06-03 10:00:00,28.8464,113.0339,40,岳阳市,河市乡,市辖区,1002.8,27.6,59,39.3174244472781,21.792349572510187
P3666,2025-06-03 10:00:00,28.7961,113.0722,46.7,岳阳市,归义,汨罗市,1000.6,28.1,52,26.597672060960864,19.77627446775925
P3676,2025-06-03 10:00:00,29.5422,113.3636,32.9,岳阳市,长炼,云溪区,1001.9,27.0,58,39.78876667658366,20.68193683535441
P3692,2025-06-03 10:00:00,29.5169,113.3128,57.6,岳阳市,江湖,云溪区,1001.5,27.0,57,34.77533053783249,20.325351717503473
P3694,2025-06-03 10:00:00,29.4369,113.1664,16.6,岳阳市,芭蕉湖,岳阳楼区,1002.9,27.6,64,36.80488898017372,23.639158858316133
P3703,2025-06-03 10:00:00,28.8864,110.8531,214,怀化市,七甲坪,沅陵县,982.4,27.1,64,46.19353169952682,22.95599041316652
P3705,2025-06-03 10:00:00,28.76,110.4319,204,怀化市,曹家,沅陵县,983.2,26.8,75,53.5852548241435,26.430970916033626
P3709,2025-06-03 10:00:00,28.6936,110.7453,165,怀化市,陈家滩,沅陵县,987.6,27.7,63,46.23245293333032,23.406374862355054
P3718,2025-06-03 10:00:00,28.5253,110.9103,336,怀化市,官庄,沅陵县,968.8,26.4,54,25.914112569918352,18.58660916541566
P3720,2025-06-03 10:00:00,28.5236,110.7211,163,怀化市,楠木铺,沅陵县,988.4,26.8,67,54.72328560720189,23.611667351656706
P3722,2025-06-03 10:00:00,28.425,110.7939,413,怀化市,杜家坪,沅陵县,961.5,26.9,50,34.35250918430362,17.724683261458633
P3728,2025-06-03 10:00:00,28.3294,110.5158,276,怀化市,张家滩,沅陵县,975.4,27.3,62,42.46923883415993,22.501309210333982
P3729,2025-06-03 10:00:00,28.2933,110.3239,164,怀化市,麻溪铺,沅陵县,987.8,27.9,57,37.71223429224156,21.426240067217403
P3733,2025-06-03 10:00:00,28.2306,110.2917,179,怀化市,筲箕湾,沅陵县,987.6,27.8,62,36.09878467316452,23.16994399707533
P3734,2025-06-03 10:00:00,28.1694,110.2081,172.5,怀化市,田头坪,辰溪县,986.9,25.7,64,39.42950750325204,21.13409164604732
P3739,2025-06-03 10:00:00,26.3494,109.7725,382.8,怀化市,下寨,通道侗族自治县,964.2,27.1,58,42.17218303871827,20.803866311932158
P3749,2025-06-03 10:00:00,27.9703,110.2892,149,怀化市,倒洑,辰溪县,989.5,29.2,62,43.56944399237893,25.13535590148315
P3750,2025-06-03 10:00:00,27.9644,110.1589,131.5,怀化市,潭湾敬老院,辰溪县,991.4,28.8,64,48.78869020906233,25.351727181220983
P3751,2025-06-03 10:00:00,27.9511,110.8358,323.8,怀化市,三江,溆浦县,970.8,22.9,78,43.71696428264142,21.774136638525942
P3759,2025-06-03 10:00:00,27.8892,109.8911,162.9,怀化市,兰里,麻阳苗族自治县,987.9,29.0,63,46.06100780952793,25.24670510934854
P3761,2025-06-03 10:00:00,27.8553,109.9197,233.6,怀化市,和平溪,麻阳苗族自治县,978.9,27.5,61,43.856114159141114,22.399506130250117
P3763,2025-06-03 10:00:00,27.8783,109.695,179.8,怀化市,岩门镇黄土溪,麻阳苗族自治县,982.8,28.3,66,39.48853679770713,25.39496611497256
P3778,2025-06-03 10:00:00,27.7256,110.4086,121,怀化市,黄溪口,辰溪县,988.8,28.3,60,45.00025176561885,23.086332831793236
P3781,2025-06-03 10:00:00,27.6931,110.6811,528.9,怀化市,两丫坪,溆浦县,948.4,27.2,47,26.762493949414043,16.957619234734942
P3782,2025-06-03 10:00:00,27.7019,109.6039,265.2,怀化市,锦和,麻阳苗族自治县,975.5,27.5,48,39.76556645353173,17.62584088937714
P3783,2025-06-03 10:00:00,27.6689,110.1556,325,怀化市,花桥,中方县,967.3,26.4,67,39.794904169123384,23.061163223756463
P3784,2025-06-03 10:00:00,27.6725,109.7108,314,怀化市,江口圩,麻阳苗族自治县,974.1,27.4,59,36.85111216482832,21.538492566723452
P3790,2025-06-03 10:00:00,27.6664,109.8514,230,怀化市,贺家田,鹤城区,980.5,25.8,89,49.778533446627804,29.56454345385045
P3796,2025-06-03 10:00:00,27.6089,110.0964,246,怀化市,泸阳,中方县,978.8,26.8,57,39.43592640042998,20.087537896185555
P3798,2025-06-03 10:00:00,27.6269,110.6014,265.2,怀化市,北斗溪,溆浦县,975.5,27.4,55,39.68472404301704,20.07825578253881
P3800,2025-06-03 10:00:00,27.5886,110.28,186,怀化市,铜湾,中方县,985.9,28.6,57,41.1722743701218,22.31816330325095
P3803,2025-06-03 10:00:00,27.9714,110.3422,173.5,怀化市,桃田坳,辰溪县,986.7,28.5,65,44.92033839104326,25.30300951077325
P3811,2025-06-03 10:00:00,27.7506,110.1411,213,怀化市,肖家溪,辰溪县,985.0,27.3,68,47.80649143760135,24.678855262946954
P3820,2025-06-03 10:00:00,27.1161,109.9783,536.5,怀化市,高坡街,洪江市,945.5,26.4,60,30.459719294740093,20.651787961572953
P3823,2025-06-03 10:00:00,26.5053,109.5308,450,怀化市,靖州县排牙山,靖州苗族侗族自治县,955.9,24.7,62,30.478851637699933,19.2891907229182
P3825,2025-06-03 10:00:00,27.5183,110.1769,259.7,怀化市,新建敬老院,中方县,980.1,28.7,62,46.7172583737969,24.41733170235534
P3827,2025-06-03 10:00:00,27.5089,109.4536,370,怀化市,芷江县大树坳,芷江侗族自治县,965.3,27.3,58,33.98409556510839,21.049611841925337
P3833,2025-06-03 10:00:00,27.4483,109.7589,263,怀化市,岩桥,芷江侗族自治县,976.5,28.2,56,44.05732977693202,21.422067249223034
P3846,2025-06-03 10:00:00,27.4039,109.2453,444,怀化市,波州,新晃侗族自治县,954.7,27.2,41,23.43799120412045,14.792816779236862
P3849,2025-06-03 10:00:00,27.3447,109.9131,240,怀化市,牌楼,中方县,979.5,27.9,56,43.843491623829,21.050341118669735
P3853,2025-06-03 10:00:00,27.3089,109.4775,466,怀化市,梨溪口水库,芷江侗族自治县,954.9,26.4,59,32.27646997401061,20.30759149554674
P3857,2025-06-03 10:00:00,27.325,109.0644,341,怀化市,鱼市,新晃侗族自治县,968.5,27.0,44,24.57253564394364,15.689745185441279
P3860,2025-06-03 10:00:00,27.1392,109.9714,172.1,怀化市,横岩,洪江市,983.4,29.1,55,45.96439316010616,22.168809202974735
P3870,2025-06-03 10:00:00,27.2317,109.2867,473,怀化市,降溪,新晃侗族自治县,952.9,23.5,71,36.29073058764881,20.552620725213753
P3871,2025-06-03 10:00:00,27.1842,109.1325,437,怀化市,扶罗,新晃侗族自治县,958.5,26.5,64,37.51376167793628,22.159021992962668
P3883,2025-06-03 10:00:00,27.1044,108.9556,501,怀化市,凉伞,新晃侗族自治县,951.0,26.3,69,44.262587418514975,23.60964132216289
P3896,2025-06-03 10:00:00,26.7839,109.8633,344.7,怀化市,木寨,会同县,967.6,26.9,71,46.574798320077804,25.16905023127126
P3897,2025-06-03 10:00:00,26.7228,109.5947,306,怀化市,会同县地灵,会同县,970.8,28.3,45,32.795880502486035,17.31474962384493
P3899,2025-06-03 10:00:00,26.7006,109.4481,394,怀化市,大堡子,靖州苗族侗族自治县,961.9,28.5,44,30.914362995925153,17.128191053446507
P3901,2025-06-03 10:00:00,26.6728,109.6456,346.4,怀化市,坳上,靖州苗族侗族自治县,966.6,27.9,49,36.00849039951066,18.419048478836014
P3904,2025-06-03 10:00:00,26.65,109.385,617.2,怀化市,三锹,靖州苗族侗族自治县,938.4,25.1,50,27.166298340774656,15.931914440023979
P3909,2025-06-03 10:00:00,26.4108,109.4269,398.3,怀化市,藕团,靖州苗族侗族自治县,962.4,28.8,48,30.17724039386675,19.01379538591574
P3914,2025-06-03 10:00:00,26.2025,109.5192,359,怀化市,播阳,通道侗族自治县,966.1,27.3,53,40.94201859607507,19.234990131414534
P3917,2025-06-03 10:00:00,26.08,109.5481,455.3,怀化市,独坡,通道侗族自治县,955.4,25.4,64,33.98035884869122,20.760576545651137
P3918,2025-06-03 10:00:00,26.0089,109.7683,512,怀化市,陇城,通道侗族自治县,948.9,25.4,56,35.222345912678136,18.16550447744475
P4001,2025-06-03 10:00:00,28.8097,111.0122,73,怀化市,五强溪,沅陵县,997.4,26.3,78,53.90968443608787,26.689159755488486
P4014,2025-06-03 10:00:00,28.5272,110.2183,136,怀化市,高竹坪,沅陵县,991.3,28.6,54,44.27020634071926,21.143523129395643
P4019,2025-06-03 10:00:00,27.4256,109.3614,331,怀化市,新店坪镇上坪,芷江侗族自治县,969.3,27.5,44,28.119053482510807,16.15702081526238
P4021,2025-06-03 10:00:00,28.1625,110.6406,348.4,怀化市,低庄镇大渭溪,溆浦县,966.9,28.4,70,53.20507832374723,27.091324089949552
P4023,2025-06-03 10:00:00,26.325,109.4625,397,怀化市,靖州县新厂,靖州苗族侗族自治县,962.2,27.9,50,29.84754695059,18.79494742738369
P4030,2025-06-03 10:00:00,28.6453,110.3453,320,怀化市,高砌头,沅陵县,969.4,28.2,57,44.87141705486923,21.804604164387726
P4038,2025-06-03 10:00:00,27.7356,110.5281,566.3,怀化市,统溪河,溆浦县,943.1,24.9,69,41.53804595152575,21.725165617170735
P4042,2025-06-03 10:00:00,27.4094,109.8139,369,怀化市,水宽,芷江侗族自治县,965.2,26.4,58,34.24587051510152,19.96339502952052
P4043,2025-06-03 10:00:00,28.0339,110.4381,488,怀化市,谭家场,辰溪县,949.5,24.4,74,45.829296502789184,22.612676615316705
P4050,2025-06-03 10:00:00,27.425,110.6067,541,怀化市,大华,溆浦县,946.0,27.4,55,38.21604676614758,20.07825578253881
P4051,2025-06-03 10:00:00,26.9703,109.7375,334,怀化市,坪村,会同县,968.4,27.4,51,29.476464356605806,18.61801899835417
P4055,2025-06-03 10:00:00,27.6414,110.3222,210,怀化市,铜鼎,中方县,984.3,28.7,53,43.89304573552948,20.872880326206985
P4056,2025-06-03 10:00:00,27.5292,110.3503,255,怀化市,接龙,中方县,975.0,28.4,65,50.60182712453193,25.15622951209602
P4057,2025-06-03 10:00:00,27.3539,109.8394,343,怀化市,桐木,中方县,968.0,27.2,53,32.550695689411945,19.12242169023302
P4059,2025-06-03 10:00:00,27.1203,109.6225,244,怀化市,洪江市托口,洪江市,977.0,26.9,64,43.19687430315517,22.68759457466705
P4061,2025-06-03 10:00:00,27.1197,109.6967,204,怀化市,江市,洪江市,982.6,29.5,56,44.03059972089999,23.099966354392507
P4063,2025-06-03 10:00:00,28.3528,110.3003,134,怀化市,盘古,沅陵县,990.6,29.1,54,38.00666217807675,21.765739944738833
P4068,2025-06-03 10:00:00,27.0119,109.8433,400,怀化市,大溪水库,会同县,962.2,25.5,64,32.788251192969796,20.88443456732826
P4069,2025-06-03 10:00:00,28.8036,110.6261,150,怀化市,大合坪,沅陵县,989.2,28.2,58,44.707619346374194,22.187141079552422
P4070,2025-06-03 10:00:00,28.5286,110.6353,320,怀化市,长界,沅陵县,971.0,26.3,60,38.172965465005966,20.530122888837294
P4079,2025-06-03 10:00:00,27.8842,110.7317,535.2,怀化市,桥江镇新田,溆浦县,947.5,26.5,50,31.279041241211807,17.311735932002087
P4080,2025-06-03 10:00:00,27.8681,110.0928,163,怀化市,红敏,辰溪县,988.0,28.4,61,41.954791126423636,23.608153849813185
P4092,2025-06-03 10:00:00,26.7067,109.7314,294.7,怀化市,靖州县甘棠,靖州苗族侗族自治县,972.8,29.2,50,37.785655885914935,20.2704483076477
P4093,2025-06-03 10:00:00,26.3322,109.335,482,怀化市,平茶,靖州苗族侗族自治县,952.8,25.6,55,33.93074353455764,18.054556652582253
P4094,2025-06-03 10:00:00,26.4539,109.895,381.9,怀化市,联团,通道侗族自治县,958.6,28.1,52,30.259787780686647,19.77627446775925
P4095,2025-06-03 10:00:00,26.2911,109.9364,433.1,怀化市,石岩,通道侗族自治县,956.6,27.4,48,34.507253620435385,17.52284141021569
P4116,2025-06-03 10:00:00,27.8944,109.6364,220.1,怀化市,石羊哨,麻阳苗族自治县,981.6,28.7,50,35.96361734938924,19.691396534157533
P4121,2025-06-03 10:00:00,28.0506,110.7606,247.6,怀化市,祖师殿,溆浦县,978.2,28.2,48,26.632569220940933,18.361771927905455
P4122,2025-06-03 10:00:00,27.9525,110.7689,290.3,怀化市,油洋,溆浦县,973.9,29.1,42,28.3465277393798,16.92890884590798
P4123,2025-06-03 10:00:00,27.8836,110.3986,146.1,怀化市,大江口,溆浦县,989.3,28.2,58,41.191916668486456,22.187141079552422
P4126,2025-06-03 10:00:00,27.8461,110.6906,225.2,怀化市,陶金坪,溆浦县,979.8,25.2,76,47.82827341555494,24.361309954492373
P4131,2025-06-03 10:00:00,27.4036,110.5142,510,怀化市,龙潭镇横板桥,溆浦县,949.2,26.9,57,40.809285913081936,20.20613891806284
P4143,2025-06-03 10:00:00,27.315,110.1617,225,怀化市,洪江市安江,洪江市,979.9,28.2,56,40.56853147135038,21.422067249223034
P4144,2025-06-03 10:00:00,27.1914,110.1669,326,怀化市,洪江市熟坪,洪江市,970.4,26.5,73,49.39814415642285,25.275134460723045
P4149,2025-06-03 10:00:00,27.2317,109.7297,281,怀化市,岩垅,洪江市,974.2,27.6,42,23.215322463155722,15.513198000769963
P4155,2025-06-03 10:00:00,26.9625,110.0258,221.6,怀化市,会同县高椅,会同县,980.6,27.1,62,38.861432115912194,22.238615712755067
P4156,2025-06-03 10:00:00,26.9819,109.7731,340.4,怀化市,堡子,会同县,969.7,27.0,63,38.298700499837906,22.464862424609105
P4167,2025-06-03 10:00:00,26.3656,109.6619,349.9,怀化市,县溪镇江口,通道侗族自治县,963.6,26.3,57,28.074174245398552,19.50361674439543
P4175,2025-06-03 10:00:00,26.085,109.8053,407.3,怀化市,长安堡,通道侗族自治县,958.5,26.6,58,38.495604532755664,20.200444081154547
P4198,2025-06-03 10:00:00,28.6917,110.5306,158,怀化市,落坪,沅陵县,988.5,27.5,81,58.76792022404154,29.74360650082393
P4200,2025-06-03 10:00:00,27.4572,109.9464,236,怀化市,中方站,中方县,979.0,28.0,54,39.287634199746705,20.41741788463607
P4201,2025-06-03 10:00:00,27.8675,110.0128,207.8,怀化市,黄桑乡军田,麻阳苗族自治县,977.0,26.6,56,36.47866866090721,19.50387704387336
P4205,2025-06-03 10:00:00,26.6747,109.3367,635,怀化市,塘款,靖州苗族侗族自治县,936.1,24.1,53,26.63209146529758,15.906570799206154
P4404,2025-06-03 10:00:00,27.8869,111.5178,442,娄底市,华新,新化县,956.5,26.1,55,35.61123099589414,18.597949340039946
P4416,2025-06-03 10:00:00,27.6861,111.2781,211,娄底市,科头,新化县,979.7,28.3,41,19.048124834468943,15.775660768392044
P4420,2025-06-03 10:00:00,28.08,111.3736,243,娄底市,龙溪,新化县,976.4,27.1,49,24.928779635988125,17.57568016008062
P4432,2025-06-03 10:00:00,28.0161,111.2794,156.6,娄底市,何家坪,新化县,984.4,28.2,46,32.44690534651374,17.596698097576063
P4435,2025-06-03 10:00:00,27.7942,111.0617,504,娄底市,古台山林场,新化县,946.9,23.6,44,20.28379190029103,12.813911998867436
P4440,2025-06-03 10:00:00,27.6244,111.1006,274,娄底市,半山水库,新化县,974.9,27.1,50,34.00983387763997,17.934367510286346
P4446,2025-06-03 10:00:00,27.8789,111.3722,279.4,娄底市,水竹,新化县,974.1,28.5,41,18.463616406774914,15.96035984525697
P4481,2025-06-03 10:00:00,27.7511,110.8889,851.1,娄底市,大桥,新化县,912.6,21.5,47,21.887114657342032,12.047235820964257
P4512,2025-06-03 10:00:00,27.5672,111.3708,289,娄底市,连岩,冷水江市,972.0,28.4,58,38.647294734711465,22.447097103101058
P4515,2025-06-03 10:00:00,27.7794,111.4869,677,娄底市,谭家,冷水江市,929.4,24.5,62,34.74227890548645,19.059634629155433
P4516,2025-06-03 10:00:00,27.6011,111.4764,178,娄底市,杨源,冷水江市,983.6,28.4,55,42.50282198741411,21.286040356388938
P4517,2025-06-03 10:00:00,27.6461,111.5622,338,娄底市,大冲,冷水江市,968.8,26.6,51,32.008633133283176,17.762459450670377
P4561,2025-06-03 10:00:00,27.5222,111.7556,693,娄底市,龙山林场,涟源市,929.2,21.1,61,19.984492674317156,15.256668512236727
P4562,2025-06-03 10:00:00,27.85,111.7756,141,娄底市,迎宾,涟源市,987.3,29.5,41,35.67367177957701,16.912475366608795
P4563,2025-06-03 10:00:00,27.8811,111.6511,613.5,娄底市,古塘,涟源市,939.2,24.5,57,31.3801315106415,17.522567320352575
P4564,2025-06-03 10:00:00,27.72,111.6253,185,娄底市,芙蓉,涟源市,986.3,27.0,53,40.45198470055249,18.89901124609972
P4565,2025-06-03 10:00:00,27.8219,111.6697,350,娄底市,安平,涟源市,964.7,28.0,28,25.882547174069792,10.586809273515
P4567,2025-06-03 10:00:00,27.9064,111.8492,181,娄底市,七星中学,涟源市,985.2,28.5,40,27.272432947747788,15.571082775860463
P4568,2025-06-03 10:00:00,27.7781,111.8789,97,娄底市,渡头塘,涟源市,992.4,28.5,48,36.55350712729225,18.685299331032553
P4569,2025-06-03 10:00:00,27.4906,111.9294,298.7,娄底市,坝塘,涟源市,968.6,26.0,34,18.533831361737533,11.429032412730479
P4570,2025-06-03 10:00:00,27.7767,111.7514,166,娄底市,龙塘,涟源市,985.4,28.3,43,40.00115279873658,16.545205196118484
P4571,2025-06-03 10:00:00,27.55,111.6817,185.6,娄底市,孙家桥,涟源市,983.8,27.5,44,30.831657197794783,16.15702081526238
P4572,2025-06-03 10:00:00,27.6306,111.9314,148,娄底市,水洞底,娄星区,990.8,28.9,48,35.41876040203174,19.1244093107672
P4573,2025-06-03 10:00:00,27.5897,111.9006,146.8,娄底市,荷塘,涟源市,987.5,28.5,46,35.13774599183768,17.90674519223953
P4574,2025-06-03 10:00:00,27.575,111.8128,148.8,娄底市,茶亭子,涟源市,986.5,28.2,43,33.65959040330741,16.449087352081968
P4575,2025-06-03 10:00:00,27.6592,111.8269,185,娄底市,斗笠山,涟源市,983.5,28.2,44,38.98435984185807,16.831624267246667
P4576,2025-06-03 10:00:00,27.6225,111.6239,281.2,娄底市,谢家,涟源市,979.6,28.6,48,33.944391132240845,18.794242781685014
P4577,2025-06-03 10:00:00,27.7153,111.7697,108,娄底市,湖泉,涟源市,991.2,28.8,47,32.6573106333237,18.617674648709162
P4578,2025-06-03 10:00:00,27.5856,111.7683,208.3,娄底市,茅塘,涟源市,980.5,28.1,43,29.227741160053608,16.353457732954762
P4580,2025-06-03 10:00:00,27.8442,111.8475,134.6,娄底市,桥头河,涟源市,990.6,29.4,42,35.14996424981348,17.225207407870865
P4582,2025-06-03 10:00:00,27.6583,111.7725,146.5,娄底市,青树,涟源市,987.3,28.3,49,34.245270108542925,18.853838479297814
P4583,2025-06-03 10:00:00,27.9822,111.6572,488,娄底市,漆树,涟源市,949.8,25.9,46,21.398140728404336,15.371443254679166
P4594,2025-06-03 10:00:00,27.6264,111.6889,199,娄底市,杨岭水库,涟源市,981.1,26.1,55,43.18441724192764,18.597949340039946
P4601,2025-06-03 10:00:00,27.7633,111.9192,165,娄底市,石井,娄星区,987.8,28.2,40,24.385692709525145,15.30147660658788
P4602,2025-06-03 10:00:00,27.7783,111.9608,117,娄底市,黄泥塘,娄星区,991.1,29.5,42,33.70883335848102,17.32497476579438
P4611,2025-06-03 10:00:00,27.7747,112.0722,77,娄底市,春园中学,娄星区,993.2,28.2,52,45.06550634065582,19.891919588564242
P4614,2025-06-03 10:00:00,27.8078,112.0092,146,娄底市,花溪谷,娄星区,990.3,28.2,52,42.041682151723315,19.891919588564242
P4615,2025-06-03 10:00:00,27.6531,111.995,154,娄底市,军分区仓库,娄星区,989.5,35.2,33,39.94885037485756,18.78999361522606
P4618,2025-06-03 10:00:00,27.9219,111.9692,272,娄底市,双江水库,娄星区,977.3,25.8,49,19.01554348155051,16.277108193692946
P4627,2025-06-03 10:00:00,27.7464,112.0158,112.5,娄底市,乐坪,娄星区,991.3,29.0,47,33.783078764311945,18.834843494275894
P4639,2025-06-03 10:00:00,27.7286,112.0014,151.5,娄底市,市气象局,娄星区,988.9,28.3,46,34.70600255406161,17.69952183770815
P4651,2025-06-03 10:00:00,27.4397,112.1436,83.5,娄底市,金开街道,双峰县,995.2,28.5,47,35.483103156888134,18.29602226163604
P4657,2025-06-03 10:00:00,27.5836,112.0908,106,娄底市,洪福,娄星区,992.1,28.4,48,37.80193869082501,18.57690794739398
P4660,2025-06-03 10:00:00,27.6347,112.2511,68.4,娄底市,水府庙,双峰县,998.2,27.5,22,20.076430355837932,8.07851040763119
P4661,2025-06-03 10:00:00,27.4411,111.9703,128.9,娄底市,甘棠,双峰县,990.2,27.9,47,36.20767827861873,17.667250581740667
P4662,2025-06-03 10:00:00,27.6261,112.2436,74.9,娄底市,杏子铺,双峰县,997.7,28.5,46,31.156357373681118,17.90674519223953
P4663,2025-06-03 10:00:00,27.5339,112.2253,56.5,娄底市,黄马洲,双峰县,998.0,28.1,53,39.00518822075769,20.15658743829308
P4666,2025-06-03 10:00:00,27.3297,112.1042,106.8,娄底市,锁石,双峰县,993.3,28.4,49,41.635690919231585,18.96392686296469
P4667,2025-06-03 10:00:00,27.4825,112.1942,67,娄底市,茅坪,双峰县,996.7,28.5,48,45.046122537054806,18.685299331032553
P4668,2025-06-03 10:00:00,27.3981,111.9872,116.2,娄底市,三塘铺,双峰县,991.7,27.9,48,36.35268344327578,18.04314953028834
P4669,2025-06-03 10:00:00,27.4258,112.1083,83.5,娄底市,岳家,双峰县,993.8,28.1,51,40.64077422761874,19.395961497225418
P4670,2025-06-03 10:00:00,27.4661,112.4281,115.2,娄底市,井字,双峰县,990.8,27.4,57,37.43967152709267,20.80837417463113
P4671,2025-06-03 10:00:00,27.5189,112.1044,84.1,娄底市,走马街,双峰县,994.4,29.5,48,36.875118432414354,19.799971160907862
P4672,2025-06-03 10:00:00,27.3789,112.0317,106.2,娄底市,青树坪,双峰县,992.4,29.0,46,38.89399867531413,18.434102143333853
P4674,2025-06-03 10:00:00,27.3983,112.4289,118.2,娄底市,双鱼,双峰县,990.6,26.5,63,48.407134276544184,21.812787274322627
P4675,2025-06-03 10:00:00,27.5603,112.0128,88.5,娄底市,洪山殿,双峰县,994.2,28.0,45,28.947183903931194,17.01451490386339
P4676,2025-06-03 10:00:00,27.2908,112.0944,109.5,娄底市,花门,双峰县,992.5,28.2,52,42.21018402164318,19.891919588564242
P4677,2025-06-03 10:00:00,27.38,112.2297,116.2,娄底市,石牛,双峰县,989.6,27.2,63,49.7588307901165,22.730425782729817
P4678,2025-06-03 10:00:00,27.4853,112.2675,123.2,娄底市,民实,双峰县,989.4,27.6,53,26.535141848579123,19.57617842954305
P4801,2025-06-03 10:00:00,28.0036,112.4569,123,湘潭市,金石,湘乡市,993.3,27.6,55,36.922599144570746,20.314902143865428
P4802,2025-06-03 10:00:00,27.9392,113.0025,36,湘潭市,昭山,岳塘区,1001.2,28.5,61,52.37431224160262,23.7459012331872
P4804,2025-06-03 10:00:00,27.9589,112.4703,106.6,湘潭市,石屏,韶山市,993.6,27.2,50,35.76594603041336,18.04002046248398
P4806,2025-06-03 10:00:00,27.935,112.3047,72,湘潭市,金薮,湘乡市,986.4,26.7,54,34.162996923840105,18.91851725738933
P4807,2025-06-03 10:00:00,28.02,112.4997,111.3,湘潭市,云源,韶山市,991.9,27.4,57,43.556568489949335,20.80837417463113
P4815,2025-06-03 10:00:00,27.9203,112.4253,134.6,湘潭市,新联,韶山市,988.8,27.3,62,41.8323270676145,22.501309210333982
P4816,2025-06-03 10:00:00,27.8856,112.9744,60,湘潭市,荷塘,岳塘区,998.5,28.7,53,33.69280651740034,20.872880326206985
P4818,2025-06-03 10:00:00,27.9178,112.5942,72.4,湘潭市,银田,韶山市,996.0,27.3,57,41.94037741689509,20.686687499823176
P4821,2025-06-03 10:00:00,27.89,112.5347,69.9,湘潭市,高铁南站,韶山市,995.9,27.7,58,40.16725062689306,21.548726063755442
P4829,2025-06-03 10:00:00,27.8378,112.5158,120,湘潭市,龙洞,湘乡市,996.4,26.7,64,41.86379787588639,22.42194637912809
P4831,2025-06-03 10:00:00,27.8344,112.9397,68,湘潭市,锦源广场,岳塘区,998.4,28.4,53,33.66735980552277,20.51200252524752
P4834,2025-06-03 10:00:00,27.7967,112.5972,75,湘潭市,韶灌科研所,湘乡市,998.5,28.1,54,40.50772285425074,20.536900408826913
P4835,2025-06-03 10:00:00,27.7922,112.9525,78,湘潭市,易俗河,湘潭县,1000.0,27.8,45,26.846479292281,16.816894836586933
P4839,2025-06-03 10:00:00,27.7614,112.4711,90,湘潭市,泉塘,湘乡市,997.6,26.8,56,36.81363516411457,19.735124950638443
P4841,2025-06-03 10:00:00,27.7161,112.3417,57,湘潭市,潭市,湘乡市,998.0,27.7,52,31.81154811432948,19.319547505435917
P4843,2025-06-03 10:00:00,27.6639,112.4522,75.4,湘潭市,洙津渡,湘乡市,998.7,28.5,55,38.93444441629275,21.410238816808135
P4844,2025-06-03 10:00:00,27.6903,112.1053,99.7,湘潭市,毛田,湘乡市,994.9,28.5,49,35.50189415939278,19.074576400429066
P4845,2025-06-03 10:00:00,27.6383,112.5831,259.8,湘潭市,梅桥,湘乡市,976.6,24.9,61,35.54999792344052,19.20630583546978
P4846,2025-06-03 10:00:00,27.6442,112.3406,82,湘潭市,洋潭电站,湘乡市,997.1,27.3,54,36.14760444643377,19.597914473516695
P4847,2025-06-03 10:00:00,27.6442,112.6283,93.5,湘潭市,上石坝水库,湘潭县,993.6,28.0,54,27.93693234786131,20.41741788463607
P4848,2025-06-03 10:00:00,27.6269,112.3814,104,湘潭市,栗山,湘乡市,996.5,28.2,53,31.781907888332256,20.27445650372894
P4850,2025-06-03 10:00:00,27.6158,112.71,65.1,湘潭市,锦石,湘潭县,997.7,27.5,64,48.896248734514145,23.50112118583619
P4851,2025-06-03 10:00:00,27.5836,112.6533,98.7,湘潭市,严冲水库,湘潭县,995.5,26.0,65,46.85543683812931,21.849620789043563
P4852,2025-06-03 10:00:00,27.5608,112.9153,68.2,湘潭市,中路铺水库,湘潭县,998.2,26.6,66,52.5029670240927,22.986712230279313
P4854,2025-06-03 10:00:00,27.5328,112.3353,140,湘潭市,中沙,湘乡市,990.4,27.1,56,35.47221616893527,20.08649161152071
P4855,2025-06-03 10:00:00,27.5292,112.5147,76.4,湘潭市,石鼓,湘潭县,995.2,26.5,71,43.12321251579701,24.58266502344296
P4858,2025-06-03 10:00:00,27.4975,112.8272,99,湘潭市,印子山水库,湘潭县,993.5,25.2,72,49.47363993396656,23.079135746361196
P4860,2025-06-03 10:00:00,27.4747,112.7319,84.2,湘潭市,龙口,湘潭县,995.2,27.7,64,42.21286269429837,23.777904622074974
P4862,2025-06-03 10:00:00,27.3747,112.825,76.9,湘潭市,茶恩寺,湘潭县,997.1,25.8,66,44.87484890258753,21.924268179259887
P4863,2025-06-03 10:00:00,27.7808,112.7739,63,湘潭市,杨嘉桥,湘潭县,999.7,27.7,61,43.015112518028715,22.663315342915208
P4864,2025-06-03 10:00:00,27.8578,112.8989,30,湘潭市,白石公园,雨湖区,1001.8,28.2,55,34.15305635606286,21.039530334058334
P4865,2025-06-03 10:00:00,27.9172,112.9608,38,湘潭市,九华,雨湖区,1001.5,28.2,59,30.403740358710458,22.56967799471712
P4868,2025-06-03 10:00:00,27.8489,112.3881,102.6,湘潭市,白田,湘乡市,995.4,27.0,55,39.515067572539444,19.6121814818016
P4870,2025-06-03 10:00:00,27.8144,112.3172,90.2,湘潭市,褒忠山,湘乡市,995.3,28.2,48,36.29842583367055,18.361771927905455
P4873,2025-06-03 10:00:00,27.7042,112.9678,74.1,湘潭市,梅林桥,湘潭县,995.5,26.8,63,39.82910974205221,22.202015569468248
P4877,2025-06-03 10:00:00,27.6872,112.2133,132,湘潭市,水府旅游区,湘乡市,995.3,28.0,28,29.26503090409246,10.586809273515
P4879,2025-06-03 10:00:00,27.7286,112.725,40.5,湘潭市,石潭,湘潭县,1000.4,28.0,56,35.146191498563525,21.17361854703
P4881,2025-06-03 10:00:00,27.8331,113.0089,25,湘潭市,马家河,岳塘区,1001.4,29.4,57,50.429204141052686,23.377067196396172
P4885,2025-06-03 10:00:00,27.7089,112.5983,132.5,湘潭市,奇才,湘潭县,991.5,25.9,69,46.09914206430989,23.057164882018743
P4890,2025-06-03 10:00:00,27.6028,112.3539,98,湘潭市,虞唐,湘乡市,992.0,26.7,53,34.583617858154476,18.56817434521545
P4919,2025-06-03 10:00:00,27.8208,112.225,228.9,湘潭市,农之源,湘乡市,980.4,27.5,50,35.429818395807814,18.360250926434524
P5101,2025-06-03 10:00:00,28.1106,113.0253,72,长沙市,省植物园,雨花区,995.9,27.5,52,41.66740690673515,19.094660963491904
P5103,2025-06-03 10:00:00,28.0467,113.0011,83,长沙市,西湖小学,天心区,995.7,28.2,49,32.366465320940335,18.74430884307015
P5104,2025-06-03 10:00:00,28.3772,113.44,91,长沙市,中洲,浏阳市,995.2,28.2,57,35.42227263742673,21.804604164387726
P5106,2025-06-03 10:00:00,28.5328,113.2044,119,长沙市,福临,长沙县,992.7,26.9,60,42.525473048705756,21.269619913750358
P5107,2025-06-03 10:00:00,28.4536,113.0375,73,长沙市,北山镇福高,长沙县,997.7,27.7,61,42.32655704625349,22.663315342915208
P5108,2025-06-03 10:00:00,28.5322,113.3683,78,长沙市,金井,长沙县,996.4,29.7,51,35.17675301843678,21.281600662308673
P5110,2025-06-03 10:00:00,28.2892,113.1817,58,长沙市,银龙,长沙县,999.4,28.8,53,33.95180081646709,20.994399071948628
P5111,2025-06-03 10:00:00,28.5892,113.3836,140,长沙市,白石洞水库,长沙县,989.6,27.5,55,37.679938575276516,20.196276019077978
P5112,2025-06-03 10:00:00,28.5469,113.2,113,长沙市,西冲水库,长沙县,993.1,27.7,59,42.151479831302765,21.920255823475365
P5114,2025-06-03 10:00:00,28.4783,112.8044,45,长沙市,铜官,望城区,1000.3,26.9,55,23.892464632602092,19.497151587604495
P5115,2025-06-03 10:00:00,28.5142,112.7536,24,长沙市,苏蓼垸,望城区,1002.1,27.6,56,38.42159788209781,20.68426400102662
P5116,2025-06-03 10:00:00,28.2419,112.7236,71,长沙市,光明,望城区,998.5,26.6,68,47.16744822752018,23.683279267560508
P5118,2025-06-03 10:00:00,28.485,113.3806,96,长沙市,桐仁桥水库,长沙县,993.9,28.9,50,31.536464710459455,19.921259698715833
P5121,2025-06-03 10:00:00,28.3467,112.8169,55,长沙市,和园公园,望城区,1000.7,27.8,52,24.303136921360885,19.43285625561157
P5123,2025-06-03 10:00:00,28.6153,113.2478,64,长沙市,枫林市,长沙县,998.5,27.1,65,45.77836532200668,23.314677763372252
P5124,2025-06-03 10:00:00,28.4675,113.0103,392,长沙市,黑麋峰水电站,望城区,960.7,24.2,68,44.51444658713523,20.53137677735826
P5126,2025-06-03 10:00:00,28.2311,113.0644,71,长沙市,金科公园,长沙县,998.8,29.2,54,31.81491085932435,21.89208417225952
P5132,2025-06-03 10:00:00,28.2947,112.7897,194,长沙市,英雄岭,望城区,985.3,26.8,62,40.18725818487226,21.849602623921133
P5137,2025-06-03 10:00:00,28.4061,112.7758,97,长沙市,廖家坪,望城区,995.3,22.9,95,47.25164418704741,26.519781803332876
P5140,2025-06-03 10:00:00,27.9883,112.9792,31,长沙市,兴马洲,天心区,1001.9,28.6,51,32.69511471269385,19.968882955540327
P5142,2025-06-03 10:00:00,28.2556,113.1589,47.5,长沙市,长龙,长沙县,998.8,28.5,52,26.437966551101205,20.2424076086186
P5143,2025-06-03 10:00:00,28.0861,113.1761,23,长沙市,黄兴镇林塘,长沙县,1000.3,29.2,60,41.94048833799735,24.32453796917724
P5150,2025-06-03 10:00:00,28.3217,112.8728,53,长沙市,大泽湖,望城区,1000.5,27.3,57,31.829224662253868,20.686687499823176
P5151,2025-06-03 10:00:00,28.3128,112.8869,55,长沙市,永通车管所,望城区,1000.9,27.8,54,29.86526042909919,20.18027380390432
P5156,2025-06-03 10:00:00,28.3111,112.9056,40,长沙市,四医院,望城区,1001.2,28.0,54,37.10738141296358,20.41741788463607
P5157,2025-06-03 10:00:00,28.4072,114.1969,531,长沙市,东麓园,浏阳市,948.3,24.2,63,36.17114861346619,19.02171672019956
P5161,2025-06-03 10:00:00,28.4922,112.7303,28,长沙市,乔口,望城区,1002.9,27.2,55,28.432236620131135,19.84402250873238
P5162,2025-06-03 10:00:00,28.3003,112.92,44,长沙市,新奥佳园,望城区,1001.6,27.7,53,32.32409107881711,19.691077265155837
P5163,2025-06-03 10:00:00,28.2825,112.9075,61,长沙市,金峰园,望城区,999.9,27.8,53,28.92144930209111,19.80656502975794
P5164,2025-06-03 10:00:00,28.2931,112.8494,54,长沙市,李家祠堂,望城区,1001.0,27.7,54,30.840203796328026,20.06260702487576
P5165,2025-06-03 10:00:00,28.5281,113.3594,78,长沙市,石壁湖,长沙县,998.3,28.2,55,34.31165499730577,21.039530334058334
P5175,2025-06-03 10:00:00,28.4675,113.3308,61.1,长沙市,锦绣,长沙县,997.4,28.7,52,31.425894206260626,20.479052395523833
P5187,2025-06-03 10:00:00,28.49,113.1111,53,长沙市,新桥,长沙县,999.8,28.5,53,33.77796393204987,20.63168467801511
P5188,2025-06-03 10:00:00,28.4061,112.9925,85,长沙市,北山水库,长沙县,995.5,27.5,60,40.21083110630336,22.032301111721427
P5189,2025-06-03 10:00:00,28.4369,112.9975,64,长沙市,洞阳,望城区,998.8,26.6,60,35.50067455365898,20.89701111843574
P5190,2025-06-03 10:00:00,28.2758,112.9675,32,长沙市,江湾,开福区,1001.7,28.0,54,37.67022618743664,20.41741788463607
P5195,2025-06-03 10:00:00,28.4267,112.9922,120,长沙市,黑麋峰,望城区,991.3,26.2,63,47.070111328459696,21.42953940824766
P5199,2025-06-03 10:00:00,27.975,113.7275,125,长沙市,大瑶,浏阳市,991.2,26.4,66,44.428580873152015,22.71696675773025
P5201,2025-06-03 10:00:00,28.4103,113.22,52,长沙市,明月,长沙县,999.9,28.8,56,39.43484444352379,22.182761283568365
P5206,2025-06-03 10:00:00,28.3222,113.3075,66,长沙市,红旗水库,长沙县,998.0,28.7,51,35.063504938299005,20.08522446484068
P5215,2025-06-03 10:00:00,28.4372,113.6556,268,长沙市,周洛,浏阳市,974.6,25.9,64,42.827828289896836,21.386355832597097
P5218,2025-06-03 10:00:00,28.2203,112.9436,49,长沙市,咸嘉湖,岳麓区,1000.9,27.7,58,33.15560905258084,21.548726063755442
P5221,2025-06-03 10:00:00,28.4306,113.5953,145,长沙市,石牛,浏阳市,988.6,28.4,48,25.99560277282561,18.57690794739398
P5225,2025-06-03 10:00:00,28.2489,113.0753,61,长沙市,县政府,长沙县,998.8,29.5,49,28.621939715255156,20.212470560093443
P5230,2025-06-03 10:00:00,28.2311,112.6875,41,长沙市,天马新村,宁乡市,1000.8,27.7,58,37.9910942485294,21.548726063755442
P5231,2025-06-03 10:00:00,28.3489,112.8297,44,长沙市,望府路,望城区,1001.1,27.5,75,40.12488253064476,27.540376389651783
P5233,2025-06-03 10:00:00,28.2806,112.5453,67,长沙市,玉潭,宁乡市,998.5,26.7,54,27.357735979002797,18.91851725738933
P5235,2025-06-03 10:00:00,28.4014,113.1228,69,长沙市,和平,长沙县,997.3,29.2,77,54.16803793689192,31.21649039377746
P5245,2025-06-03 10:00:00,28.3578,113.7469,192,长沙市,宝盖寺,浏阳市,985.2,26.2,73,46.45737479858588,24.831053600033
P5249,2025-06-03 10:00:00,28.4283,114.1492,1437,长沙市,大围山,浏阳市,851.7,16.8,87,33.32692172933427,16.63368640695455
P5259,2025-06-03 10:00:00,28.4119,112.9264,47,长沙市,桥驿,望城区,1000.3,27.6,56,35.02006600067111,20.68426400102662
P5266,2025-06-03 10:00:00,28.225,112.1089,242,长沙市,石龙洞,宁乡市,978.7,26.9,47,22.454915176516508,16.661202265771117
P5269,2025-06-03 10:00:00,28.28,112.6847,60,长沙市,关山,宁乡市,999.6,28.9,53,32.49889589217958,21.116535280638782
P5273,2025-06-03 10:00:00,28.32,112.7211,52,长沙市,乌山,望城区,1001.2,28.2,58,41.96656839832073,22.187141079552422
P5275,2025-06-03 10:00:00,28.3381,113.2011,41,长沙市,果园,长沙县,1001.3,28.9,54,36.320798044940396,21.5149604746131
P5281,2025-06-03 10:00:00,28.2647,112.9558,46,长沙市,观沙岭,岳麓区,1001.2,28.2,55,37.38480107619086,21.039530334058334
P5290,2025-06-03 10:00:00,28.3578,113.8136,136,长沙市,礼花,浏阳市,990.9,28.5,57,42.8987181087167,22.188792955601155
P5291,2025-06-03 10:00:00,28.4119,113.9247,125,长沙市,椒花水库,浏阳市,991.2,28.8,48,27.433308022895968,19.01379538591574
P5292,2025-06-03 10:00:00,28.2658,114.0942,207,长沙市,皇碑,浏阳市,982.2,27.5,64,42.08415334887256,23.50112118583619
P5293,2025-06-03 10:00:00,28.0658,113.5647,88,长沙市,青草,浏阳市,997.7,28.2,59,37.129004722022145,22.56967799471712
P5294,2025-06-03 10:00:00,27.9958,113.7706,94,长沙市,澄潭江,浏阳市,994.7,26.8,62,40.170405462811004,21.849602623921133
P5295,2025-06-03 10:00:00,28.0739,113.9867,166,长沙市,岩前,浏阳市,985.7,26.5,68,40.22602125030363,23.543960867522838
P5296,2025-06-03 10:00:00,28.1881,113.5158,417,长沙市,菖蒲岭,浏阳市,958.7,23.9,72,40.15045748866292,21.3506156594545
P5298,2025-06-03 10:00:00,28.2083,112.7342,75,长沙市,白箬铺,望城区,998.5,28.2,54,38.11263956785096,20.656993418893638
P5303,2025-06-03 10:00:00,28.3167,112.9208,43,长沙市,月亮岛公园,望城区,1002.0,27.5,56,31.76596166925111,20.563481037606667
P5304,2025-06-03 10:00:00,28.1058,112.9289,46,长沙市,大王山,岳麓区,1000.6,29.3,49,40.45650472240439,19.980265732915086
P5305,2025-06-03 10:00:00,28.0719,112.9189,39,长沙市,巴溪洲,岳麓区,1001.8,26.9,70,47.3030096339418,24.814556566042082
P5306,2025-06-03 10:00:00,28.1253,112.9214,30,长沙市,洋湖湿地,岳麓区,1002.4,28.0,57,37.093125475008776,21.55171887822696
P5307,2025-06-03 10:00:00,28.2764,112.8547,64,长沙市,观音岩水库,望城区,998.6,27.5,55,39.11364708400727,20.196276019077978
P5309,2025-06-03 10:00:00,28.2733,112.8256,50,长沙市,黄金园,望城区,1000.2,28.0,54,29.98367814560408,20.41741788463607
P5314,2025-06-03 10:00:00,28.2231,113.1889,70,长沙市,黄龙小学,长沙县,997.6,28.4,52,33.69001713872755,20.124983609676814
P5315,2025-06-03 10:00:00,28.2975,113.4322,74.4,长沙市,北盛,浏阳市,997.1,30.0,56,37.20654032311432,23.775222480030877
P5322,2025-06-03 10:00:00,28.2247,112.2611,121,长沙市,喻家坳,宁乡市,993.2,27.7,49,29.14384128419188,18.20495822627615
P5323,2025-06-03 10:00:00,28.2836,113.9053,122,长沙市,铁山,浏阳市,990.7,28.6,60,45.13363749537917,23.492803477106268
P5328,2025-06-03 10:00:00,28.2336,112.9639,65,长沙市,岳北,岳麓区,1001.5,28.0,56,34.33907793271714,21.17361854703
P5329,2025-06-03 10:00:00,28.4608,112.7889,44,长沙市,靖港电排,望城区,1002.4,27.3,53,28.593266326609605,19.234990131414534
P5330,2025-06-03 10:00:00,28.1872,112.9747,64,长沙市,天心公园,天心区,999.9,27.7,57,41.54137509440079,21.177196304035522
P5331,2025-06-03 10:00:00,28.1886,111.9597,574,长沙市,沩山,宁乡市,939.5,23.1,60,27.21276780145432,16.953510808541548
P5332,2025-06-03 10:00:00,28.1672,113.1039,37,长沙市,敢胜,长沙县,1001.5,28.6,49,35.856769810194265,19.185789506303454
P5333,2025-06-03 10:00:00,28.145,112.9647,92,长沙市,南郊公园,天心区,996.5,27.2,59,39.21539946638767,21.287224145731095
P5335,2025-06-03 10:00:00,28.31,112.4928,78,长沙市,菁华铺,宁乡市,997.8,25.9,62,46.526653845687505,20.718032212828437
P5336,2025-06-03 10:00:00,28.1936,112.5236,67,长沙市,金州村,宁乡市,998.6,27.4,53,36.907843866706365,19.348137390446492
P5337,2025-06-03 10:00:00,28.1239,112.23,112,长沙市,云山,宁乡市,994.4,27.7,51,30.721496390698107,18.948017745715994
P5339,2025-06-03 10:00:00,28.0281,112.0342,348,长沙市,草冲,宁乡市,967.1,25.1,60,36.28416351052071,19.118297328028774
P5342,2025-06-03 10:00:00,27.9244,112.1153,201,长沙市,田心铺,宁乡市,984.4,26.7,49,37.120988537765065,17.166802696519948
P5343,2025-06-03 10:00:00,28.1831,112.765,70,长沙市,牌楼坝,望城区,997.8,28.7,54,34.93423448375993,21.266708256890137
P5345,2025-06-03 10:00:00,28.2161,112.8033,36,长沙市,真人桥,望城区,997.9,27.6,55,38.05566228624798,20.314902143865428
P5346,2025-06-03 10:00:00,28.2114,112.9578,36,长沙市,银盆岭,岳麓区,1001.6,28.0,56,30.70720294513653,21.17361854703
P5347,2025-06-03 10:00:00,28.1581,112.9825,104,长沙市,七里庙,雨花区,995.5,28.3,52,29.57248553353717,20.008155120887473
P5348,2025-06-03 10:00:00,28.0739,113.1175,122,长沙市,冬斯港,雨花区,993.0,28.3,58,35.34631434073342,22.316788404066795
P5352,2025-06-03 10:00:00,28.3069,113.7983,106,长沙市,沿溪,浏阳市,994.9,28.2,61,43.13532737448106,23.334751825046514
P5359,2025-06-03 10:00:00,28.185,113.8469,121,长沙市,株树桥水库,浏阳市,992.8,26.7,69,46.23745862324937,24.173660939997472
P5363,2025-06-03 10:00:00,28.2042,114.0764,223,长沙市,小河,浏阳市,979.1,27.4,64,41.573994088189394,23.363788546954254
P5372,2025-06-03 10:00:00,28.2153,113.1131,58,长沙市,长桥公园,长沙县,999.2,28.3,49,28.99277651765689,18.853838479297814
P5373,2025-06-03 10:00:00,28.1264,112.0311,192,长沙市,联花,宁乡市,985.5,28.4,46,39.038285349450646,17.802870116252567
P5382,2025-06-03 10:00:00,28.0978,112.7422,59,长沙市,莲花,岳麓区,998.7,28.7,54,39.659021265682924,21.266708256890137
P5383,2025-06-03 10:00:00,28.1314,112.9047,38,长沙市,学士,岳麓区,1002.0,28.5,53,39.62417458886487,20.63168467801511
P5384,2025-06-03 10:00:00,28.1669,112.945,34,长沙市,天马,岳麓区,1002.0,28.2,56,38.69808499214443,21.422067249223034
P5387,2025-06-03 10:00:00,28.4106,113.0097,88,长沙市,蒿塘,长沙县,998.0,27.7,61,43.53817443736819,22.663315342915208
P5388,2025-06-03 10:00:00,28.1344,112.6739,74,长沙市,泉水冲水库,岳麓区,997.7,28.6,56,30.012321456764475,21.92661657863252
P5390,2025-06-03 10:00:00,28.0997,112.8567,60,长沙市,含浦,岳麓区,998.1,27.5,59,44.08753032568907,21.665096093192737
P5398,2025-06-03 10:00:00,28.0856,113.8717,189,长沙市,中和,浏阳市,984.6,25.9,75,43.456166609678384,25.06213574132472
P5404,2025-06-03 10:00:00,28.1303,113.3728,122,长沙市,江背,长沙县,990.9,28.3,56,38.37124250390995,21.547243976340358
P5416,2025-06-03 10:00:00,28.1031,111.9381,287,长沙市,巷子口,宁乡市,974.4,27.3,47,27.934018156520487,17.05744407880157
P5420,2025-06-03 10:00:00,28.1178,112.9831,79,长沙市,天心区政府,天心区,996.7,28.4,48,34.96369178074265,18.57690794739398
P5421,2025-06-03 10:00:00,28.0331,112.7922,44,长沙市,含浦干子,岳麓区,1000.4,28.0,59,41.311619250536204,22.30791954062089
P5426,2025-06-03 10:00:00,28.5369,113.3522,82,长沙市,金井茶场,长沙县,996.5,28.5,51,36.218535579672725,19.853130539222086
P5431,2025-06-03 10:00:00,28.0792,113.4703,98,长沙市,葛家,浏阳市,994.9,27.6,59,37.24717353221591,21.792349572510187
P5434,2025-06-03 10:00:00,28.1975,113.0539,60,长沙市,东岸,芙蓉区,1002.0,28.8,51,36.67374093876517,20.20215759753547
P5436,2025-06-03 10:00:00,28.0397,112.9897,90,长沙市,省气象局,天心区,997.5,28.4,51,32.02703080993832,19.737964694106104
P5437,2025-06-03 10:00:00,28.2036,112.9086,37,长沙市,梅溪湖,岳麓区,1001.6,28.9,52,35.59504315460125,20.718110086664467
P5438,2025-06-03 10:00:00,28.2119,113.0339,31,长沙市,马王堆,芙蓉区,1001.9,28.3,55,32.50094062022991,21.162471762477136
P5439,2025-06-03 10:00:00,28.2061,113.0594,75,长沙市,马坡岭,芙蓉区,999.2,28.1,53,27.68840562134609,20.15658743829308
P5440,2025-06-03 10:00:00,28.1908,113.0242,41,长沙市,荷花园,芙蓉区,1002.0,28.6,51,35.140080389484254,19.968882955540327
P5441,2025-06-03 10:00:00,28.1986,113.0028,36,长沙市,晓园公园,芙蓉区,1001.6,29.2,51,42.14064440714415,20.675857273800652
P5442,2025-06-03 10:00:00,28.2589,112.9797,28,长沙市,开福区政府,开福区,1002.2,28.1,55,34.514526685122775,20.917213379360746
P5443,2025-06-03 10:00:00,28.2386,112.9956,32,长沙市,科大佳园,开福区,1002.2,28.2,56,29.22944149194835,21.422067249223034
P5444,2025-06-03 10:00:00,28.3419,112.9292,52,长沙市,金盆丘,开福区,1000.3,27.8,55,33.11721535394297,20.553982578050697
P5445,2025-06-03 10:00:00,28.2378,113.0133,29,长沙市,四方坪,开福区,1002.1,28.6,53,34.76214556292703,20.751976404777203
P5446,2025-06-03 10:00:00,28.235,112.9736,44,长沙市,新河,开福区,1002.1,28.2,53,35.082479007372456,20.27445650372894
P5447,2025-06-03 10:00:00,27.9856,112.0058,250,长沙市,田坪,宁乡市,977.5,28.2,44,22.853336264108844,16.831624267246667
P5459,2025-06-03 10:00:00,28.0453,112.6447,80,长沙市,花明楼,宁乡市,998.2,27.0,58,40.343824022044494,20.68193683535441
P5463,2025-06-03 10:00:00,28.0794,112.9858,58,长沙市,黑石铺,天心区,998.8,28.1,51,35.12996995218193,19.395961497225418
P5467,2025-06-03 10:00:00,27.9956,113.4331,81,长沙市,书院,浏阳市,996.0,28.3,56,31.944874286560943,21.547243976340358
P5471,2025-06-03 10:00:00,27.9542,113.6558,145,长沙市,杨花,浏阳市,989.0,28.1,64,39.48766615262151,24.34003011416523
P5484,2025-06-03 10:00:00,28.0486,113.9253,154,长沙市,文家市,浏阳市,989.5,26.7,64,41.82394963992104,22.42194637912809
P5486,2025-06-03 10:00:00,28.0297,112.2636,128,长沙市,枫木桥,宁乡市,990.5,26.3,58,36.52211202597694,19.845785459209385
P5488,2025-06-03 10:00:00,28.0275,112.3783,80,长沙市,双盆,宁乡市,996.7,27.1,57,38.865996989379006,20.445178961726434
P5499,2025-06-03 10:00:00,28.0056,112.985,51,长沙市,花园岭,天心区,999.5,27.4,55,31.599373696963667,20.07825578253881
P5500,2025-06-03 10:00:00,28.1356,112.9936,91,长沙市,林科大,天心区,995.3,26.3,60,41.84859526874654,20.530122888837294
P5501,2025-06-03 10:00:00,28.1917,112.9411,49,长沙市,湖南师大,岳麓区,1000.1,26.6,60,42.15773973985731,20.89701111843574
P5508,2025-06-03 10:00:00,27.9989,112.1214,129,长沙市,流沙河,宁乡市,992.1,27.2,52,33.55143869754671,18.76162128098334
P5509,2025-06-03 10:00:00,27.9139,113.6867,90,长沙市,金刚,浏阳市,995.7,27.3,58,36.52150814114574,21.049611841925337
P5514,2025-06-03 10:00:00,27.9664,112.3169,106,长沙市,花果山,宁乡市,993.8,27.5,54,36.95693284189195,19.829071000549288
P5593,2025-06-03 10:00:00,28.3967,113.01,70,长沙市,北山文化站,长沙县,998.7,27.5,62,40.85864514282131,22.766711148778807
P5599,2025-06-03 10:00:00,28.2008,112.9164,37,长沙市,望城坡,岳麓区,1001.8,28.7,54,36.05156454504559,21.266708256890137
P5600,2025-06-03 10:00:00,28.3558,112.7844,64,长沙市,望城,望城区,1000.4,27.8,53,28.184320545693918,19.80656502975794
P5647,2025-06-03 10:00:00,28.1706,113.1258,41,长沙市,花园,长沙县,1001.2,29.2,48,28.68827940812564,19.459630375341792
P5648,2025-06-03 10:00:00,28.5453,113.4511,82,长沙市,龙华山,长沙县,991.5,28.3,60,32.89886195874788,23.086332831793236
P5653,2025-06-03 10:00:00,28.2256,113.0103,38,长沙市,马栏山,开福区,1001.4,28.4,55,33.990306167037346,21.286040356388938
P5700,2025-06-03 10:00:00,27.9969,113.1928,63.5,株洲市,云田,石峰区,998.9,28.1,56,49.91769832654153,21.29752634989458
P5702,2025-06-03 10:00:00,27.8203,113.1147,100,株洲市,神农湖,天元区,995.0,27.7,58,38.80243425443134,21.548726063755442
P5703,2025-06-03 10:00:00,27.9508,113.1778,62,株洲市,龙升,石峰区,999.4,27.5,62,43.93299480316506,22.766711148778807
P5704,2025-06-03 10:00:00,27.9656,113.23,83,株洲市,黄塘,荷塘区,996.8,28.0,56,35.9239827919945,21.17361854703
P5705,2025-06-03 10:00:00,27.9417,113.2475,115,株洲市,仙庾岭,荷塘区,995.3,24.9,73,44.64950317004407,22.98459550802121
P5706,2025-06-03 10:00:00,27.9267,113.0711,95,株洲市,白马,石峰区,999.6,27.2,58,43.268125225050426,20.926423736481414
P5707,2025-06-03 10:00:00,27.9567,113.1653,63,株洲市,龙头铺,石峰区,999.2,26.5,63,51.38067533279663,21.812787274322627
P5708,2025-06-03 10:00:00,27.8642,113.2342,116,株洲市,金山,荷塘区,993.0,25.6,75,36.94470420579794,24.61984998079398
P5709,2025-06-03 10:00:00,27.8803,113.0744,49,株洲市,清水塘,石峰区,1000.7,28.5,55,35.85914565519816,21.410238816808135
P5711,2025-06-03 10:00:00,27.9042,113.2058,52,株洲市,明照,荷塘区,1000.2,28.7,59,49.21927587958771,23.23584791030589
P5712,2025-06-03 10:00:00,27.9522,113.1381,54,株洲市,鸡嘴山,石峰区,1000.3,27.8,58,33.786465549005335,21.67510890048982
P5715,2025-06-03 10:00:00,27.6842,113.4639,62.2,株洲市,国瓷,醴陵市,997.6,27.6,59,33.16569927448468,21.792349572510187
P5716,2025-06-03 10:00:00,27.8286,113.4711,200.6,株洲市,横江,醴陵市,983.3,26.5,69,42.533398130414525,23.890195586162875
P5717,2025-06-03 10:00:00,27.8192,113.2322,76,株洲市,白关,芦淞区,999.6,28.2,61,42.58173021177617,23.334751825046514
P5718,2025-06-03 10:00:00,27.8486,113.2667,45,株洲市,大京水库,芦淞区,992.9,26.7,63,43.965278952509955,22.071603466954215
P5720,2025-06-03 10:00:00,27.7717,113.2061,71,株洲市,董家塅,芦淞区,998.1,26.9,78,54.61258048098534,27.650505887875468
P5721,2025-06-03 10:00:00,27.8081,113.0839,63,株洲市,栗雨,天元区,999.0,27.6,56,43.78548464810599,20.68426400102662
P5722,2025-06-03 10:00:00,27.8814,113.4278,123.5,株洲市,官庄水库,醴陵市,991.5,28.6,60,45.49259511243271,23.492803477106268
P5723,2025-06-03 10:00:00,27.8264,113.3458,109,株洲市,楠木山,芦淞区,994.1,26.9,68,49.58708902422677,24.105569235583744
P5724,2025-06-03 10:00:00,27.8683,113.6172,180,株洲市,洪源,醴陵市,985.8,27.1,67,42.873958926629705,24.032052463783703
P5726,2025-06-03 10:00:00,27.7992,113.1581,58,株洲市,新谭,芦淞区,1000.9,27.0,65,42.27333546865688,23.178032660310983
P5727,2025-06-03 10:00:00,27.8092,113.2158,67,株洲市,五里墩,芦淞区,999.6,26.7,69,49.23745573210828,24.173660939997472
P5728,2025-06-03 10:00:00,27.8492,113.3811,130,株洲市,老鸦坡水库,醴陵市,990.2,26.9,63,36.78430760491664,22.333100909437878
