Station_Id_C,Datetime,Station_Name,City,Cnty,Lat,Lon,Alti,PRS,TEM,RHU,VAP,PWV
57264,2025-06-03 05:00:00,武当山,十堰市,丹江口市,32.4261,111.0153,1017.5,898.1,23.0,58.0,16.289447337658235,27.80800000000002
57351,2025-06-03 05:00:00,坛子岭,宜昌市,夷陵区,30.8333,111.0167,231.0,982.6,25.4,62.0,20.11180852859954,41.29849999999993
57352,2025-06-03 05:00:00,三斗坪,宜昌市,夷陵区,30.8092,111.0003,185.3,987.7,25.7,63.0,20.803871464077837,48.49500000000001
57353,2025-06-03 05:00:00,苏家坳,宜昌市,夷陵区,30.8378,111.0164,191.8,987.0,24.9,61.0,19.20630583546978,39.359000000000094
57354,2025-06-03 05:00:00,神农顶,省直辖县级行政区划,神农架林区,31.4558,110.2711,2948.1,714.7,9.6,45.0,5.376102455915957,9.624000000000018
57367,2025-06-03 05:00:00,大老岭,宜昌市,夷陵区,31.0836,110.9406,1910.0,809.1,17.1,43.0,8.37918451968773,16.572000000000006
57451,2025-06-03 05:00:00,绿葱坡,恩施土家族苗族自治州,巴东县,30.8131,110.2539,1813.5,818.7,15.9,61.0,11.012661157330864,21.703000000000007
Q0004,2025-06-03 05:00:00,沪渝K1464,恩施土家族苗族自治州,利川市,30.2789,108.8711,1082.2,888.2,20.8,59.0,14.48658282858493,22.66749999999997
Q0005,2025-06-03 05:00:00,沪渝K1439,恩施土家族苗族自治州,利川市,30.2444,109.1197,1131.4,884.1,19.5,97.0,21.97549401797244,39.47849999999995
Q0007,2025-06-03 05:00:00,沪渝K1412,恩施土家族苗族自治州,恩施市,30.2389,109.3664,706.7,928.5,22.5,74.0,20.16184216424372,40.74700000000004
Q0008,2025-06-03 05:00:00,沪渝K1407,恩施土家族苗族自治州,巴东县,30.2439,109.4128,545.1,945.2,23.7,70.0,20.50904041057549,37.53499999999999
Q0010,2025-06-03 05:00:00,沪渝K1375,恩施土家族苗族自治州,恩施市,30.4114,109.5864,729.9,925.5,23.1,67.0,18.9314204028714,36.87575000000003
Q0011,2025-06-03 05:00:00,沪渝K1369,恩施土家族苗族自治州,恩施市,30.455,109.6258,624.1,936.4,23.5,66.0,19.10525306850856,33.557000000000016
Q0013,2025-06-03 05:00:00,沪渝K1351,恩施土家族苗族自治州,恩施市,30.4628,109.7828,780.1,919.5,21.6,69.0,17.79502234852211,30.76049999999999
Q0014,2025-06-03 05:00:00,沪渝K1343,恩施土家族苗族自治州,恩施市,30.4997,109.8508,903.4,906.9,21.9,68.0,17.861832529554263,30.82399999999999
Q0015,2025-06-03 05:00:00,沪渝K1336,恩施土家族苗族自治州,建始县,30.55,109.8914,879.8,909.1,22.1,72.0,19.14482347397754,36.626000000000055
Q0017,2025-06-03 05:00:00,沪渝K1313,恩施土家族苗族自治州,巴东县,30.6506,110.0908,794.9,918.2,22.3,59.0,15.880518288123785,32.291499999999985
Q0019,2025-06-03 05:00:00,沪渝K1305,恩施土家族苗族自治州,巴东县,30.6308,110.1639,865.2,910.6,22.4,64.0,17.33151565074548,30.65300000000001
Q0021,2025-06-03 05:00:00,沪渝K1291,恩施土家族苗族自治州,巴东县,30.6119,110.3097,1104.2,886.1,21.5,53.0,13.585180819385226,25.1515
Q0022,2025-06-03 05:00:00,沪渝k1283,恩施土家族苗族自治州,恩施市,30.6217,110.3864,923.0,918.2,21.4,65.0,16.559263187487883,33.06850000000004
Q0023,2025-06-03 05:00:00,秭归k48,宜昌市,市辖区,30.6325,111.3253,62.7,997.4,28.0,52.0,19.66121722224214,36.93399999999998
Q0026,2025-06-03 05:00:00,沪渝K1262,宜昌市,长阳土家族自治县,30.6247,110.6047,597.8,938.9,23.0,58.0,16.289447337658235,31.38550000000005
Q0028,2025-06-03 05:00:00,沪渝K1179,宜昌市,市辖区,30.5711,111.4003,54.9,999.0,28.2,52.0,19.89191958856424,35.78
Q0030,2025-06-03 05:00:00,沪渝K1208,宜昌市,长阳土家族自治县,30.5589,111.1281,241.9,981.3,26.8,59.0,20.792363787279783,27.770000000000003
Q0032,2025-06-03 05:00:00,沪渝K1097,荆州市,荆州区,30.3922,112.195,25.4,1003.7,27.6,52.0,19.20681657238186,30.682499999999983
Q0033,2025-06-03 05:00:00,沪渝K1069,荆州市,荆州区,30.3353,112.4733,25.4,1004.4,27.7,64.0,23.77790462207497,37.62949999999995
Q0034,2025-06-03 05:00:00,沪渝K1065,省直辖县级行政区划,潜江市,30.3383,112.5164,24.4,1004.0,27.9,52.0,19.54674532447904,31.37900000000002
Q0037,2025-06-03 05:00:00,沪渝K933,武汉市,蔡甸区,30.4533,113.8225,17.0,1004.5,27.8,64.0,23.91736154536808,41.68299999999999
Q0039,2025-06-03 05:00:00,沪渝k959,省直辖县级行政区划,仙桃市,30.3486,113.5853,15.2,1004.6,28.3,55.0,21.162471762477136,46.82349999999997
Q0040,2025-06-03 05:00:00,沪渝K982,省直辖县级行政区划,仙桃市,30.3631,113.3619,9.0,1005.0,27.3,64.0,23.227157894538305,32.845500000000015
Q0047,2025-06-03 05:00:00,黄黄785,黄冈市,浠水县,30.2406,115.1297,19.8,1005.7,26.9,53.0,18.78816425714615,35.0635
Q0049,2025-06-03 05:00:00,黄黄K761,黄冈市,蕲春县,30.1353,115.33,21.4,1005.3,26.1,61.0,20.62681654077157,42.73250000000001
Q0050,2025-06-03 05:00:00,黄黄K742,黄冈市,武穴市,30.0289,115.4664,41.4,1003.4,25.3,67.0,21.60473807547634,40.64150000000004
Q0051,2025-06-03 05:00:00,黄黄K730,黄冈市,武穴市,30.0039,115.5917,38.0,1004.5,23.9,71.0,21.054079330850968,38.51999999999992
Q0052,2025-06-03 05:00:00,黄黄K722,黄冈市,武穴市,30.0161,115.6708,42.5,1003.0,24.4,69.0,21.08479306022773,43.67117499999996
Q0053,2025-06-03 05:00:00,黄黄K714,黄冈市,武穴市,30.0278,115.7514,22.2,1005.4,24.7,75.0,23.333698455142983,41.63549999999993
Q0054,2025-06-03 05:00:00,黄黄K708,黄冈市,黄梅县,30.0278,115.8164,23.1,1005.8,24.5,75.0,23.056009632042866,42.92850000000001
Q0055,2025-06-03 05:00:00,黄黄K700,黄冈市,黄梅县,30.0333,115.8986,25.2,1005.2,24.6,64.0,19.792631694115524,36.13779166666665
Q0058,2025-06-03 05:00:00,大广K2491,黄石市,市辖区,30.1703,114.9136,25.0,1003.9,27.0,49.0,17.47267077469597,34.067499999999995
Q0061,2025-06-03 05:00:00,大广K2520,黄石市,大冶市,29.9158,114.8833,57.7,1000.8,26.6,55.0,19.15559352523276,28.121000000000016
Q0064,2025-06-03 05:00:00,大广K2552,黄石市,阳新县,29.6617,114.9464,23.5,1004.8,27.6,50.0,18.46809285805948,28.623499999999943
Q0065,2025-06-03 05:00:00,大广K2560,黄石市,阳新县,29.6053,114.9322,37.1,1002.1,26.8,55.0,19.382712005091328,28.47900000000001
Q0066,2025-06-03 05:00:00,大广K2583,咸宁市,通山县,29.4306,114.8339,281.9,973.9,25.4,57.0,18.489888485970543,34.671499999999995
Q0067,2025-06-03 05:00:00,杭瑞K731,咸宁市,崇阳县,29.3742,113.8803,81.0,996.8,27.4,55.0,20.07825578253881,33.35400000000007
Q0069,2025-06-03 05:00:00,杭瑞K679,咸宁市,通山县,29.5817,114.3203,81.0,994.2,26.6,55.0,19.15559352523276,32.58900000000001
Q0071,2025-06-03 05:00:00,杭瑞K640,咸宁市,通山县,29.7172,114.6692,128.1,992.5,26.6,52.0,18.110742969310973,41.0115
Q0072,2025-06-03 05:00:00,杭瑞K620,黄石市,阳新县,29.7147,114.8767,167.3,988.8,25.0,64.0,20.271548391598625,36.66949999999995
Q0074,2025-06-03 05:00:00,杭瑞K583,黄石市,阳新县,29.7067,115.2367,54.2,1000.8,26.3,55.0,18.819279314767524,28.642000000000003
Q0079,2025-06-03 05:00:00,福银K1447,十堰市,郧西县,33.08,110.3,444.3,958.3,24.3,71.0,21.566219835014017,33.400500000000044
Q0080,2025-06-03 05:00:00,福银K1421,十堰市,郧西县,32.95,110.5,395.1,963.3,25.0,62.0,19.63806250436117,32.18850000000005
Q0081,2025-06-03 05:00:00,福银K1405,十堰市,郧西县,32.86,110.65,275.8,975.1,26.0,61.0,20.505028740487035,33.118
Q0082,2025-06-03 05:00:00,福银K1398,十堰市,郧西县,32.82,110.7,205.1,983.2,26.7,59.0,20.67023181825871,40.646
Q0083,2025-06-03 05:00:00,福银K1338,十堰市,丹江口市,32.51,111.14,162.4,988.3,25.6,66.0,21.665467983098704,37.04850000000001
Q0084,2025-06-03 05:00:00,福银K1364,十堰市,丹江口市,32.63,110.86,199.4,984.0,27.1,53.0,19.01042956090353,40.65549999999998
Q0087,2025-06-03 05:00:00,福银K1277,襄阳市,谷城县,32.28,111.66,73.4,998.3,27.4,58.0,21.17343337067729,32.13749999999994
Q0089,2025-06-03 05:00:00,福银K1234,襄阳市,市辖区,32.19,112.1,76.5,998.2,26.9,51.0,18.079176926687804,31.87799999999997
Q0093,2025-06-03 05:00:00,福银K1103,随州市,市辖区,31.67,113.26,101.0,995.6,26.9,61.0,21.62411357897953,36.38950000000004
Q0094,2025-06-03 05:00:00,福银K1093,随州市,市辖区,31.6,113.33,83.0,998.0,27.5,64.0,23.50112118583619,41.37749999999996
Q0095,2025-06-03 05:00:00,福银K1076,随州市,市辖区,31.48,113.43,110.0,994.7,30.4,48.0,20.852373741048325,43.34800000000001
Q0096,2025-06-03 05:00:00,福银K1064,孝感市,安陆市,31.39,113.51,97.7,996.9,28.4,58.0,22.447097103101058,36.88349999999992
Q0100,2025-06-03 05:00:00,福银K993,孝感市,市辖区,30.98,114.05,29.2,1003.5,28.6,57.0,22.31816330325095,35.53700000000003
Q0103,2025-06-03 05:00:00,襄荆K1620,荆门市,钟祥市,31.54,112.28,56.7,1000.3,27.2,5.0,1.8040020462483983,6.124999999999995
Q0104,2025-06-03 05:00:00,襄荆K1634,荆门市,钟祥市,31.42,112.34,68.6,999.5,27.5,62.0,22.766711148778807,34.97899999999997
Q0106,2025-06-03 05:00:00,襄荆K1685,荆门市,市辖区,30.99,112.27,51.3,1000.4,27.4,61.0,22.26861095881577,35.958499999999994
Q0107,2025-06-03 05:00:00,襄荆K1704,荆门市,市辖区,30.82,112.24,75.1,998.4,27.0,59.0,21.03852195320535,31.935999999999968
Q0108,2025-06-03 05:00:00,襄荆K1715交通气象站,荆门市,沙洋县,30.7,112.22,50.4,1001.4,27.0,5.0,1.782925589254691,8.202999999999998
Q0109,2025-06-03 05:00:00,襄荆K1745,荆门市,沙洋县,30.45,112.21,42.3,1003.3,27.0,69.0,24.60437313171473,46.42750000000004
Q0600,2025-06-03 05:00:00,洪湖石码头,荆州市,洪湖市,29.8361,113.5272,26.0,1004.5,28.3,53.0,20.39292733475069,25.445499999999974
Q0603,2025-06-03 05:00:00,石首海事码头,荆州市,石首市,29.7378,112.4081,20.0,1003.8,28.6,60.0,23.492803477106268,34.255
Q0604,2025-06-03 05:00:00,公安航道码头,荆州市,公安县,30.0744,112.215,11.0,1003.3,28.2,57.0,21.80460416438773,27.967500000000005
Q0605,2025-06-03 05:00:00,江陵航道码头,荆州市,江陵县,30.03,112.4025,50.0,1003.3,27.1,62.0,22.238615712755067,36.06299999999997
Q0606,2025-06-03 05:00:00,杨林矶海事码头,荆州市,市辖区,30.3206,112.2025,15.0,1003.2,26.7,68.0,23.8233180278236,43.38700000000003
Q0607,2025-06-03 05:00:00,阳逻海事水上搜救中心,武汉市,新洲区,30.6586,114.5494,40.0,1004.4,25.3,70.0,22.572114407214084,40.04250000000001
Q0608,2025-06-03 05:00:00,金口航道码头,武汉市,江夏区,30.3672,114.1486,0.0,1004.6,25.2,65.0,20.83533088213164,32.80649999999997
Q0609,2025-06-03 05:00:00,嘉鱼簰洲湾海事站房,咸宁市,嘉鱼县,30.2064,113.9283,20.0,1004.6,25.8,68.0,22.588639942267765,34.07900000000001
Q0611,2025-06-03 05:00:00,秭归泄滩小学,宜昌市,秭归县,31.0047,110.6128,194.5,985.6,23.7,74.0,21.6809855768941,36.32300000000004
Q0612,2025-06-03 05:00:00,长江航道宜昌综合码头,宜昌市,宜都市,30.5539,111.39,40.0,1001.9,28.1,58.0,22.05815229096224,43.356499999999926
Q0613,2025-06-03 05:00:00,宜昌海事局孙家河执法队,宜昌市,宜都市,30.4106,111.5064,60.0,1002.5,25.8,69.0,22.920825823771697,39.507999999999896
Q0614,2025-06-03 05:00:00,松滋河口,宜昌市,宜都市,30.3075,111.6236,40.0,1002.4,27.2,62.0,22.369625373480137,41.931333333333306
Q0615,2025-06-03 05:00:00,枝江姚港,宜昌市,枝江市,30.3725,111.64,50.0,1002.8,28.0,57.0,21.55171887822696,39.42049999999999
Q0616,2025-06-03 05:00:00,枝江七星台,宜昌市,枝江市,30.4125,111.8875,40.0,1003.1,27.1,55.0,19.727804261314983,35.524
Q0617,2025-06-03 05:00:00,监利何王庙,荆州市,监利市,29.7708,113.0303,40.0,1004.0,28.0,53.0,20.039317553439105,29.42449999999998
Q0618,2025-06-03 05:00:00,监利三洲,荆州市,监利市,29.6517,112.9492,30.0,1004.1,27.1,17.0,6.097684953497359,10.020000000000003
Q0619,2025-06-03 05:00:00,洪湖龙口汽渡码头,荆州市,洪湖市,29.9542,113.8303,30.0,1004.4,27.7,57.0,21.17719630403552,32.66199999999999
Q0701,2025-06-03 05:00:00,水口白灯船,武汉市,新洲区,30.6869,114.5175,4.0,1004.0,25.0,71.0,22.48874899692973,38.00099999999998
Q0702,2025-06-03 05:00:00,牧鹅洲白灯船,武汉市,新洲区,30.5583,114.6317,4.0,1004.2,25.8,62.0,20.595524653244134,30.601
Q0704,2025-06-03 05:00:00,沙市河段航道整治一期工程提示标,荆州市,沙市区,30.3142,112.2003,8.0,1002.4,26.1,61.0,20.62681654077157,36.44399999999992
Q0705,2025-06-03 05:00:00,公安大桥进口白泵船,荆州市,公安县,30.0753,112.3128,7.0,1002.5,26.5,63.0,21.812787274322627,27.751500000000043
Q0707,2025-06-03 05:00:00,桃花洲中提示标,荆州市,洪湖市,29.7636,112.6675,6.0,1003.1,26.5,52.0,18.004205369282168,29.19250000000004
Q0725,2025-06-03 05:00:00,天兴洲航道整治建筑物上提示标,武汉市,江岸区,30.6411,114.3525,4.0,1003.9,24.8,63.0,19.7178554451162,37.7925
Q0729,2025-06-03 05:00:00,黄冈大桥#1红浮,黄冈市,市辖区,30.5308,114.8308,4.0,1003.9,25.3,61.0,19.669985412000848,33.05849999999997
Q0737,2025-06-03 05:00:00,李家洲#3红浮,黄冈市,市辖区,30.1289,115.2844,3.0,1004.5,24.5,62.0,19.059634629155436,41.83000000000002
Q1000,2025-06-03 05:00:00,江滩,武汉市,江岸区,30.5944,114.3017,28.8,1004.8,27.8,54.0,20.18027380390432,31.925499999999992
Q1001,2025-06-03 05:00:00,潘塘,武汉市,新洲区,30.9978,114.8886,62.0,999.5,27.2,60.0,21.648024554980772,37.07650000000002
Q1002,2025-06-03 05:00:00,三店,武汉市,新洲区,30.9278,114.7925,28.0,1004.3,27.3,59.0,21.4125361840275,31.540500000000048
Q1003,2025-06-03 05:00:00,李集,武汉市,新洲区,30.8803,114.6789,24.6,1004.7,27.4,65.0,23.72884774300041,43.921000000000014
Q1004,2025-06-03 05:00:00,旧街,武汉市,新洲区,30.8169,114.8717,27.0,1004.4,26.7,62.0,21.72126055478034,33.94200000000003
Q1005,2025-06-03 05:00:00,辛冲,武汉市,新洲区,30.7997,114.8161,40.0,1003.4,27.3,58.0,21.049611841925337,34.84100000000003
Q1006,2025-06-03 05:00:00,汪集,武汉市,新洲区,30.8086,114.73,37.0,1003.2,27.4,59.0,21.53849256672345,32.82749999999998
Q1007,2025-06-03 05:00:00,仓埠,武汉市,江岸区,30.8736,114.6136,28.8,1002.2,27.5,62.0,22.766711148778807,36.65249999999999
Q1008,2025-06-03 05:00:00,凤凰,武汉市,新洲区,30.9403,114.7225,67.0,1001.0,26.6,64.0,22.29014519299812,31.34000000000003
Q1010,2025-06-03 05:00:00,化工,武汉市,洪山区,30.5064,114.3839,40.8,1003.7,27.9,54.0,20.298543221574384,31.97600000000005
Q1011,2025-06-03 05:00:00,五一大队,武汉市,东西湖区,30.7475,114.0272,26.0,1005.2,28.4,62.0,23.99517276538389,51.849500000000006
Q1013,2025-06-03 05:00:00,湖北省农科院,武汉市,洪山区,30.4836,114.3192,31.0,1004.9,28.1,58.0,22.05815229096224,36.142000000000046
Q1014,2025-06-03 05:00:00,花山工作基地,武汉市,市辖区,30.5325,114.5006,41.0,1002.8,27.1,61.0,21.879928362549343,37.66
Q1016,2025-06-03 05:00:00,湖北省预备役师,武汉市,洪山区,30.5333,114.5058,29.0,1003.9,28.2,59.0,22.56967799471712,37.8445
Q1017,2025-06-03 05:00:00,和平公园,武汉市,青山区,30.6381,114.3803,22.0,1004.8,27.5,57.0,20.930686056135357,32.675
Q1018,2025-06-03 05:00:00,纱帽,武汉市,汉南区,30.3322,114.0706,19.0,1004.9,27.0,62.0,22.108277306758165,43.23700000000007
Q1019,2025-06-03 05:00:00,湘口,武汉市,汉南区,30.2669,113.8478,25.0,1005.1,27.4,62.0,22.63367015486193,40.94100000000005
Q1020,2025-06-03 05:00:00,邓南,武汉市,汉南区,30.3078,113.9783,27.0,1004.6,26.7,71.0,24.87434676434523,42.92400000000001
Q1021,2025-06-03 05:00:00,东荆,武汉市,汉南区,30.3461,113.9131,24.0,1004.9,27.4,66.0,24.093906939046573,38.276999999999965
Q1022,2025-06-03 05:00:00,气象预警中心,武汉市,东西湖区,30.6703,114.1803,32.0,1005.0,29.5,52.0,21.449968757650183,35.74299999999998
Q1023,2025-06-03 05:00:00,建和分校,武汉市,洪山区,30.4614,114.2383,23.2,1005.2,27.1,58.0,20.80386631193216,31.574500000000004
Q1024,2025-06-03 05:00:00,实验小学,武汉市,东西湖区,30.6242,114.1408,26.0,1005.1,30.3,50.0,21.596957580614813,29.061500000000013
Q1025,2025-06-03 05:00:00,白玉公园,武汉市,青山区,30.6014,114.4875,25.0,1016.7,28.9,57.0,22.710236056536047,29.549500000000037
Q1026,2025-06-03 05:00:00,沌阳,武汉市,汉南区,30.455,114.1294,28.0,1004.9,28.7,59.0,23.23584791030589,35.4425
Q1027,2025-06-03 05:00:00,华师,武汉市,洪山区,30.5183,114.3594,43.1,1002.9,27.9,58.0,21.802139015765075,36.94299999999998
Q1028,2025-06-03 05:00:00,常青路,武汉市,东西湖区,30.6731,114.2292,24.0,1005.1,28.6,52.0,20.360429680158767,31.482
Q1029,2025-06-03 05:00:00,光谷二十七小学,武汉市,洪山区,30.5644,114.4858,26.8,1004.5,27.2,58.0,20.92642373648141,31.307
Q1030,2025-06-03 05:00:00,材保所,武汉市,东西湖区,30.6772,114.2828,35.0,1005.0,29.3,49.0,19.98026573291509,33.99300000000006
Q1031,2025-06-03 05:00:00,湖北省第二师范,武汉市,洪山区,30.4789,114.4464,35.0,1003.7,27.2,59.0,21.28722414573109,31.54350000000004
Q1032,2025-06-03 05:00:00,百步亭社区,武汉市,江岸区,30.6644,114.3136,26.0,1005.3,28.4,53.0,20.51200252524752,30.73950000000001
Q1033,2025-06-03 05:00:00,南湖社区,武汉市,武昌区,30.5133,114.3114,19.0,1005.3,28.1,55.0,20.917213379360746,34.27500000000004
Q1036,2025-06-03 05:00:00,东湖落雁景区,武汉市,市辖区,30.5517,114.4369,23.0,1005.1,27.7,62.0,23.03484510263513,37.88550000000001
Q1038,2025-06-03 05:00:00,天兴洲,武汉市,洪山区,30.6708,114.41,25.0,1004.7,28.3,59.0,22.701560617930017,33.42300000000001
Q1039,2025-06-03 05:00:00,光谷二十一小学,武汉市,洪山区,30.5031,114.4803,45.3,1002.9,28.6,56.0,21.92661657863252,38.70649999999995
Q1040,2025-06-03 05:00:00,五云,武汉市,江岸区,30.7594,114.6317,24.0,1003.2,28.0,58.0,21.92981920942392,33.17600000000002
Q1041,2025-06-03 05:00:00,鄢家湖,武汉市,江岸区,30.6386,114.5739,11.5,1005.0,27.8,61.0,22.796235222928956,29.106000000000044
Q1042,2025-06-03 05:00:00,席家岗,武汉市,江岸区,30.8764,114.4739,32.5,1003.6,27.6,66.0,24.37788257263852,34.521499999999975
Q1043,2025-06-03 05:00:00,六指中心福利院,武汉市,江岸区,30.8822,114.5217,39.2,1003.4,26.7,63.0,22.071603466954212,41.86850000000004
Q1044,2025-06-03 05:00:00,青华,武汉市,江岸区,30.8683,114.5803,42.3,1003.1,27.4,63.0,22.998729350908093,37.57749999999992
Q1045,2025-06-03 05:00:00,大咀,武汉市,江岸区,30.7972,114.4647,31.3,1003.3,27.4,62.0,22.63367015486193,40.13649999999996
Q1052,2025-06-03 05:00:00,武汉植物园,武汉市,洪山区,30.5447,114.42,23.3,1005.0,27.5,59.0,21.665096093192737,45.245499999999886
Q1054,2025-06-03 05:00:00,湖大,武汉市,武昌区,30.5814,114.3311,23.0,1005.1,28.0,54.0,20.41741788463607,30.18700000000003
Q1057,2025-06-03 05:00:00,林业站,武汉市,洪山区,30.6369,114.5061,33.0,1005.2,29.1,57.0,22.97494771944654,44.33250000000002
Q1061,2025-06-03 05:00:00,青山,武汉市,青山区,30.6411,114.4039,33.5,1004.3,27.5,56.0,20.563481037606667,32.39099999999998
Q1071,2025-06-03 05:00:00,士官学校,武汉市,洪山区,30.51,114.4581,35.0,1004.3,27.6,52.0,19.20681657238186,30.083499999999976
Q1072,2025-06-03 05:00:00,堤角公园,武汉市,江岸区,30.6664,114.335,27.0,1004.8,29.3,54.0,22.019068358722752,40.894499999999965
Q1073,2025-06-03 05:00:00,湖北省移动公司,武汉市,江汉区,30.6272,114.2394,25.0,1005.0,28.5,53.0,20.63168467801511,38.24949999999991
Q1081,2025-06-03 05:00:00,汉南,武汉市,汉南区,30.255,114.0589,22.1,1005.2,26.7,57.0,19.969545993910955,33.03800000000003
Q1082,2025-06-03 05:00:00,沌口,武汉市,汉南区,30.4769,114.1631,18.1,1004.7,27.4,65.0,23.72884774300041,38.93424999999995
Q1083,2025-06-03 05:00:00,春笋,武汉市,汉南区,30.4156,114.1306,21.6,1005.2,27.9,59.0,22.178037964312757,36.68250000000005
Q1084,2025-06-03 05:00:00,恒大农业,武汉市,汉南区,30.3267,114.0014,23.3,1005.1,27.4,65.0,23.72884774300041,39.50949999999995
Q1085,2025-06-03 05:00:00,武湖湿地,武汉市,汉南区,30.2131,113.8472,22.6,1005.3,26.6,63.0,21.94186167435753,29.978000000000065
Q1086,2025-06-03 05:00:00,喜鹊湖,武汉市,汉南区,30.22,113.8256,21.3,1005.4,28.5,55.0,21.410238816808132,32.67350000000004
Q1087,2025-06-03 05:00:00,龙灵山,武汉市,汉南区,30.4258,114.1092,33.7,1003.9,27.6,63.0,23.269797001154945,37.51560833333335
Q1088,2025-06-03 05:00:00,武汉西,武汉市,汉南区,30.4586,114.0606,29.0,1004.2,27.7,64.0,23.77790462207497,41.97274999999994
Q1101,2025-06-03 05:00:00,道观河,武汉市,新洲区,30.8781,114.9839,83.0,997.1,27.5,62.0,22.766711148778807,52.575999999999965
Q1102,2025-06-03 05:00:00,阳逻,武汉市,江岸区,30.6969,114.5339,25.0,1005.1,27.7,64.0,23.77790462207497,45.46350000000007
Q1103,2025-06-03 05:00:00,涨渡湖,武汉市,新洲区,30.6675,114.7861,18.7,1005.5,27.8,56.0,20.927691352197076,38.23150000000007
Q1104,2025-06-03 05:00:00,双柳,武汉市,新洲区,30.5964,114.6472,23.0,1004.9,27.2,61.0,22.008824964230456,37.45799999999997
Q1105,2025-06-03 05:00:00,将军山,武汉市,新洲区,30.8894,115.0589,344.5,968.5,25.6,65.0,21.33720331668812,40.93499999999995
Q1106,2025-06-03 05:00:00,徐古,武汉市,新洲区,30.9481,114.9694,73.0,999.0,27.1,57.0,20.445178961726437,37.84700000000009
Q1107,2025-06-03 05:00:00,徐治湾,武汉市,新洲区,30.8731,114.7681,25.0,1004.3,28.0,60.0,22.68601987181785,38.60400000000005
Q1108,2025-06-03 05:00:00,方院,武汉市,新洲区,30.9156,114.6519,39.3,1003.0,27.4,67.0,24.458966135092734,38.55849999999995
Q1109,2025-06-03 05:00:00,杨裴,武汉市,江岸区,30.7858,114.5475,31.6,1003.7,28.7,59.0,23.23584791030589,39.70500000000001
Q1111,2025-06-03 05:00:00,陈家田,武汉市,新洲区,30.975,114.7111,51.1,1001.7,27.7,64.0,23.77790462207497,33.244999999999976
Q1112,2025-06-03 05:00:00,大雾山,武汉市,新洲区,30.8286,114.9725,196.4,985.1,27.6,58.0,21.422987715348995,46.81400000000004
Q1113,2025-06-03 05:00:00,王寨,武汉市,新洲区,30.8742,114.8856,30.1,1004.0,28.3,55.0,21.162471762477136,33.82400000000003
Q1114,2025-06-03 05:00:00,春光,武汉市,新洲区,30.9244,114.6972,55.4,1001.2,27.0,61.0,21.751692188907228,29.73100000000004
Q1115,2025-06-03 05:00:00,易河,武汉市,新洲区,30.9389,114.9081,36.0,1003.2,27.8,60.0,22.422526448782573,33.427000000000014
Q1116,2025-06-03 05:00:00,李岗,武汉市,新洲区,30.9575,114.87,60.0,1000.6,27.9,61.0,22.9298358614081,35.821499999999986
Q1117,2025-06-03 05:00:00,徐寨,武汉市,新洲区,30.9631,114.7978,28.0,1004.4,27.1,62.0,22.238615712755067,33.861500000000035
Q1118,2025-06-03 05:00:00,陈路,武汉市,新洲区,30.6256,114.7536,22.2,1005.2,27.9,62.0,23.305734809955773,36.120000000000005
Q1119,2025-06-03 05:00:00,滨湖,武汉市,新洲区,30.6903,114.705,26.5,1004.6,27.3,65.0,23.59008223664047,44.78600000000006
Q1120,2025-06-03 05:00:00,航天新城,武汉市,新洲区,30.5981,114.6917,22.5,1005.1,27.4,60.0,21.90355176276961,37.80800000000002
Q1121,2025-06-03 05:00:00,大泊,武汉市,新洲区,30.7686,114.6692,20.6,1005.1,27.0,69.0,24.60437313171473,42.10099999999997
Q1122,2025-06-03 05:00:00,冯铺,武汉市,新洲区,30.7528,114.7064,23.9,1004.9,27.1,59.0,21.16255366213789,36.22300000000003
Q1123,2025-06-03 05:00:00,人胜,武汉市,新洲区,30.8286,114.6825,23.6,1004.8,26.5,67.0,23.197726148882797,42.83899999999995
Q1124,2025-06-03 05:00:00,杨铺,武汉市,新洲区,30.7658,114.815,35.4,1003.6,27.9,54.0,20.298543221574384,35.37800000000002
Q1125,2025-06-03 05:00:00,朱岗,武汉市,新洲区,30.7722,114.8658,39.5,1003.1,26.6,62.0,21.59357815571693,32.29800000000001
Q1126,2025-06-03 05:00:00,毛集,武汉市,新洲区,30.6581,114.6303,22.0,1003.6,27.4,63.0,22.998729350908093,40.34300000000001
Q1128,2025-06-03 05:00:00,王瓦,武汉市,新洲区,30.7972,114.6519,13.8,1004.8,27.4,65.0,23.72884774300041,43.63500000000002
Q1129,2025-06-03 05:00:00,四道沟,武汉市,新洲区,30.73,114.7775,20.2,1005.3,27.5,57.0,20.930686056135357,39.83400000000009
Q1130,2025-06-03 05:00:00,道观河水库,武汉市,新洲区,30.8692,115.0061,92.7,996.7,28.6,56.0,21.92661657863252,35.70400000000005
Q1131,2025-06-03 05:00:00,大屋冲,武汉市,新洲区,30.9228,115.0169,109.7,994.8,26.6,61.0,21.24529463707633,44.63250000000004
Q1132,2025-06-03 05:00:00,凤凰镇中心小学,武汉市,新洲区,30.9228,114.7528,34.0,1002.0,28.6,56.0,21.92661657863252,29.15283333333338
Q1133,2025-06-03 05:00:00,旧街利河小学,武汉市,新洲区,30.8536,114.9625,31.0,1002.4,27.5,62.0,22.766711148778807,32.51000000000001
Q1134,2025-06-03 05:00:00,双柳汉昕小学,武汉市,新洲区,30.6467,114.8336,15.0,1005.3,27.8,54.0,20.18027380390432,34.09750000000006
Q1135,2025-06-03 05:00:00,刘六,武汉市,新洲区,30.8819,114.8447,32.0,1002.7,26.8,62.0,21.849602623921133,32.970000000000006
Q1136,2025-06-03 05:00:00,涨渡湖湿地森林公园,武汉市,新洲区,30.6756,114.7642,28.8,1005.5,27.1,58.0,20.80386631193216,40.07250000000005
Q1191,2025-06-03 05:00:00,紫薇都市田园,武汉市,江岸区,30.8192,114.6042,35.7,1003.3,28.2,61.0,23.334751825046517,38.45550000000001
Q1199,2025-06-03 05:00:00,邾城,武汉市,新洲区,30.8331,114.7997,26.4,1004.4,27.3,56.0,20.323763157721014,29.87500000000003
Q1201,2025-06-03 05:00:00,姚家集,武汉市,黄陂区,31.2047,114.3831,48.5,1002.1,28.6,59.0,23.101256752487828,33.01599999999996
Q1202,2025-06-03 05:00:00,蔡家榨,武汉市,黄陂区,30.9883,114.5211,88.0,997.9,28.8,60.0,23.76724423239467,43.394000000000005
Q1203,2025-06-03 05:00:00,李家集,武汉市,黄陂区,30.9947,114.2333,37.5,1002.1,28.9,61.0,24.303936832433315,36.76150000000008
Q1204,2025-06-03 05:00:00,天河机场,武汉市,黄陂区,30.8131,114.2119,35.0,1003.1,27.5,56.0,20.563481037606667,31.491499999999963
Q1207,2025-06-03 05:00:00,蔡店,武汉市,黄陂区,31.2856,114.3106,67.0,999.7,29.0,62.0,24.845963758406494,40.095000000000006
Q1208,2025-06-03 05:00:00,祁家湾,武汉市,黄陂区,30.8853,114.2261,41.0,1003.1,28.2,57.0,21.80460416438773,39.00950000000008
Q1209,2025-06-03 05:00:00,横店,武汉市,黄陂区,30.8003,114.2903,38.0,1002.4,27.7,52.0,19.31954750543592,28.89484999999999
Q1210,2025-06-03 05:00:00,盘龙城,武汉市,黄陂区,30.7506,114.3008,30.0,1002.9,28.3,52.0,20.008155120887476,30.088750000000005
Q1212,2025-06-03 05:00:00,夏家寺水库,武汉市,黄陂区,31.0553,114.4678,49.0,1001.1,29.3,56.0,22.83458940904581,32.518
Q1213,2025-06-03 05:00:00,刘家山,武汉市,黄陂区,31.3047,114.2033,537.0,948.7,24.6,69.0,21.338931045218292,44.123000000000026
Q1214,2025-06-03 05:00:00,三里桥,武汉市,江岸区,30.7583,114.4194,23.0,1005.4,29.2,58.0,23.51372003687133,44.82449999999995
Q1215,2025-06-03 05:00:00,罗汉寺,武汉市,黄陂区,30.9933,114.3361,48.0,1002.2,28.5,59.0,22.967347094394174,37.67300000000006
Q1216,2025-06-03 05:00:00,长轩岭,武汉市,黄陂区,31.1075,114.3617,49.0,1002.3,27.9,59.0,22.178037964312757,36.576
Q1217,2025-06-03 05:00:00,现代农展中心,武汉市,江岸区,30.7003,114.5036,21.0,1005.2,27.8,65.0,24.29107031951446,45.79950000000001
Q1218,2025-06-03 05:00:00,源泉,武汉市,黄陂区,31.2347,114.23,100.2,994.2,28.6,57.0,22.31816330325095,34.95899999999997
Q1219,2025-06-03 05:00:00,矿巴水库,武汉市,黄陂区,31.0919,114.2014,105.3,997.1,27.6,64.0,23.639158858316133,38.18899999999994
Q1220,2025-06-03 05:00:00,武湖,武汉市,江岸区,30.7003,114.4181,29.0,1004.8,27.6,58.0,21.422987715348995,36.26349999999999
Q1221,2025-06-03 05:00:00,滠口,武汉市,黄陂区,30.7122,114.3606,17.3,1004.2,27.2,59.0,21.28722414573109,36.31700000000003
Q1222,2025-06-03 05:00:00,农科院北区,武汉市,江岸区,30.7164,114.4722,28.0,1004.9,28.8,61.0,24.16336496960125,41.56949999999996
Q1224,2025-06-03 05:00:00,崇杰,武汉市,黄陂区,31.2561,114.3842,50.2,1001.7,28.2,57.0,21.80460416438773,34.951500000000095
Q1225,2025-06-03 05:00:00,梅店水库,武汉市,黄陂区,31.1831,114.3153,65.1,999.7,28.8,62.0,24.559485706807827,40.82
Q1226,2025-06-03 05:00:00,道士冲,武汉市,黄陂区,31.2664,114.2336,106.9,994.8,28.4,63.0,24.3821916809546,46.31650000000003
Q1227,2025-06-03 05:00:00,姚家老屋,武汉市,黄陂区,31.2417,114.2836,87.3,997.0,29.0,61.0,24.445222407464456,40.42749999999999
Q1228,2025-06-03 05:00:00,双墩,武汉市,黄陂区,30.8536,114.1789,22.0,1003.3,28.0,62.0,23.44222053421178,33.77300000000004
Q1229,2025-06-03 05:00:00,红旗,武汉市,黄陂区,30.9553,114.1625,21.6,1003.3,27.8,62.0,23.16994399707533,45.88549999999997
Q1230,2025-06-03 05:00:00,同兴集,武汉市,黄陂区,31.1272,114.4814,46.7,1000.5,30.0,55.0,23.35066493574461,39.86099999999996
Q1231,2025-06-03 05:00:00,磨盘,武汉市,黄陂区,31.1839,114.4325,61.2,998.6,28.5,59.0,22.967347094394174,40.487
Q1232,2025-06-03 05:00:00,吊箭楼,武汉市,黄陂区,31.1419,114.4219,73.8,997.2,28.2,63.0,24.09982565537591,35.62450000000004
Q1233,2025-06-03 05:00:00,卧虎,武汉市,黄陂区,31.035,114.3906,29.0,1002.6,27.5,60.0,22.032301111721427,37.90300000000001
Q1234,2025-06-03 05:00:00,院基寺水库,武汉市,黄陂区,31.0972,114.315,48.5,1000.1,27.8,65.0,24.29107031951446,40.61700000000005
Q1235,2025-06-03 05:00:00,彭家冲,武汉市,黄陂区,31.0725,114.2422,86.4,998.3,28.4,60.0,23.221134934242475,44.02250000000001
Q1236,2025-06-03 05:00:00,红十月水库,武汉市,黄陂区,30.9511,114.4708,49.0,1000.5,27.3,62.0,22.501309210333982,41.70999999999998
Q1237,2025-06-03 05:00:00,北新,武汉市,黄陂区,31.0414,114.3053,60.4,998.9,27.5,60.0,22.032301111721427,38.89099999999996
Q1238,2025-06-03 05:00:00,余家冲水库,武汉市,黄陂区,31.3386,114.2825,96.0,994.3,29.1,62.0,24.990294010626062,44.3455
Q1239,2025-06-03 05:00:00,官家砦,武汉市,黄陂区,31.0269,114.1628,34.0,1002.1,26.9,66.0,23.396581905125394,40.29899999999992
Q1243,2025-06-03 05:00:00,定正,武汉市,黄陂区,30.9133,114.4825,21.0,1003.2,27.6,65.0,24.008520715477324,36.629500000000064
Q1244,2025-06-03 05:00:00,黄陂石门,武汉市,黄陂区,31.1486,114.3,62.7,998.9,29.4,60.0,24.607439154101236,37.90499999999995
Q1245,2025-06-03 05:00:00,仁和,武汉市,黄陂区,31.25,114.3386,27.9,1001.6,28.5,60.0,23.356624163790688,35.66099999999995
Q1246,2025-06-03 05:00:00,帽子村,武汉市,黄陂区,31.1961,114.4222,55.1,999.1,28.5,59.0,22.967347094394174,42.9875
Q1247,2025-06-03 05:00:00,白庙集,武汉市,黄陂区,30.9967,114.2653,53.0,1002.2,27.6,58.0,21.422987715348995,34.19899999999996
Q1248,2025-06-03 05:00:00,白龙寺,武汉市,黄陂区,30.9969,114.4553,28.8,1004.0,27.6,62.0,22.900435143993757,44.277499999999975
Q1250,2025-06-03 05:00:00,童家湖,武汉市,黄陂区,30.7614,114.1772,14.3,1004.6,28.7,54.0,21.266708256890137,34.25633333333331
Q1251,2025-06-03 05:00:00,艾馆,武汉市,黄陂区,30.9539,114.6003,55.1,999.5,27.0,58.0,20.68193683535441,35.52649999999996
Q1252,2025-06-03 05:00:00,全华,武汉市,黄陂区,30.8608,114.2969,43.9,1001.0,26.8,60.0,21.1447767328269,36.419999999999966
Q1253,2025-06-03 05:00:00,下店,武汉市,黄陂区,30.9294,114.3856,35.8,1002.1,27.3,62.0,22.501309210333982,39.56999999999999
Q1254,2025-06-03 05:00:00,黄陂郑店,武汉市,黄陂区,30.9661,114.2142,32.9,1001.8,30.3,60.0,25.916349096737772,40.1805
Q1255,2025-06-03 05:00:00,茶庙,武汉市,黄陂区,31.2994,114.4211,65.4,998.1,29.4,55.0,22.5568192245928,38.513000000000034
Q1270,2025-06-03 05:00:00,木兰天池,武汉市,黄陂区,31.1797,114.2817,337.8,970.8,25.5,74.0,24.1476274684733,42.77349999999997
Q1271,2025-06-03 05:00:00,云雾山,武汉市,黄陂区,31.1264,114.2086,122.0,993.7,26.7,66.0,23.122632203475845,37.38699999999996
Q1301,2025-06-03 05:00:00,老屋汤,武汉市,江夏区,30.3508,114.4364,20.5,1005.5,25.7,70.0,23.11541273786425,39.82649999999999
Q1302,2025-06-03 05:00:00,安山,武汉市,江夏区,30.1533,114.2303,42.0,1003.2,26.7,58.0,20.31988890608483,34.843500000000006
Q1303,2025-06-03 05:00:00,金口,武汉市,江夏区,30.3481,114.1275,27.6,1004.8,27.9,56.0,21.05034111866973,34.87500000000006
Q1304,2025-06-03 05:00:00,郑店,武汉市,江夏区,30.285,114.2281,32.6,1004.8,26.8,60.0,21.1447767328269,29.886999999999983
Q1305,2025-06-03 05:00:00,法泗,武汉市,江夏区,30.1131,114.1917,24.0,1005.2,27.6,52.0,19.20681657238186,34.72349999999996
Q1306,2025-06-03 05:00:00,五里界,武汉市,江夏区,30.3058,114.4239,38.2,1003.7,27.4,61.0,22.26861095881577,43.373000000000005
Q1307,2025-06-03 05:00:00,山坡,武汉市,江夏区,30.0333,114.3808,40.0,1002.8,27.7,54.0,20.06260702487576,33.32949999999999
Q1308,2025-06-03 05:00:00,湖泗,武汉市,江夏区,30.0231,114.4622,40.8,1003.4,28.4,54.0,20.89902144081823,35.46050000000002
Q1309,2025-06-03 05:00:00,舒安,武汉市,江夏区,30.1494,114.5,32.3,1003.9,27.3,61.0,22.138384868231824,39.724
Q1310,2025-06-03 05:00:00,乌龙泉,武汉市,江夏区,30.2106,114.3286,35.0,1003.6,27.1,63.0,22.5973030629608,47.22050000000001
Q1311,2025-06-03 05:00:00,庙山,武汉市,江夏区,30.4372,114.3781,19.7,1005.4,27.7,63.0,23.40637486235505,36.50200000000006
Q1313,2025-06-03 05:00:00,梁子湖,武汉市,江夏区,30.2603,114.4494,22.8,1005.7,27.6,59.0,21.792349572510187,42.90900000000004
Q1314,2025-06-03 05:00:00,庙山天玺湾,武汉市,江夏区,30.3864,114.38,22.0,1005.5,28.1,67.0,25.48096902576673,46.80950000000004
Q1316,2025-06-03 05:00:00,中央大公园,武汉市,江夏区,30.3872,114.3056,26.0,1005.3,27.6,60.0,22.16171142967137,35.94900000000003
Q1317,2025-06-03 05:00:00,郑店海吉星,武汉市,江夏区,30.3178,114.2592,28.0,1005.2,27.5,58.0,21.297891074664044,39.157500000000006
Q1318,2025-06-03 05:00:00,五里界锦绣,武汉市,江夏区,30.3278,114.3869,27.0,1003.8,27.1,61.0,21.879928362549343,36.20999999999997
Q1319,2025-06-03 05:00:00,舒安未来家园,武汉市,江夏区,30.1294,114.4775,35.0,1005.4,26.0,64.0,21.51347277690443,38.889
Q1320,2025-06-03 05:00:00,湖泗祝祠,武汉市,江夏区,30.005,114.5111,55.0,1002.9,26.6,54.0,18.807310006592168,37.11499999999997
Q1321,2025-06-03 05:00:00,舒安嗣孟,武汉市,江夏区,30.0417,114.5383,49.0,1003.6,28.4,52.0,20.12498360967681,33.971000000000025
Q1322,2025-06-03 05:00:00,乌龙泉茗泉谷,武汉市,江夏区,30.2406,114.3142,66.0,1001.7,25.9,66.0,22.05467945236576,37.26150000000003
Q1323,2025-06-03 05:00:00,山坡光星,武汉市,江夏区,30.0956,114.3458,24.0,1005.6,28.0,57.0,21.55171887822696,39.68450000000007
Q1324,2025-06-03 05:00:00,乌龙泉杨湖,武汉市,江夏区,30.2308,114.4347,24.0,1005.7,27.9,58.0,21.802139015765075,40.949000000000055
Q1325,2025-06-03 05:00:00,金口南岸,武汉市,江夏区,30.2164,114.0742,24.0,1005.5,26.5,62.0,21.466552555682583,39.67599999999997
Q1326,2025-06-03 05:00:00,金水花篮棚,武汉市,江夏区,30.2019,114.1539,21.0,1005.6,26.6,56.0,19.50387704387336,33.8145
Q1327,2025-06-03 05:00:00,法泗花莲湖,武汉市,江夏区,30.2031,114.1856,23.0,1005.5,27.5,57.0,20.930686056135357,35.345500000000044
Q1328,2025-06-03 05:00:00,东湖路学校,武汉市,江夏区,30.3664,114.3228,23.0,1005.3,28.3,56.0,21.54724397634036,35.381000000000014
Q1329,2025-06-03 05:00:00,金口长江,武汉市,江夏区,30.2903,114.0978,21.1,1005.3,27.0,62.0,22.108277306758165,33.552
Q1330,2025-06-03 05:00:00,马蹄口,武汉市,江夏区,30.2444,114.1503,23.7,1005.2,26.3,58.0,19.845785459209385,31.927999999999944
Q1331,2025-06-03 05:00:00,三门口,武汉市,江夏区,30.2861,114.1775,43.3,1002.9,26.9,66.0,23.396581905125394,44.56500000000001
Q1332,2025-06-03 05:00:00,塘口,武汉市,江夏区,30.1914,114.4686,20.9,1005.8,26.1,66.0,22.317539208047936,40.93199999999998
Q1333,2025-06-03 05:00:00,三合,武汉市,江夏区,30.1481,114.36,34.1,1004.2,27.8,56.0,20.927691352197076,30.01450000000005
Q1334,2025-06-03 05:00:00,乌龙泉五星,武汉市,江夏区,30.1872,114.3167,41.0,1003.2,27.3,65.0,23.59008223664047,41.12400000000005
Q1335,2025-06-03 05:00:00,邓家洲,武汉市,江夏区,30.0183,114.25,21.7,1005.4,27.0,56.0,19.96876659965254,37.15899999999997
Q1336,2025-06-03 05:00:00,前途,武汉市,江夏区,30.0481,114.3033,35.5,1003.9,27.7,57.0,21.17719630403552,39.904500000000056
Q1337,2025-06-03 05:00:00,涂洲,武汉市,江夏区,30.2183,114.2303,28.3,1004.7,27.3,59.0,21.4125361840275,43.37049999999999
Q1338,2025-06-03 05:00:00,合心,武汉市,江夏区,30.1039,114.2444,31.2,1004.5,27.1,62.0,22.238615712755067,43.53849999999999
Q1339,2025-06-03 05:00:00,沿湖,武汉市,江夏区,30.1778,114.3586,32.5,1004.3,27.2,62.0,22.369625373480137,44.71550000000003
Q1340,2025-06-03 05:00:00,长岭,武汉市,江夏区,30.2194,114.3758,21.5,1005.5,27.5,63.0,23.1339161673075,38.03600000000003
Q1341,2025-06-03 05:00:00,祝庙,武汉市,江夏区,30.1742,114.5003,39.8,1003.6,27.8,59.0,22.0488176746362,34.79749999999999
Q1342,2025-06-03 05:00:00,陈六,武汉市,江夏区,30.0381,114.4119,39.1,1003.6,27.6,60.0,22.16171142967137,38.495
Q1343,2025-06-03 05:00:00,金口花园,武汉市,江夏区,30.3275,114.1272,27.9,1004.6,27.5,62.0,22.766711148778807,39.74650000000006
Q1344,2025-06-03 05:00:00,安山青春,武汉市,江夏区,30.1744,114.2619,26.9,1004.8,26.3,60.0,20.53012288883729,33.84599999999999
Q1345,2025-06-03 05:00:00,安山英雄,武汉市,江夏区,30.1472,114.3175,41.3,1003.3,28.0,59.0,22.30791954062089,42.19700000000005
Q1346,2025-06-03 05:00:00,周李家,武汉市,江夏区,30.0914,114.3069,40.7,1003.3,27.3,56.0,20.323763157721014,35.74899999999999
Q1347,2025-06-03 05:00:00,狮子山,武汉市,江夏区,30.2844,114.3825,35.2,1003.8,26.2,63.0,21.42953940824766,36.059000000000026
Q1348,2025-06-03 05:00:00,凉亭,武汉市,江夏区,30.3039,114.1303,26.0,1005.2,27.6,58.0,21.422987715348995,40.77100000000004
Q1349,2025-06-03 05:00:00,金港,武汉市,江夏区,30.3728,114.1886,24.9,1005.1,27.4,59.0,21.53849256672345,43.53699999999992
Q1350,2025-06-03 05:00:00,山坡东方红,武汉市,江夏区,30.0536,114.2386,22.2,1005.5,27.1,61.0,21.879928362549343,39.74100000000002
Q1351,2025-06-03 05:00:00,新生,武汉市,江夏区,30.1067,114.4064,42.6,1003.3,27.5,51.0,18.72745594496321,29.474499999999992
Q1352,2025-06-03 05:00:00,官堤,武汉市,江夏区,30.0669,114.4333,38.5,1003.8,27.8,59.0,22.0488176746362,38.74100000000001
Q1353,2025-06-03 05:00:00,八分山,武汉市,江夏区,30.3608,114.2928,262.0,978.1,25.4,67.0,21.733728571228536,38.65400000000003
Q1401,2025-06-03 05:00:00,东山,武汉市,东西湖区,30.7736,114.0089,20.9,1005.1,28.3,57.0,21.932016190203576,44.4125
Q1402,2025-06-03 05:00:00,柏泉,武汉市,东西湖区,30.7692,114.1272,33.6,1004.1,29.0,60.0,24.04448105652241,40.203
Q1403,2025-06-03 05:00:00,郁金香公园,武汉市,东西湖区,30.7053,114.0806,21.0,1005.3,28.4,57.0,22.06007818753035,34.996000000000045
Q1404,2025-06-03 05:00:00,走马岭,武汉市,东西湖区,30.6506,114.0136,13.0,1004.7,28.7,56.0,22.05436411825644,34.52400000000004
Q1405,2025-06-03 05:00:00,辛安渡,武汉市,东西湖区,30.7461,113.9286,31.3,1004.8,28.1,61.0,23.199091202563736,46.80849999999999
Q1406,2025-06-03 05:00:00,径河,武汉市,东西湖区,30.6808,114.1228,23.0,1004.7,29.8,53.0,22.243986845614568,35.223
Q1407,2025-06-03 05:00:00,将军路,武汉市,东西湖区,30.6642,114.2636,16.0,1004.7,28.1,58.0,22.05815229096224,37.74100000000003
Q1408,2025-06-03 05:00:00,杜公湖,武汉市,东西湖区,30.7228,114.145,25.0,1005.0,28.9,54.0,21.5149604746131,34.27099999999999
Q1410,2025-06-03 05:00:00,新沟,武汉市,东西湖区,30.6897,113.9931,22.0,1005.1,28.4,57.0,22.06007818753035,35.18800000000003
Q1411,2025-06-03 05:00:00,塔尔头,武汉市,东西湖区,30.6919,114.1892,32.0,1005.0,29.1,52.0,20.95960142826702,34.59099999999998
Q1412,2025-06-03 05:00:00,金银湖,武汉市,东西湖区,30.6422,114.1814,23.0,1005.0,28.5,51.0,19.85313053922209,35.44100000000004
Q1413,2025-06-03 05:00:00,红星合作社,武汉市,东西湖区,30.7642,113.9464,32.0,1005.0,28.7,62.0,24.41733170235534,49.55799999999999
Q1501,2025-06-03 05:00:00,成功闸,武汉市,蔡甸区,30.3908,113.7656,21.0,1004.9,27.6,60.0,22.16171142967137,38.77550000000001
Q1502,2025-06-03 05:00:00,大集,武汉市,蔡甸区,30.5081,114.0531,30.0,1004.0,27.5,58.0,21.297891074664044,34.56400000000003
Q1503,2025-06-03 05:00:00,索河,武汉市,蔡甸区,30.5236,113.8964,41.3,1003.2,26.3,62.0,21.214460318465207,31.309
Q1504,2025-06-03 05:00:00,桐湖农场,武汉市,蔡甸区,30.3917,113.9786,35.0,1005.0,27.5,62.0,22.766711148778807,39.75650000000007
Q1506,2025-06-03 05:00:00,消泗,武汉市,蔡甸区,30.3169,113.7728,27.0,1005.4,28.2,60.0,22.952214909881818,38.89499999999999
Q1507,2025-06-03 05:00:00,永安,武汉市,蔡甸区,30.4617,113.9281,48.6,1002.3,26.9,62.0,21.978607244208703,40.09900000000005
Q1509,2025-06-03 05:00:00,奓山,武汉市,蔡甸区,30.4297,114.0436,31.3,1003.9,27.9,59.0,22.178037964312757,37.4385
Q1510,2025-06-03 05:00:00,侏儒,武汉市,蔡甸区,30.4525,113.8792,26.5,1004.8,27.4,61.0,22.26861095881577,40.441
Q1512,2025-06-03 05:00:00,沉湖湿地,武汉市,蔡甸区,30.3242,113.8619,25.0,1004.7,27.5,65.0,23.86832620436488,39.06149999999997
Q1513,2025-06-03 05:00:00,千子山,武汉市,蔡甸区,30.4078,114.0333,37.2,1003.4,26.9,59.0,20.915126248521187,33.68250000000001
Q1514,2025-06-03 05:00:00,九真山,武汉市,蔡甸区,30.4839,113.9544,122.0,993.7,26.2,69.0,23.470447923318865,48.24950000000002
Q1515,2025-06-03 05:00:00,绿茵园,武汉市,蔡甸区,30.4467,114.0142,27.3,1004.4,27.2,59.0,21.28722414573109,37.098500000000016
Q1516,2025-06-03 05:00:00,时光农场,武汉市,蔡甸区,30.4086,113.8017,21.5,1005.3,27.6,63.0,23.269797001154945,38.74274999999997
Q1517,2025-06-03 05:00:00,农耕园,武汉市,蔡甸区,30.4275,113.9525,22.7,1005.1,27.5,67.0,24.60273624142226,37.94849999999998
Q1518,2025-06-03 05:00:00,花博汇,武汉市,蔡甸区,30.4956,114.0656,32.4,1005.1,28.0,60.0,22.68601987181785,36.75450000000007
Q1519,2025-06-03 05:00:00,鸽翅岭,武汉市,蔡甸区,30.5394,113.9619,32.0,1003.8,28.4,62.0,23.99517276538389,45.792
Q1520,2025-06-03 05:00:00,景秀大地,武汉市,蔡甸区,30.4989,113.9781,22.3,1005.1,26.9,65.0,23.042088239896223,42.022000000000006
Q1521,2025-06-03 05:00:00,七沟,武汉市,蔡甸区,30.4289,113.7733,23.2,1005.1,27.3,62.0,22.501309210333982,41.33500000000001
Q1522,2025-06-03 05:00:00,香草花田,武汉市,蔡甸区,30.5133,113.8858,27.1,1004.5,27.8,61.0,22.796235222928956,29.410000000000046
Q1523,2025-06-03 05:00:00,金龙水寨,武汉市,蔡甸区,30.54,113.9247,22.2,1005.0,26.7,67.0,23.47297511564972,40.76730952380949
Q1524,2025-06-03 05:00:00,谢八家,武汉市,蔡甸区,30.6244,113.9264,24.8,1004.7,27.6,62.0,22.900435143993757,34.57137500000002
Q1525,2025-06-03 05:00:00,蔡甸野生动物王国,武汉市,蔡甸区,30.5567,113.9353,23.3,1004.9,27.8,64.0,23.91736154536808,39.438999999999965
Q1526,2025-06-03 05:00:00,长江大学,武汉市,蔡甸区,30.5292,114.0256,21.5,1005.0,27.3,61.0,22.138384868231824,42.355500000000056
Q1527,2025-06-03 05:00:00,蔡甸汉江堤防,武汉市,蔡甸区,30.6311,113.9797,26.1,1004.5,28.4,57.0,22.06007818753035,33.861999999999995
Q1528,2025-06-03 05:00:00,后官湖湿地公园,武汉市,蔡甸区,30.5306,114.0786,24.3,1004.7,28.4,56.0,21.673059271959648,33.85100000000002
Q1529,2025-06-03 05:00:00,张家大湖,武汉市,蔡甸区,30.3156,113.8164,23.3,1005.3,28.0,62.0,23.44222053421178,39.14149999999999
Q1599,2025-06-03 05:00:00,孙家畈,武汉市,蔡甸区,30.5664,114.0289,17.8,1004.6,27.8,58.0,21.67510890048982,30.5305
Q1701,2025-06-03 05:00:00,藏龙岛,武汉市,江夏区,30.4017,114.4189,30.0,1004.8,27.4,59.0,21.53849256672345,44.32299999999994
Q1702,2025-06-03 05:00:00,东湖高新射击场,武汉市,洪山区,30.5039,114.4608,40.0,1003.7,29.0,59.0,23.643739705580376,44.51350000000003
Q1703,2025-06-03 05:00:00,武汉欢乐谷,武汉市,洪山区,30.5972,114.3886,30.0,1005.2,27.8,56.0,20.927691352197076,34.93200000000004
Q1704,2025-06-03 05:00:00,东湖湖心亭,武汉市,武昌区,30.57,114.39,30.0,1005.1,27.3,60.0,21.77546052612966,43.89399999999994
Q1706,2025-06-03 05:00:00,青山沙排中心,武汉市,青山区,30.6508,114.3919,30.0,1004.7,26.4,67.0,23.061163223756463,42.297999999999945
Q1707,2025-06-03 05:00:00,驿山高尔夫,武汉市,洪山区,30.5,114.5006,50.0,1001.0,26.5,65.0,22.505256711602712,43.73050000000006
Q1708,2025-06-03 05:00:00,华科,武汉市,武昌区,30.5094,114.4117,40.0,1003.7,28.2,49.0,18.74430884307015,27.828
Q1709,2025-06-03 05:00:00,省奥体中心,武汉市,市辖区,30.4739,114.4547,40.0,1002.6,26.8,66.0,23.259254406109594,46.80049999999999
Q1710,2025-06-03 05:00:00,洪山体育馆,武汉市,武昌区,30.5489,114.3281,30.0,1003.6,27.6,55.0,20.314902143865428,33.62350000000003
Q1711,2025-06-03 05:00:00,武汉体育学院,武汉市,洪山区,30.5219,114.3725,30.0,1004.8,27.5,52.0,19.094660963491904,32.089499999999965
Q1712,2025-06-03 05:00:00,武大,武汉市,武昌区,30.5383,114.3511,30.0,1004.9,27.5,56.0,20.563481037606667,35.28299999999997
Q1713,2025-06-03 05:00:00,武汉软件职院,武汉市,市辖区,30.4508,114.4231,30.0,1004.1,26.8,54.0,19.030299059544213,32.50899999999999
Q1714,2025-06-03 05:00:00,武汉理工大学,武汉市,洪山区,30.5058,114.325,30.0,1005.3,27.7,51.0,18.948017745715998,32.97849999999997
Q1715,2025-06-03 05:00:00,武汉城市职院,武汉市,洪山区,30.4414,114.3086,20.0,1005.5,26.3,63.0,21.55662903327916,40.10499999999995
Q1716,2025-06-03 05:00:00,武汉体育中心,武汉市,汉南区,30.5061,114.1683,30.0,1005.1,28.1,56.0,21.29752634989458,31.927999999999948
Q1717,2025-06-03 05:00:00,武汉商学院,武汉市,汉南区,30.4664,114.08,30.0,1004.9,26.6,60.0,20.89701111843574,33.09150000000003
Q1718,2025-06-03 05:00:00,江汉大学,武汉市,汉南区,30.5208,114.1497,30.0,1005.0,27.5,62.0,22.766711148778807,39.75650000000007
Q1720,2025-06-03 05:00:00,全民健身中心,武汉市,江岸区,30.6472,114.2831,30.0,1005.4,28.3,53.0,20.39292733475069,30.819
Q1721,2025-06-03 05:00:00,汉口文体中心,武汉市,江汉区,30.6028,114.2636,30.0,1005.4,27.3,60.0,21.77546052612966,33.36200000000004
Q1722,2025-06-03 05:00:00,汉阳沙排中心,武汉市,汉阳区,30.5017,114.2308,30.0,1004.7,27.2,53.0,19.12242169023302,30.706999999999965
Q1723,2025-06-03 05:00:00,军山,武汉市,汉南区,30.3978,114.1156,40.0,1003.1,26.7,60.0,21.020574730432585,28.955999999999964
Q1724,2025-06-03 05:00:00,蔡甸国防园,武汉市,蔡甸区,30.4764,113.9647,60.0,1001.8,26.5,62.0,21.466552555682583,37.43299999999999
Q1725,2025-06-03 05:00:00,海工大木兰校区,武汉市,黄陂区,31.1183,114.4642,50.0,1001.6,27.3,69.0,25.041779605049108,44.55849999999997
Q1726,2025-06-03 05:00:00,体育中心,武汉市,东西湖区,30.6378,114.1269,20.0,1004.3,27.4,55.0,20.07825578253881,41.19550000000003
Q1727,2025-06-03 05:00:00,东湖帆船基地,武汉市,武昌区,30.5425,114.3689,30.0,1005.4,28.3,63.0,24.240649473382906,45.80850000000002
Q1728,2025-06-03 05:00:00,雷神山,武汉市,江夏区,30.4408,114.2756,20.0,1005.4,26.8,65.0,22.90684146056248,38.64699999999999
Q1729,2025-06-03 05:00:00,桂子米业,武汉市,江夏区,30.1603,114.1839,47.0,1003.0,27.2,57.0,20.565623327231737,30.09750000000001
Q1730,2025-06-03 05:00:00,天子山教育基地,武汉市,江夏区,30.1494,114.4292,40.0,1004.1,26.4,66.0,22.71696675773025,41.61750000000002
Q1745,2025-06-03 05:00:00,中法生态城,武汉市,蔡甸区,30.5631,114.07,22.1,1004.5,28.2,57.0,21.80460416438773,31.13599999999999
Q1753,2025-06-03 05:00:00,高新大道,武汉市,市辖区,30.4872,114.4561,50.0,1001.8,27.4,60.0,21.90355176276961,41.35200000000003
Q1754,2025-06-03 05:00:00,天兴洲大桥,武汉市,洪山区,30.6575,114.4003,60.0,999.9,28.0,51.0,19.28311689104517,33.73175000000001
Q1755,2025-06-03 05:00:00,知音桥,武汉市,硚口区,30.5811,114.2161,35.0,1003.9,28.3,53.0,20.39292733475069,37.56399999999999
Q1756,2025-06-03 05:00:00,晴川桥,武汉市,硚口区,30.5656,114.2783,15.0,1003.4,26.8,58.0,20.43995084173267,33.37500000000004
Q1759,2025-06-03 05:00:00,长江二桥,武汉市,江岸区,30.6036,114.3217,20.0,1001.5,25.3,55.0,17.735232748525355,30.2415
Q1760,2025-06-03 05:00:00,二七长江大桥,武汉市,江岸区,30.6294,114.3394,25.0,1000.9,25.6,57.0,18.711085985403425,36.42699999999997
Q1761,2025-06-03 05:00:00,杨泗港长江大桥,武汉市,汉阳区,30.5069,114.2625,30.0,1000.5,24.9,60.0,18.89144836275716,30.44349999999996
Q1762,2025-06-03 05:00:00,鹦鹉洲大桥,武汉市,汉阳区,30.5339,114.2764,40.0,1001.4,25.1,56.0,17.84374417282686,30.87099999999999
Q1763,2025-06-03 05:00:00,古田桥,武汉市,硚口区,30.5872,114.1797,25.0,1003.1,27.3,51.0,18.50914144721021,27.82599999999996
Q1764,2025-06-03 05:00:00,月湖桥,武汉市,硚口区,30.5644,114.2483,35.0,1003.7,27.1,51.0,18.293054860492077,35.350500000000046
Q1765,2025-06-03 05:00:00,八一路延长线,武汉市,市辖区,30.5286,114.3831,11.0,1004.2,27.3,63.0,22.864233552436147,40.473
Q1766,2025-06-03 05:00:00,青化立交,武汉市,洪山区,30.6058,114.43,20.0,1003.7,28.0,54.0,20.41741788463607,29.07199999999996
Q1767,2025-06-03 05:00:00,欢乐大道,武汉市,市辖区,30.6017,114.41,22.0,1004.0,26.8,56.0,19.735124950638443,29.322499999999994
Q1768,2025-06-03 05:00:00,姑嫂树立交,武汉市,东西湖区,30.6386,114.2514,26.0,1003.3,27.8,51.0,19.05914748146519,30.64199999999997
Q1769,2025-06-03 05:00:00,楚康路出口,武汉市,洪山区,30.5097,114.3594,18.0,1003.7,26.9,51.0,18.079176926687804,30.84499999999995
Q1770,2025-06-03 05:00:00,长丰大道,武汉市,硚口区,30.6083,114.2083,22.0,1003.8,27.7,51.0,18.948017745715998,33.938500000000005
Q1772,2025-06-03 05:00:00,白沙洲大道高架,武汉市,洪山区,30.505,114.2844,22.0,1004.3,27.5,52.0,19.094660963491904,30.681999999999988
Q1779,2025-06-03 05:00:00,青菱立交,武汉市,洪山区,30.4628,114.2886,13.0,1004.5,26.0,64.0,21.51347277690443,39.66249999999998
Q2004,2025-06-03 05:00:00,红卫,十堰市,张湾区,32.6525,110.7253,336.4,969.9,26.9,62.0,21.978607244208703,37.09850000000002
Q2022,2025-06-03 05:00:00,小川,十堰市,茅箭区,32.4628,110.7172,643.8,937.2,25.1,59.0,18.799659039228292,33.68699999999996
Q2023,2025-06-03 05:00:00,黄龙,十堰市,张湾区,32.6861,110.5586,186.4,986.3,27.2,58.0,20.92642373648141,38.64149999999994
Q2031,2025-06-03 05:00:00,紫霄宫,十堰市,丹江口市,32.4253,111.0228,851.0,914.9,23.8,68.0,20.04345081392961,32.82349999999995
Q2032,2025-06-03 05:00:00,八仙观,十堰市,丹江口市,32.4308,111.0567,588.0,945.2,25.1,61.0,19.436935616829253,39.15599999999999
Q2033,2025-06-03 05:00:00,太子坡,十堰市,丹江口市,32.4489,111.0708,558.0,946.7,25.7,66.0,21.7945320099863,36.94799999999996
Q2034,2025-06-03 05:00:00,元和观,十堰市,丹江口市,32.4978,111.0942,396.0,963.0,27.8,55.0,20.553982578050697,36.7695
Q2050,2025-06-03 05:00:00,火车站小学,十堰市,茅箭区,32.6017,110.7742,310.0,973.8,27.0,57.0,20.325351717503477,32.47649999999998
Q2204,2025-06-03 05:00:00,习家店,十堰市,丹江口市,32.7708,111.1592,253.1,979.2,26.4,61.0,20.99598442759917,38.47550000000007
Q2205,2025-06-03 05:00:00,石鼓,十堰市,丹江口市,32.7553,111.3811,297.0,974.2,26.0,62.0,20.841176752626165,30.255999999999997
Q2206,2025-06-03 05:00:00,丁家营,十堰市,丹江口市,32.4447,111.2453,186.0,987.1,27.9,58.0,21.802139015765075,35.39949999999993
Q2236,2025-06-03 05:00:00,蒿口新村,十堰市,丹江口市,32.5219,111.0364,179.1,987.6,28.7,53.0,20.872880326206985,32.38050000000002
Q2261,2025-06-03 05:00:00,马鞍山,十堰市,丹江口市,32.3306,111.1797,503.1,952.1,28.1,50.0,19.015648526691585,29.398000000000025
Q2266,2025-06-03 05:00:00,大坝街道,十堰市,丹江口市,32.5486,111.5125,133.4,992.7,27.3,59.0,21.4125361840275,31.306499999999964
Q2309,2025-06-03 05:00:00,茶店,十堰市,郧阳区,32.7992,110.8847,212.2,984.0,26.7,66.0,23.122632203475845,43.33200000000005
Q2324,2025-06-03 05:00:00,安阳,十堰市,郧阳区,32.8525,111.0044,221.0,982.0,26.3,64.0,21.89879774809312,40.065000000000055
Q2326,2025-06-03 05:00:00,五峰,十堰市,郧阳区,32.8278,110.3708,193.5,986.5,27.0,58.0,20.68193683535441,33.976999999999954
Q2334,2025-06-03 05:00:00,塘上,十堰市,郧阳区,33.0756,110.735,834.7,916.0,25.6,41.0,13.45885132283404,22.271000000000008
Q2350,2025-06-03 05:00:00,韩家沟,十堰市,郧阳区,32.8653,110.6186,244.8,981.4,26.2,62.0,21.089387989069124,39.762999999999984
Q2353,2025-06-03 05:00:00,毛河,十堰市,郧阳区,32.5125,110.4669,537.4,948.8,22.9,69.0,19.26173625715756,39.81699999999996
Q2401,2025-06-03 05:00:00,上津,十堰市,郧西县,33.0742,110.0211,273.4,977.9,24.4,68.0,20.77921634920995,36.88649999999996
Q2402,2025-06-03 05:00:00,马安,十堰市,郧西县,33.0053,110.2311,374.2,966.5,25.4,66.0,21.40934456270273,40.58249999999996
Q2403,2025-06-03 05:00:00,土门,十堰市,郧西县,33.0589,110.3233,364.3,967.3,25.0,66.0,20.90503427883608,38.239500000000014
Q2405,2025-06-03 05:00:00,六郎,十堰市,郧西县,32.9978,110.0711,264.9,975.8,24.5,63.0,19.367048090916008,30.02699999999996
Q2409,2025-06-03 05:00:00,三官,十堰市,郧西县,33.1683,110.5619,838.1,915.4,23.8,60.0,17.68539777699671,33.20649999999998
Q2411,2025-06-03 05:00:00,槐树,十堰市,郧西县,33.2025,109.9003,794.0,921.0,22.3,70.0,18.841292884214656,35.559499999999964
Q2423,2025-06-03 05:00:00,河夹,十堰市,郧西县,32.9303,110.5283,273.0,975.0,26.4,57.0,19.619198563494304,36.75099999999997
Q2424,2025-06-03 05:00:00,湖北口,十堰市,郧西县,33.1942,109.575,890.6,910.6,22.5,59.0,16.074982266086206,26.368000000000023
Q2433,2025-06-03 05:00:00,包耳场,十堰市,郧西县,33.1864,109.75,640.0,937.3,21.7,70.0,18.163744088832143,33.11499999999997
Q2502,2025-06-03 05:00:00,土城,十堰市,房县,32.2775,110.6972,669.3,934.2,25.3,61.0,19.669985412000848,32.377499999999976
Q2503,2025-06-03 05:00:00,沙河,十堰市,房县,32.1378,111.0931,843.6,915.6,24.1,62.0,18.607686595297764,30.21200000000001
Q2504,2025-06-03 05:00:00,卧牛观,十堰市,房县,32.2108,110.9142,711.4,929.4,25.5,59.0,19.25283811675574,35.098
Q2505,2025-06-03 05:00:00,门古寺,十堰市,房县,32.0058,110.4417,624.2,939.6,24.9,58.0,18.26173341733192,35.033500000000025
Q2507,2025-06-03 05:00:00,军店,十堰市,房县,32.0336,110.6253,495.7,953.0,26.6,57.0,19.85216056251395,30.22200000000001
Q2509,2025-06-03 05:00:00,中坝,十堰市,房县,32.0064,110.28,795.4,920.4,24.4,60.0,18.3346026610676,55.62500000000002
Q2524,2025-06-03 05:00:00,三里坪,十堰市,房县,31.9419,110.9697,415.0,961.7,27.6,57.0,21.053625858187807,39.247000000000114
Q2528,2025-06-03 05:00:00,白鹤,十堰市,房县,32.0997,110.7728,464.5,956.5,25.5,61.0,19.90547669698475,36.1005
Q2530,2025-06-03 05:00:00,汪家河,十堰市,房县,32.1044,110.5331,563.7,945.7,26.8,49.0,17.26823433180864,24.626000000000023
Q2532,2025-06-03 05:00:00,对寺河,十堰市,房县,32.3347,110.3903,265.0,979.9,27.2,61.0,22.008824964230456,38.34699999999997
Q2546,2025-06-03 05:00:00,南潭,十堰市,房县,31.9833,110.7353,737.0,926.8,25.2,56.0,17.950438913836486,33.98000000000005
Q2548,2025-06-03 05:00:00,白鸡,十堰市,房县,32.2303,110.7133,592.3,942.5,24.6,66.0,20.411151434556636,34.87300000000002
Q2559,2025-06-03 05:00:00,东蒿,十堰市,房县,31.8842,110.7753,1359.0,862.6,23.0,37.0,10.391543991264736,20.922000000000004
Q2605,2025-06-03 05:00:00,柳林,十堰市,竹山县,31.7169,110.0508,523.7,950.6,24.4,58.0,17.72344923903201,31.1745
Q2623,2025-06-03 05:00:00,秦古,十堰市,竹山县,32.4331,109.82,580.3,944.2,23.8,72.0,21.222477332396053,40.79849999999998
Q2624,2025-06-03 05:00:00,擂鼓,十堰市,竹山县,32.3533,109.9286,513.9,951.5,23.9,68.0,20.164470345040364,41.55499999999997
Q2626,2025-06-03 05:00:00,溢水,十堰市,竹山县,32.2786,110.0842,508.8,952.0,24.3,66.0,20.047471959308805,39.327999999999946
Q2628,2025-06-03 05:00:00,深河,十堰市,竹山县,32.1117,110.2306,361.0,968.6,25.9,60.0,20.049708593059776,37.50249999999995
Q2655,2025-06-03 05:00:00,潘口,十堰市,竹山县,32.23,110.1844,273.8,978.0,25.7,62.0,20.473651282108342,42.89150000000001
Q2676,2025-06-03 05:00:00,北大街,十堰市,竹山县,32.2256,110.2261,307.0,974.4,25.9,59.0,19.715546783175448,33.538500000000035
Q2701,2025-06-03 05:00:00,龙坝,十堰市,竹溪县,32.3569,109.6453,563.6,945.7,25.9,62.0,20.71803221282844,41.18549999999996
Q2721,2025-06-03 05:00:00,泉溪,十堰市,竹溪县,32.0428,109.6986,849.5,915.0,24.2,61.0,18.417852697336084,56.247000000000014
Q2745,2025-06-03 05:00:00,界牌沟,十堰市,竹溪县,32.1683,109.5989,655.4,936.9,24.2,61.0,18.417852697336084,47.194
Q2748,2025-06-03 05:00:00,天宝,十堰市,竹溪县,31.9983,109.7814,498.9,951.1,25.0,68.0,21.538520166073543,38.9515
Q2757,2025-06-03 05:00:00,高子河,十堰市,竹溪县,31.8119,109.7686,1063.6,893.2,22.4,60.0,16.248295922573888,44.56849999999999
Q2903,2025-06-03 05:00:00,新华,省直辖县级行政区划,神农架林区,31.5953,110.8861,716.7,928.5,26.0,47.0,15.79895657053919,27.75399999999996
Q2906,2025-06-03 05:00:00,徐家庄,省直辖县级行政区划,神农架林区,31.5622,110.5533,1398.1,858.8,21.0,58.0,14.417431993306106,26.729499999999984
Q2910,2025-06-03 05:00:00,木鱼,省直辖县级行政区划,神农架林区,31.4828,110.3786,1245.0,872.1,21.2,43.0,10.820971936668306,22.393500000000003
Q2912,2025-06-03 05:00:00,神农架机场,省直辖县级行政区划,神农架林区,31.6119,110.3383,2597.4,745.4,12.2,39.0,5.538476299561743,9.859500000000002
Q2916,2025-06-03 05:00:00,板桥,省直辖县级行政区划,神农架林区,31.4089,110.1781,1026.6,896.7,20.4,67.0,16.049905674376895,24.837666666666664
Q2923,2025-06-03 05:00:00,牛场坪,省直辖县级行政区划,神农架林区,31.5508,110.3911,2285.0,773.6,14.5,41.0,6.7648313256664645,10.204000000000022
Q2925,2025-06-03 05:00:00,九冲,省直辖县级行政区划,神农架林区,31.4083,110.5553,699.8,931.0,21.9,59.0,15.497766459466195,30.78399999999997
Q2933,2025-06-03 05:00:00,大九湖,省直辖县级行政区划,神农架林区,31.4958,109.9953,1752.0,824.5,16.9,62.0,11.929376424426083,21.78249999999999
Q2940,2025-06-03 05:00:00,红花,省直辖县级行政区划,神农架林区,31.3992,110.475,819.5,918.0,22.7,57.0,15.71995266846816,29.110499999999966
Q2950,2025-06-03 05:00:00,阳日,省直辖县级行政区划,神农架林区,31.7328,110.8061,498.0,952.7,25.3,51.0,16.445397639541692,27.33649999999998
Q2957,2025-06-03 05:00:00,青天袍,省直辖县级行政区划,神农架林区,31.5144,110.3881,1569.0,843.7,20.9,41.0,10.129121901392637,19.33299999999999
Q3005,2025-06-03 05:00:00,隆中,襄阳市,襄城区,31.9889,112.0322,107.3,996.0,26.6,60.0,20.89701111843574,40.19200000000003
Q3008,2025-06-03 05:00:00,襄阳老站,襄阳市,襄城区,32.0283,112.1664,68.6,1000.4,27.4,55.0,20.07825578253881,39.16283333333331
Q3012,2025-06-03 05:00:00,刘集小学,襄阳市,襄州区,32.1517,112.2992,70.1,999.8,26.9,64.0,22.68759457466705,40.75600000000004
Q3100,2025-06-03 05:00:00,东津,襄阳市,襄州区,32.0631,112.2203,69.7,999.9,27.3,61.0,22.138384868231824,40.4915
Q3101,2025-06-03 05:00:00,朱集,襄阳市,襄州区,32.2967,112.3483,79.0,999.3,25.8,68.0,22.588639942267765,39.95550000000003
Q3103,2025-06-03 05:00:00,峪山,襄阳市,襄州区,31.9919,112.3706,93.0,998.1,27.3,65.0,23.59008223664047,41.60550000000002
Q3104,2025-06-03 05:00:00,龙王,襄阳市,襄州区,32.2089,111.9589,86.0,997.0,27.3,59.0,21.4125361840275,43.58450000000006
Q3106,2025-06-03 05:00:00,黄龙,襄阳市,襄州区,31.9858,112.4556,84.6,995.6,27.0,59.0,21.03852195320535,31.35200000000003
Q3107,2025-06-03 05:00:00,石桥,襄阳市,襄州区,32.3633,111.9611,110.7,995.5,27.1,61.0,21.879928362549343,34.13100000000007
Q3108,2025-06-03 05:00:00,程河,襄阳市,襄州区,32.2664,112.4508,114.6,995.9,26.3,61.0,20.87229160365125,35.88300000000002
Q3109,2025-06-03 05:00:00,伙牌,襄阳市,襄州区,32.1878,112.1847,108.3,995.6,26.9,60.0,21.26961991375036,43.16300000000007
Q3112,2025-06-03 05:00:00,张湾,襄阳市,襄州区,32.0886,112.1903,65.4,1000.3,27.4,56.0,20.44331497858497,37.68149999999996
Q3113,2025-06-03 05:00:00,黄集,襄阳市,襄州区,32.3253,112.1328,142.2,992.0,27.0,55.0,19.6121814818016,32.04350000000005
Q3202,2025-06-03 05:00:00,枣阳吴店,襄阳市,枣阳市,31.9703,112.75,167.5,988.7,27.1,65.0,23.31467776337225,42.033
Q3203,2025-06-03 05:00:00,七方,襄阳市,枣阳市,32.2017,112.5589,131.0,992.6,26.0,61.0,20.505028740487035,34.9865
Q3206,2025-06-03 05:00:00,枣阳新市,襄阳市,枣阳市,32.3414,112.9942,241.1,980.1,25.8,62.0,20.595524653244134,41.719500000000025
Q3207,2025-06-03 05:00:00,刘升榆树,襄阳市,枣阳市,32.12,112.8781,156.0,989.3,26.2,61.0,20.74923656989059,33.51800000000003
Q3212,2025-06-03 05:00:00,琚湾,襄阳市,枣阳市,32.0417,112.5906,72.0,997.7,27.2,61.0,22.008824964230456,31.858500000000003
Q3217,2025-06-03 05:00:00,姚棚水库,襄阳市,枣阳市,32.3253,112.8719,177.3,987.4,25.5,61.0,19.90547669698475,32.458499999999994
Q3237,2025-06-03 05:00:00,王城,襄阳市,枣阳市,31.9519,112.9217,115.0,994.3,26.5,65.0,22.505256711602712,36.43549999999999
Q3240,2025-06-03 05:00:00,北城,襄阳市,枣阳市,32.1411,112.7553,125.5,993.4,26.9,55.0,19.497151587604492,44.95
Q3305,2025-06-03 05:00:00,老河口半店,襄阳市,老河口市,32.4536,111.7536,153.1,990.0,28.1,54.0,20.536900408826916,33.78300000000001
Q3309,2025-06-03 05:00:00,方营,襄阳市,老河口市,32.3367,111.7022,90.0,998.1,28.4,53.0,20.51200252524752,33.760999999999925
Q3311,2025-06-03 05:00:00,老河口黄营,襄阳市,老河口市,32.3472,111.6742,80.3,998.4,27.8,58.0,21.67510890048982,32.71949999999998
Q3314,2025-06-03 05:00:00,农垦示范园,襄阳市,老河口市,32.4319,111.8458,148.3,991.3,27.5,59.0,21.665096093192737,40.16899999999996
Q3315,2025-06-03 05:00:00,老河口黑虎山水库,襄阳市,老河口市,32.5408,111.6622,163.3,989.0,27.9,54.0,20.298543221574384,33.23250000000001
Q3317,2025-06-03 05:00:00,古城水库,襄阳市,老河口市,32.5203,111.7786,145.2,991.3,27.6,57.0,21.053625858187807,32.26350000000005
Q3318,2025-06-03 05:00:00,老河口西关,襄阳市,老河口市,32.4217,111.6878,84.4,997.3,27.5,59.0,21.665096093192737,32.40800000000001
Q3321,2025-06-03 05:00:00,老河口老站,襄阳市,老河口市,32.38,111.67,90.0,997.8,27.8,58.0,21.67510890048982,34.37299999999994
Q3326,2025-06-03 05:00:00,白鹤岗,襄阳市,老河口市,32.2931,111.7247,89.0,998.1,27.5,60.0,22.032301111721427,29.77600000000002
Q3401,2025-06-03 05:00:00,五山,襄阳市,谷城县,32.2931,111.3314,180.0,988.2,27.9,61.0,22.9298358614081,38.552499999999945
Q3404,2025-06-03 05:00:00,谷城南河,襄阳市,谷城县,32.1678,111.4981,146.4,991.1,29.4,54.0,22.146695238691112,41.402
Q3405,2025-06-03 05:00:00,赵湾,襄阳市,谷城县,31.9917,111.4303,518.0,950.6,26.0,56.0,18.824288679791376,32.25450000000001
Q3409,2025-06-03 05:00:00,薤山,襄阳市,谷城县,32.1725,111.4061,701.7,930.5,26.1,57.0,19.274238406950488,32.06800000000005
Q3413,2025-06-03 05:00:00,茨河,襄阳市,谷城县,32.0483,111.8314,158.0,989.9,27.0,67.0,23.891202896012857,45.05300000000001
Q3420,2025-06-03 05:00:00,紫金,襄阳市,谷城县,32.1342,111.3078,247.7,977.3,27.4,52.0,18.98307819440033,37.37099999999995
Q3501,2025-06-03 05:00:00,寺坪,襄阳市,保康县,31.9906,111.1233,275.0,977.4,27.1,55.0,19.727804261314983,36.64900000000006
Q3516,2025-06-03 05:00:00,两峪,襄阳市,保康县,31.5581,111.3953,660.0,933.8,27.2,45.0,16.23601841623558,27.60950000000003
Q3517,2025-06-03 05:00:00,歇马毛家岭,襄阳市,保康县,31.6419,111.1967,796.0,919.2,28.1,34.0,12.93064099815028,24.31899999999996
Q3520,2025-06-03 05:00:00,保康天宝寨,襄阳市,保康县,31.4017,111.2936,997.0,899.7,25.4,42.0,13.624128358083558,23.17849999999999
Q3525,2025-06-03 05:00:00,马良产业园,襄阳市,保康县,31.4942,111.3539,292.0,975.2,27.1,68.0,24.390739813989438,52.275000000000006
Q3545,2025-06-03 05:00:00,尧治河,襄阳市,保康县,31.8447,110.8022,1576.0,841.4,20.7,34.0,8.296918732358264,15.816999999999986
Q3555,2025-06-03 05:00:00,团结,襄阳市,保康县,31.68,111.0128,1064.0,890.1,23.5,47.0,13.605255973028822,23.858999999999995
Q3606,2025-06-03 05:00:00,武镇,襄阳市,南漳县,31.6647,111.9922,120.0,994.6,27.1,72.0,25.82548921481234,45.142499999999934
Q3608,2025-06-03 05:00:00,东巩,襄阳市,南漳县,31.3292,111.8253,183.0,983.2,28.5,46.0,17.90674519223953,28.030499999999964
Q3617,2025-06-03 05:00:00,薛坪,襄阳市,南漳县,31.6231,111.6778,820.0,918.5,24.6,42.0,12.988914549263312,20.64299999999997
Q3618,2025-06-03 05:00:00,长坪,襄阳市,南漳县,31.7775,111.5617,254.0,980.9,29.4,49.0,20.09607530918268,40.37800000000004
Q3623,2025-06-03 05:00:00,南漳大坪,襄阳市,南漳县,31.5489,111.8342,343.2,969.3,26.8,61.0,21.497189678374017,34.276499999999984
Q3632,2025-06-03 05:00:00,赵店,襄阳市,南漳县,31.9058,111.6194,271.6,977.0,29.4,32.0,13.123967548853992,22.05249999999998
Q3641,2025-06-03 05:00:00,漫云,襄阳市,南漳县,31.4556,111.6847,342.0,968.5,28.8,38.0,15.05258801384996,22.972000000000016
Q3748,2025-06-03 05:00:00,高楼,襄阳市,宜城市,31.6356,112.5942,141.0,991.8,27.5,54.0,19.829071000549288,31.98700000000005
Q3750,2025-06-03 05:00:00,孔湾,襄阳市,宜城市,31.5681,112.2661,55.0,1001.7,27.4,64.0,23.36378854695425,45.46699999999996
Q3751,2025-06-03 05:00:00,二库,襄阳市,宜城市,31.7467,112.4303,89.0,997.2,27.9,58.0,21.802139015765075,40.81775000000002
Q3752,2025-06-03 05:00:00,小南河,襄阳市,宜城市,31.4622,111.9878,177.5,988.0,27.1,60.0,21.52124101234361,26.19300000000001
Q3760,2025-06-03 05:00:00,刘猴,襄阳市,宜城市,31.4853,112.0169,159.0,990.6,27.4,70.0,25.55414372323121,48.30900000000004
Q3770,2025-06-03 05:00:00,谭湾,襄阳市,宜城市,31.7736,112.0389,94.0,996.8,27.4,62.0,22.63367015486193,40.84149999999997
Q3782,2025-06-03 05:00:00,联合,襄阳市,宜城市,31.8692,112.2653,86.0,997.7,27.7,63.0,23.40637486235505,36.901499999999984
Q3792,2025-06-03 05:00:00,流水,襄阳市,宜城市,31.5683,112.455,62.0,1001.4,27.5,66.0,24.23553122289357,40.61449999999998
Q3802,2025-06-03 05:00:00,殷店,随州市,随县,32.0808,113.5014,145.6,990.5,27.0,64.0,22.82144754246004,41.4525
Q3803,2025-06-03 05:00:00,洪山,随州市,随县,31.6611,112.9072,154.4,990.1,27.6,59.0,21.792349572510187,37.73950000000004
Q3804,2025-06-03 05:00:00,柳林,随州市,随县,31.5336,113.2278,120.0,993.6,28.7,57.0,22.448192048939585,39.14850000000002
Q3805,2025-06-03 05:00:00,唐镇,随州市,随县,32.0003,113.105,127.7,993.3,26.2,66.0,22.449993665783264,33.218999999999966
Q3807,2025-06-03 05:00:00,厉山,随州市,随县,31.8839,113.3125,92.0,997.5,26.1,68.0,22.99382827495848,40.86849999999996
Q3809,2025-06-03 05:00:00,淮河,随州市,随县,32.3436,113.6333,153.8,989.7,25.6,70.0,22.978526648741045,51.584500000000055
Q3812,2025-06-03 05:00:00,万店,随州市,曾都区,31.8386,113.5169,115.0,994.1,26.5,65.0,22.505256711602712,40.037999999999954
Q3815,2025-06-03 05:00:00,澴潭,随州市,随县,31.8106,113.0514,115.3,994.5,26.4,66.0,22.71696675773025,37.53050000000005
Q3820,2025-06-03 05:00:00,吴山,随州市,随县,32.1531,113.0822,215.4,983.2,24.3,78.0,23.692466861001314,47.93199999999998
Q3823,2025-06-03 05:00:00,南郊,随州市,曾都区,31.7278,113.2831,64.1,1000.2,26.8,69.0,24.316493242750933,36.36250000000001
Q3829,2025-06-03 05:00:00,大堰坡,随州市,曾都区,31.61,113.4317,85.0,998.5,27.6,65.0,24.008520715477324,39.568500000000014
Q3830,2025-06-03 05:00:00,长岗,随州市,随县,31.53,112.9711,228.2,981.8,27.6,60.0,22.16171142967137,39.46449999999999
Q3831,2025-06-03 05:00:00,雷达站,随州市,曾都区,31.7164,113.3869,96.2,996.6,27.5,63.0,23.1339161673075,41.77600000000001
Q3832,2025-06-03 05:00:00,府河,随州市,曾都区,31.4911,113.5678,65.8,999.9,29.0,60.0,24.04448105652241,42.9125
Q3836,2025-06-03 05:00:00,新城,随州市,随县,32.3561,113.1931,215.4,983.2,25.2,63.0,20.19424377806605,41.08550000000004
Q3844,2025-06-03 05:00:00,东庄畈,随州市,随县,31.5131,113.0106,274.3,976.6,27.2,60.0,21.648024554980772,38.77850000000001
Q3845,2025-06-03 05:00:00,城南新区,随州市,曾都区,31.6922,113.3744,78.4,998.5,27.3,66.0,23.953006578742627,40.00150000000003
Q3847,2025-06-03 05:00:00,金顶,随州市,随县,31.4867,112.9781,1042.0,893.9,22.5,47.0,12.805494347560195,20.479500000000023
Q3852,2025-06-03 05:00:00,王家河,随州市,随县,31.9353,113.3081,122.2,993.6,25.7,72.0,23.77585310180324,43.2249999999999
Q3853,2025-06-03 05:00:00,银杏谷,随州市,曾都区,31.4347,113.2972,175.7,987.0,29.1,54.0,21.765739944738836,39.892499999999984
Q3854,2025-06-03 05:00:00,自在谷,随州市,随县,31.4703,112.9844,467.3,955.2,28.1,42.0,15.973144762420931,23.23849999999998
Q3855,2025-06-03 05:00:00,状元台,随州市,随县,31.4778,112.9647,981.1,900.6,21.4,49.0,12.48313686441394,19.58500000000004
Q3856,2025-06-03 05:00:00,北郊,随州市,曾都区,31.7839,113.3958,105.4,995.6,26.5,66.0,22.851491430242756,37.55100000000001
Q3857,2025-06-03 05:00:00,西城,随州市,曾都区,31.7206,113.3617,64.5,1000.1,26.9,68.0,24.105569235583744,37.19500000000003
Q3901,2025-06-03 05:00:00,余店,随州市,广水市,31.7872,113.6322,109.6,995.0,26.8,67.0,23.611667351656703,45.8605
Q3902,2025-06-03 05:00:00,长岭,随州市,广水市,31.4711,113.5781,47.3,1001.8,29.1,58.0,23.37801697768245,44.29749999999996
Q3909,2025-06-03 05:00:00,蔡河,随州市,广水市,31.7264,113.8322,120.0,993.9,27.1,64.0,22.95599041316652,34.575175
Q3911,2025-06-03 05:00:00,太平,随州市,广水市,31.4608,113.9217,46.4,1000.1,28.8,58.0,22.975002757981517,35.49350000000001
Q3913,2025-06-03 05:00:00,武胜关,随州市,广水市,31.7358,114.0353,100.0,994.8,28.2,60.0,22.952214909881818,36.56049999999996
Q3918,2025-06-03 05:00:00,应山,随州市,广水市,31.62,113.82,93.3,996.6,28.2,59.0,22.56967799471712,38.92300000000003
Q3924,2025-06-03 05:00:00,尹家湾,随州市,广水市,32.0019,113.7164,203.6,984.1,27.4,65.0,23.72884774300041,48.181500000000014
Q4000,2025-06-03 05:00:00,葛洲坝,宜昌市,西陵区,30.7433,111.2694,67.8,999.9,26.5,59.0,20.42784839976246,39.22499999999996
Q4001,2025-06-03 05:00:00,王家河公园,宜昌市,伍家岗区,30.6589,111.3303,56.3,1001.6,28.7,57.0,22.448192048939585,41.94099999999993
Q4002,2025-06-03 05:00:00,窑湾,宜昌市,西陵区,30.7186,111.3436,160.0,988.1,27.4,59.0,21.53849256672345,45.91799999999993
Q4003,2025-06-03 05:00:00,猇亭,宜昌市,猇亭区,30.5061,111.4444,42.6,1002.2,28.4,59.0,22.834116018671768,39.38849999999998
Q4005,2025-06-03 05:00:00,土城,宜昌市,点军区,30.6931,111.0022,615.0,939.4,25.3,69.0,22.24965562996817,41.475499999999975
Q4015,2025-06-03 05:00:00,白龙岗公园,宜昌市,西陵区,30.7067,111.2972,116.6,992.9,28.0,55.0,20.795518215833035,35.20550000000003
Q4019,2025-06-03 05:00:00,艾家小学,宜昌市,点军区,30.6183,111.3422,87.0,997.7,27.6,58.0,21.422987715348995,41.95149999999994
Q4022,2025-06-03 05:00:00,猇亭古战场,宜昌市,猇亭区,30.5697,111.3964,78.5,998.8,28.7,55.0,21.660536187573285,43.43099999999997
Q4023,2025-06-03 05:00:00,长岭,宜昌市,点军区,30.6519,111.205,100.0,996.3,28.5,56.0,21.79951588620465,44.33749999999992
Q4025,2025-06-03 05:00:00,鸣翠谷,宜昌市,点军区,30.7389,111.2333,98.8,996.3,27.2,64.0,23.09122619197949,32.06649999999999
Q4026,2025-06-03 05:00:00,沙河公园,宜昌市,西陵区,30.7417,111.3144,86.3,997.8,27.7,62.0,23.03484510263513,32.842499999999994
Q4032,2025-06-03 05:00:00,宜昌一中,宜昌市,点军区,30.7086,111.2361,78.9,998.6,28.7,55.0,21.660536187573285,43.43099999999997
Q4033,2025-06-03 05:00:00,水井湾,宜昌市,伍家岗区,30.6853,111.3367,84.3,998.1,28.2,59.0,22.56967799471712,42.321999999999946
Q4034,2025-06-03 05:00:00,龙盘湖,宜昌市,伍家岗区,30.6161,111.4,62.5,1000.6,28.9,54.0,21.5149604746131,42.65299999999998
Q4035,2025-06-03 05:00:00,碧桂园公园,宜昌市,伍家岗区,30.6478,111.3658,88.6,997.6,28.7,60.0,23.62967584098904,31.940000000000065
Q4036,2025-06-03 05:00:00,夷陵中学,宜昌市,夷陵区,30.6967,111.3817,113.0,994.8,28.0,61.0,23.06412020301482,39.93450000000008
Q4037,2025-06-03 05:00:00,李家咀,宜昌市,点军区,30.7214,111.1625,389.1,964.1,27.1,62.0,22.238615712755067,44.23700000000001
Q4105,2025-06-03 05:00:00,太平溪,宜昌市,夷陵区,30.8789,110.9697,215.0,983.9,25.7,63.0,20.803871464077837,45.27200000000003
Q4109,2025-06-03 05:00:00,樟村坪林场,宜昌市,夷陵区,31.2667,111.15,1162.0,883.6,23.1,44.0,12.432574592930468,24.026
Q4111,2025-06-03 05:00:00,鸦鹊岭,宜昌市,夷陵区,30.6117,111.5211,109.2,995.3,27.8,52.0,19.43285625561157,27.31550000000001
Q4112,2025-06-03 05:00:00,王家垭,宜昌市,夷陵区,30.9667,110.9878,990.0,900.6,23.0,63.0,17.6937100391805,33.856
Q4113,2025-06-03 05:00:00,古村坪,宜昌市,夷陵区,30.9228,110.9672,855.0,914.1,21.4,70.0,17.833052663448484,35.575499999999955
Q4115,2025-06-03 05:00:00,百里荒,宜昌市,夷陵区,30.96,111.5114,1251.8,872.5,19.9,45.0,10.451270778370644,16.025500000000033
Q4120,2025-06-03 05:00:00,秀水,宜昌市,夷陵区,31.1456,111.0747,1068.2,891.7,23.9,42.0,12.454525801348458,21.537999999999997
Q4127,2025-06-03 05:00:00,十字沟,宜昌市,夷陵区,31.0511,111.4406,402.0,962.9,26.3,59.0,20.18795417402334,35.77849999999998
Q4131,2025-06-03 05:00:00,二户坪,宜昌市,夷陵区,31.0117,111.3114,945.0,906.1,22.9,45.0,12.562001906841887,21.80650000000003
Q4140,2025-06-03 05:00:00,三峡大瀑布,宜昌市,夷陵区,30.9325,111.3158,169.1,986.3,26.0,76.0,25.54724892257401,45.50599999999998
Q4146,2025-06-03 05:00:00,沙坪,宜昌市,夷陵区,30.9192,111.0428,403.0,963.1,25.9,66.0,22.05467945236576,41.63900000000004
Q4148,2025-06-03 05:00:00,黄金河,宜昌市,夷陵区,31.0078,110.9369,705.9,930.1,24.2,61.0,18.417852697336084,30.610499999999988
Q4150,2025-06-03 05:00:00,古村,宜昌市,夷陵区,31.4353,111.2158,1098.9,889.0,24.0,38.0,11.336366358308956,21.102499999999992
Q4153,2025-06-03 05:00:00,马卧泥,宜昌市,夷陵区,31.2117,111.2406,1073.1,891.6,24.1,40.0,12.004959093740496,25.684
Q4154,2025-06-03 05:00:00,青龙,宜昌市,夷陵区,30.7428,111.5075,108.8,995.3,27.3,58.0,21.049611841925337,32.651
Q4201,2025-06-03 05:00:00,傅家堰,宜昌市,五峰土家族自治县,30.3053,110.4817,705.3,929.0,22.2,70.0,18.726853000787084,32.90950000000001
Q4202,2025-06-03 05:00:00,长乐坪,宜昌市,五峰土家族自治县,30.1778,110.8722,1004.1,898.6,23.9,44.0,13.047598458555528,28.07750000000001
Q4203,2025-06-03 05:00:00,湾潭,宜昌市,五峰土家族自治县,30.0528,110.4344,1139.2,882.4,23.0,36.0,10.110691450960283,18.783500000000043
Q4204,2025-06-03 05:00:00,仁和坪,宜昌市,五峰土家族自治县,30.1022,111.2453,591.9,941.9,25.8,47.0,15.61273643068507,27.428999999999977
Q4205,2025-06-03 05:00:00,牛庄,宜昌市,五峰土家族自治县,30.2381,110.3611,1830.5,816.1,16.6,49.0,9.25007778786514,15.375999999999992
Q4206,2025-06-03 05:00:00,采花,宜昌市,五峰土家族自治县,30.2056,110.445,506.8,951.8,24.6,56.0,17.318552732351087,27.27449999999999
Q4207,2025-06-03 05:00:00,渔关,宜昌市,五峰土家族自治县,30.1831,111.075,255.1,978.4,28.5,51.0,19.85313053922209,28.534499999999976
Q4208,2025-06-03 05:00:00,清水湾,宜昌市,五峰土家族自治县,30.0797,110.9669,853.1,913.3,25.2,42.0,13.462829185377364,25.945500000000028
Q4209,2025-06-03 05:00:00,后河,宜昌市,五峰土家族自治县,30.0789,110.6214,952.7,903.8,20.4,77.0,18.445413983985382,34.16999999999999
Q4210,2025-06-03 05:00:00,水浕司,宜昌市,五峰土家族自治县,30.2494,110.6283,564.8,945.2,23.4,63.0,18.127054638406825,27.96050000000002
Q4213,2025-06-03 05:00:00,北风垭,宜昌市,五峰土家族自治县,30.14,110.5681,2213.7,779.9,14.0,59.0,9.424572167245508,14.36150000000001
Q4214,2025-06-03 05:00:00,涨水坪,宜昌市,五峰土家族自治县,30.2553,111.02,737.6,926.6,25.1,47.0,14.97599957362254,28.224999999999994
Q4215,2025-06-03 05:00:00,三教庙,宜昌市,五峰土家族自治县,30.2011,110.9022,1031.0,894.8,23.6,46.0,13.3963625442705,25.357000000000024
Q4218,2025-06-03 05:00:00,大龙坪,宜昌市,五峰土家族自治县,30.3589,110.4706,1157.3,883.0,22.6,40.0,10.964742011699077,21.234
Q4238,2025-06-03 05:00:00,万里,宜昌市,五峰土家族自治县,30.1997,110.4069,1174.1,881.2,21.1,67.0,16.757324431473126,28.458000000000016
Q4249,2025-06-03 05:00:00,柴埠溪,宜昌市,五峰土家族自治县,30.2219,110.8947,1259.0,873.0,20.9,55.0,13.587846453087682,22.820499999999985
Q4252,2025-06-03 05:00:00,万马池,宜昌市,五峰土家族自治县,30.2056,110.665,619.4,939.3,23.9,58.0,17.199107059005012,30.9965
Q4309,2025-06-03 05:00:00,胡家畈,宜昌市,枝江市,30.5808,111.6733,125.7,992.8,27.0,57.0,20.325351717503477,32.89249999999994
Q4321,2025-06-03 05:00:00,雅畈,宜昌市,枝江市,30.3967,111.5886,68.0,1000.0,28.0,56.0,21.17361854703,35.7265
Q4323,2025-06-03 05:00:00,马家店,宜昌市,枝江市,30.43,111.7592,44.5,1002.8,28.2,54.0,20.65699341889364,39.95399999999999
Q4325,2025-06-03 05:00:00,万福垴,宜昌市,枝江市,30.4386,111.4522,55.9,1001.3,27.9,55.0,20.67444217012206,36.583499999999965
Q4326,2025-06-03 05:00:00,田家河,宜昌市,枝江市,30.3369,111.5311,57.0,1001.3,28.8,53.0,20.994399071948628,38.015000000000015
Q4327,2025-06-03 05:00:00,姚家港工业园,宜昌市,枝江市,30.4011,111.6131,87.7,997.8,27.8,57.0,21.301400126343445,29.801499999999965
Q4401,2025-06-03 05:00:00,社坪,宜昌市,长阳土家族自治县,30.63,110.5428,506.0,951.5,23.9,57.0,16.90257073040148,32.014500000000034
Q4403,2025-06-03 05:00:00,渔峡口,宜昌市,长阳土家族自治县,30.4286,110.4992,380.0,966.8,24.8,61.0,19.09189178019187,33.47349999999996
Q4404,2025-06-03 05:00:00,高家堰,宜昌市,长阳土家族自治县,30.6069,111.0583,167.0,988.8,28.1,59.0,22.43846526149607,38.07299999999998
Q4406,2025-06-03 05:00:00,大堰,宜昌市,长阳土家族自治县,30.3353,111.0731,631.0,937.7,25.4,57.0,18.489888485970543,31.617000000000008
Q4411,2025-06-03 05:00:00,横山,宜昌市,长阳土家族自治县,30.3692,110.9569,473.0,954.8,25.5,64.0,20.88443456732826,30.917999999999992
Q4415,2025-06-03 05:00:00,火烧坪,宜昌市,长阳土家族自治县,30.4944,110.7997,1546.9,844.0,18.9,47.0,10.256958108670656,15.98600000000002
Q4425,2025-06-03 05:00:00,榔坪,宜昌市,长阳土家族自治县,30.6219,110.4972,490.0,955.5,24.3,62.0,18.83247365874464,35.95399999999996
Q4437,2025-06-03 05:00:00,中岭,宜昌市,长阳土家族自治县,30.6211,110.8139,1055.0,893.7,22.9,50.0,13.957779896490988,29.651
Q4441,2025-06-03 05:00:00,龙池山,宜昌市,长阳土家族自治县,30.5814,111.0614,680.0,932.3,24.2,59.0,17.813988674472604,32.91650000000001
Q4443,2025-06-03 05:00:00,清江画廊,宜昌市,长阳土家族自治县,30.4703,111.1336,190.3,986.5,26.5,57.0,19.735378962482372,32.82749999999995
Q4446,2025-06-03 05:00:00,三洞水,宜昌市,长阳土家族自治县,30.3936,111.1128,220.0,984.5,27.4,54.0,19.713196586492653,32.332499999999975
Q4447,2025-06-03 05:00:00,都镇湾,宜昌市,长阳土家族自治县,30.4117,110.97,290.0,976.6,26.6,57.0,19.85216056251395,28.278999999999986
Q4453,2025-06-03 05:00:00,崩尖子,宜昌市,长阳土家族自治县,30.3731,110.7244,283.3,976.3,25.2,64.0,20.51478733009884,28.697500000000005
Q4510,2025-06-03 05:00:00,九道河,宜昌市,宜都市,30.1967,111.4717,199.8,985.2,27.9,54.0,20.298543221574384,33.57050000000007
Q4519,2025-06-03 05:00:00,陆城,宜昌市,宜都市,30.3839,111.4547,74.1,999.5,28.1,51.0,19.395961497225414,31.3325
Q4604,2025-06-03 05:00:00,草埠湖,宜昌市,当阳市,30.5725,111.9686,74.0,1001.4,27.1,60.0,21.52124101234361,42.005500000000055
Q4606,2025-06-03 05:00:00,王店,宜昌市,当阳市,30.7075,111.675,158.6,989.4,26.7,57.0,19.969545993910955,39.62349999999998
Q4610,2025-06-03 05:00:00,红旗岗,宜昌市,当阳市,31.0844,111.9219,102.3,993.9,26.0,74.0,24.874952898295746,46.74450000000001
Q4611,2025-06-03 05:00:00,淯溪光明,宜昌市,当阳市,30.9275,111.9269,58.0,1001.5,26.8,68.0,23.964080297203825,47.30350000000001
Q4612,2025-06-03 05:00:00,向家草坝,宜昌市,当阳市,30.9167,111.685,96.0,997.0,27.9,55.0,20.67444217012206,38.97600000000001
Q4614,2025-06-03 05:00:00,长坂雄风,宜昌市,当阳市,30.8369,111.7611,70.0,999.9,28.0,56.0,21.17361854703,38.63300000000007
Q4701,2025-06-03 05:00:00,嫘祖,宜昌市,远安县,31.1906,111.4081,553.8,946.2,27.3,42.0,15.242822368290764,27.30100000000001
Q4708,2025-06-03 05:00:00,茅坪场,宜昌市,远安县,31.1481,111.6794,179.8,986.6,27.8,56.0,20.927691352197076,39.82000000000003
Q4709,2025-06-03 05:00:00,洋坪,宜昌市,远安县,31.2208,111.5594,152.4,990.9,28.2,52.0,19.89191958856424,34.66175000000001
Q4710,2025-06-03 05:00:00,晓坪水库,宜昌市,远安县,31.1881,111.7553,391.9,963.6,27.4,49.0,17.88790060626185,27.72449999999999
Q4718,2025-06-03 05:00:00,芭芒店,宜昌市,远安县,31.2361,111.5361,186.0,984.7,27.6,58.0,21.422987715348995,33.81600000000005
Q4729,2025-06-03 05:00:00,龙凤,宜昌市,远安县,30.9167,111.5608,723.5,925.2,24.5,44.0,13.526192317465147,22.108500000000003
Q4801,2025-06-03 05:00:00,高桥,宜昌市,兴山县,31.2092,110.53,992.5,899.7,20.7,75.0,18.302026615496167,31.88799999999997
Q4802,2025-06-03 05:00:00,昭君,宜昌市,兴山县,31.2261,110.7697,286.0,976.8,25.3,54.0,17.412773971279442,30.892500000000005
Q4804,2025-06-03 05:00:00,峡口,宜昌市,兴山县,31.1192,110.7786,266.0,980.1,24.3,65.0,19.743722384167764,36.82350000000007
Q4806,2025-06-03 05:00:00,榛子,宜昌市,兴山县,31.5008,111.0083,1281.0,870.0,22.8,39.0,10.821238184215156,21.284500000000016
Q4808,2025-06-03 05:00:00,南对河,宜昌市,兴山县,31.1778,111.0017,644.1,937.2,23.5,67.0,19.3947265998496,35.73349999999997
Q4818,2025-06-03 05:00:00,观音河,宜昌市,兴山县,31.5183,110.8078,498.7,955.2,26.0,52.0,17.479696631234848,29.596500000000034
Q4837,2025-06-03 05:00:00,和平,宜昌市,兴山县,31.4728,110.9975,1301.6,869.0,24.2,36.0,10.869552411542609,20.78350000000002
Q4901,2025-06-03 05:00:00,彭家坡,宜昌市,秭归县,31.0306,110.6972,190.3,986.4,24.6,73.0,22.57597052610052,48.73649999999992
Q4902,2025-06-03 05:00:00,郭家坝,宜昌市,秭归县,30.9564,110.7569,351.0,970.3,23.9,69.0,20.46100667364389,40.03250000000002
Q4903,2025-06-03 05:00:00,两河口,宜昌市,秭归县,30.8722,110.5756,620.5,939.8,23.0,75.0,21.063940522833924,34.53800000000004
Q4905,2025-06-03 05:00:00,杨林桥,宜昌市,秭归县,30.7458,110.7553,421.8,962.0,24.2,70.0,21.13524080022173,33.55000000000001
Q4909,2025-06-03 05:00:00,沙镇溪,宜昌市,秭归县,30.9614,110.6022,420.0,962.2,23.3,70.0,20.0198400748644,39.406
Q4911,2025-06-03 05:00:00,九畹溪,宜昌市,秭归县,30.8442,110.7836,499.0,953.3,24.0,65.0,19.39115298131795,35.58299999999997
Q4918,2025-06-03 05:00:00,金缸城,宜昌市,秭归县,30.8361,110.9464,547.7,947.0,23.5,74.0,21.421041319236867,41.62400000000003
Q4920,2025-06-03 05:00:00,烟墩堡,宜昌市,秭归县,30.9039,110.7792,918.0,907.7,19.8,100.0,23.081404983815023,53.21300000000007
Q4921,2025-06-03 05:00:00,芝兰,宜昌市,秭归县,30.7814,110.7939,271.1,978.1,25.8,58.0,19.266781127228384,31.876499999999982
Q4932,2025-06-03 05:00:00,九岭头,宜昌市,秭归县,30.9803,110.8039,1385.0,860.3,17.8,100.0,20.367713020241688,42.06999999999999
Q4941,2025-06-03 05:00:00,高潮,宜昌市,秭归县,30.9881,110.4783,753.0,927.1,20.9,83.0,20.505295556477776,33.686000000000064
Q4945,2025-06-03 05:00:00,七甲,宜昌市,秭归县,30.7944,110.4961,1330.0,866.0,20.3,59.0,14.046416775680925,26.381000000000004
Q4950,2025-06-03 05:00:00,雁落坪,宜昌市,秭归县,30.8117,110.3497,985.0,900.7,21.4,73.0,18.59732634902485,33.14249999999999
Q4957,2025-06-03 05:00:00,三台寺,宜昌市,秭归县,30.6814,110.7139,1085.0,891.6,21.3,66.0,16.711201487787037,32.869000000000035
Q4962,2025-06-03 05:00:00,吴家沟,宜昌市,秭归县,30.9811,110.7606,209.2,983.5,25.6,63.0,20.680673983866946,45.49049999999999
Q5102,2025-06-03 05:00:00,白杨坪,恩施土家族苗族自治州,恩施市,30.4808,109.5828,638.9,937.3,24.3,69.0,20.95872068473193,37.213
Q5106,2025-06-03 05:00:00,三岔,恩施土家族苗族自治州,恩施市,30.2978,109.6278,1054.7,893.7,21.4,78.0,19.871115824985456,41.587499999999984
Q5109,2025-06-03 05:00:00,芭蕉,恩施土家族苗族自治州,恩施市,30.1222,109.3956,599.8,941.8,23.1,73.0,20.62677148372555,39.42050000000005
Q5116,2025-06-03 05:00:00,金龙坝,恩施土家族苗族自治州,恩施市,30.0906,109.1692,881.0,912.4,22.0,72.0,19.02836528939959,33.82949999999996
Q5122,2025-06-03 05:00:00,望城坡,恩施土家族苗族自治州,恩施市,30.3303,109.4231,1113.0,887.7,20.9,77.0,19.022985034322755,38.08774166666669
Q5133,2025-06-03 05:00:00,小卫家山,恩施土家族苗族自治州,恩施市,30.3539,109.6558,1312.4,868.0,21.5,72.0,18.45533998105163,36.72515000000002
Q5135,2025-06-03 05:00:00,神堂,恩施土家族苗族自治州,恩施市,30.3583,109.8217,1567.0,842.4,19.3,48.0,10.739918764076297,21.370500000000003
Q5150,2025-06-03 05:00:00,大峡谷顶,恩施土家族苗族自治州,恩施市,30.4167,109.1628,1615.0,835.4,19.0,49.0,10.760430815616507,18.590000000000003
Q5153,2025-06-03 05:00:00,马者滑坡点,恩施土家族苗族自治州,恩施市,30.3733,109.3019,946.0,906.1,22.5,68.0,18.527098204980717,37.34075000000005
Q5206,2025-06-03 05:00:00,宜影古镇,恩施土家族苗族自治州,利川市,30.3353,109.1053,1025.3,897.5,22.7,61.0,16.823107241693997,29.47499999999993
Q5207,2025-06-03 05:00:00,元堡,恩施土家族苗族自治州,利川市,30.2233,109.0339,1088.3,888.3,21.6,62.0,15.989730226208271,26.012500000000003
Q5208,2025-06-03 05:00:00,黄泥塘,恩施土家族苗族自治州,利川市,30.0775,108.8592,1469.7,856.7,19.1,51.0,11.269756825812506,24.40350000000001
Q5209,2025-06-03 05:00:00,龙桥,恩施土家族苗族自治州,利川市,29.9294,108.7097,474.0,955.0,24.0,76.0,22.67273271661791,40.7655
Q5211,2025-06-03 05:00:00,建南,恩施土家族苗族自治州,利川市,30.4353,108.5392,676.0,933.5,23.6,74.0,21.55067017991341,40.4575
Q5214,2025-06-03 05:00:00,南坪,恩施土家族苗族自治州,利川市,30.43,108.7925,1129.0,885.9,22.2,58.0,15.5165353435093,24.92049999999999
Q5222,2025-06-03 05:00:00,凉雾,恩施土家族苗族自治州,利川市,30.2664,108.805,1092.5,888.2,22.1,60.0,15.954019561647948,25.23049999999999
Q5226,2025-06-03 05:00:00,利川团堡,恩施土家族苗族自治州,利川市,30.3353,109.1494,986.8,899.9,21.5,74.0,18.967988313858616,33.64549999999995
Q5241,2025-06-03 05:00:00,小河,恩施土家族苗族自治州,利川市,30.0786,108.6025,1074.0,892.3,22.0,65.0,17.178385330707965,24.86299999999997
Q5249,2025-06-03 05:00:00,铁峰,恩施土家族苗族自治州,利川市,30.4533,108.6578,1558.5,842.2,18.8,88.0,19.08483773580104,37.53650000000002
Q5250,2025-06-03 05:00:00,药材,恩施土家族苗族自治州,利川市,30.4922,108.7469,1406.0,855.8,18.0,93.0,19.182031663729905,35.3735
Q5301,2025-06-03 05:00:00,黄金洞,恩施土家族苗族自治州,咸丰县,29.9539,109.0781,788.1,920.4,22.9,75.0,20.93666984473648,39.10800000000002
Q5307,2025-06-03 05:00:00,朝阳寺,恩施土家族苗族自治州,咸丰县,29.6125,108.9175,468.0,956.1,24.4,70.0,21.390369771245528,34.90999999999996
Q5309,2025-06-03 05:00:00,坪坝营,恩施土家族苗族自治州,咸丰县,29.3997,108.9803,1268.8,871.7,19.8,63.0,14.541285139803463,22.67849999999999
Q5310,2025-06-03 05:00:00,茅坝,恩施土家族苗族自治州,咸丰县,29.7658,108.8233,723.6,928.3,23.1,70.0,19.77909594329847,33.728500000000025
Q5326,2025-06-03 05:00:00,李子溪,恩施土家族苗族自治州,咸丰县,29.8839,108.9089,832.0,917.3,22.1,76.0,20.2084247780874,36.6165
Q5327,2025-06-03 05:00:00,中心场,恩施土家族苗族自治州,咸丰县,29.9194,108.9083,847.0,915.5,22.4,74.0,20.03956497117446,38.459
Q5330,2025-06-03 05:00:00,八家台,恩施土家族苗族自治州,咸丰县,29.8736,108.8114,869.0,910.8,22.2,71.0,18.994379472226903,32.25050000000002
Q5338,2025-06-03 05:00:00,柏杨坪,恩施土家族苗族自治州,咸丰县,29.8175,109.0397,872.4,910.0,21.6,75.0,19.342415596219684,32.62750000000002
Q5409,2025-06-03 05:00:00,翔凤,恩施土家族苗族自治州,来凤县,29.4669,109.4019,458.0,957.3,24.7,72.0,22.400350516937262,34.257000000000026
Q5421,2025-06-03 05:00:00,兴隆坳,恩施土家族苗族自治州,来凤县,29.3261,109.2883,602.0,939.4,23.4,80.0,23.018482080516605,50.09149999999996
Q5422,2025-06-03 05:00:00,沙坝水库,恩施土家族苗族自治州,来凤县,29.4094,109.3228,512.0,950.8,24.0,75.0,22.37440728613609,45.93100000000007
Q5508,2025-06-03 05:00:00,沙道,恩施土家族苗族自治州,宣恩县,29.6986,109.5653,589.0,942.4,23.5,73.0,21.13156778789583,37.665000000000006
Q5509,2025-06-03 05:00:00,椿木营,恩施土家族苗族自治州,宣恩县,30.0575,109.8269,1681.0,830.5,18.8,42.0,9.108672555723222,16.466999999999988
Q5515,2025-06-03 05:00:00,中间河,恩施土家族苗族自治州,宣恩县,30.1294,109.6347,664.8,934.5,23.2,74.0,21.036243306314823,42.452999999999946
Q5516,2025-06-03 05:00:00,长潭北,恩施土家族苗族自治州,宣恩县,30.0081,109.5883,490.9,953.3,24.3,70.0,21.262470259872973,40.04299999999999
Q5517,2025-06-03 05:00:00,荆竹坪,恩施土家族苗族自治州,宣恩县,29.96,109.3461,1134.7,885.2,19.9,78.0,18.115536015842448,31.549500000000045
Q5530,2025-06-03 05:00:00,洗草坝,恩施土家族苗族自治州,宣恩县,29.9867,109.3608,743.4,926.3,22.1,84.0,22.335627386307127,47.23050000000004
Q5532,2025-06-03 05:00:00,金盆村,恩施土家族苗族自治州,宣恩县,29.8356,109.6717,655.8,935.3,23.0,72.0,20.22138290192057,37.45249999999997
Q5539,2025-06-03 05:00:00,竹园,恩施土家族苗族自治州,宣恩县,29.9019,109.26,1180.2,880.9,19.7,75.0,17.20390803035601,34.919000000000025
Q5543,2025-06-03 05:00:00,彭家寨,恩施土家族苗族自治州,宣恩县,29.6717,109.6153,582.9,942.5,23.0,79.0,22.187350684051733,43.4185
Q5601,2025-06-03 05:00:00,江坪河,恩施土家族苗族自治州,鹤峰县,29.7383,110.3472,467.0,954.8,23.4,79.0,22.730751054510144,42.80650000000004
Q5603,2025-06-03 05:00:00,蛤蟆颈,恩施土家族苗族自治州,鹤峰县,30.0658,110.2706,1382.0,858.4,20.1,43.0,10.111314033855406,16.837500000000038
Q5605,2025-06-03 05:00:00,清湖,恩施土家族苗族自治州,鹤峰县,30.0139,110.2697,1300.0,866.2,21.7,38.0,9.860318219651736,16.2315
Q5610,2025-06-03 05:00:00,五里,恩施土家族苗族自治州,鹤峰县,29.8969,110.3406,1142.0,884.7,22.4,45.0,12.186221941930416,20.53550000000001
Q5620,2025-06-03 05:00:00,堰塘,恩施土家族苗族自治州,鹤峰县,29.8628,109.8564,1175.0,880.8,21.0,78.0,19.388960266859936,38.2135
Q5621,2025-06-03 05:00:00,云蒙,恩施土家族苗族自治州,鹤峰县,30.0564,110.0675,1011.3,897.3,19.6,89.0,20.288849164237263,33.877000000000045
Q5626,2025-06-03 05:00:00,龚家垭,恩施土家族苗族自治州,鹤峰县,30.1083,110.1294,1215.7,876.9,19.2,79.0,17.56629557522628,37.24625000000003
Q5628,2025-06-03 05:00:00,马家,恩施土家族苗族自治州,鹤峰县,29.7681,110.5636,509.0,949.0,23.9,76.0,22.53676097386864,42.44600000000005
Q5629,2025-06-03 05:00:00,细杉,恩施土家族苗族自治州,鹤峰县,29.8014,110.6133,673.7,932.6,23.2,73.0,20.75196974812138,35.831000000000024
Q5630,2025-06-03 05:00:00,堰垭,恩施土家族苗族自治州,鹤峰县,29.7203,110.2667,912.3,907.8,22.9,78.0,21.774136638525945,40.22750000000005
Q5632,2025-06-03 05:00:00,上六峰,恩施土家族苗族自治州,鹤峰县,29.9206,110.4636,1194.0,878.6,20.2,71.0,16.79908813968314,27.747000000000003
Q5633,2025-06-03 05:00:00,中坪,恩施土家族苗族自治州,鹤峰县,29.9917,110.4858,1137.0,882.2,20.7,62.0,15.129675335476836,19.69849999999999
Q5634,2025-06-03 05:00:00,水泉,恩施土家族苗族自治州,鹤峰县,29.9133,110.2561,606.5,940.0,24.0,67.0,19.98780384228158,39.39449999999994
Q5706,2025-06-03 05:00:00,溪丘湾,恩施土家族苗族自治州,巴东县,31.1572,110.4386,741.0,926.3,21.6,77.0,19.858213345452214,37.14999999999998
Q5707,2025-06-03 05:00:00,大支坪,恩施土家族苗族自治州,巴东县,30.6875,110.1708,1411.0,857.3,20.6,57.0,13.824031835933718,25.175500000000007
Q5708,2025-06-03 05:00:00,朱砂土,恩施土家族苗族自治州,巴东县,30.8936,110.3064,1166.0,880.6,19.6,78.0,17.781238593376475,31.622000000000007
Q5709,2025-06-03 05:00:00,玉米塘,恩施土家族苗族自治州,巴东县,30.6925,110.2486,1570.6,839.9,18.6,54.0,11.565475584641025,21.038
Q5710,2025-06-03 05:00:00,茅山岭,恩施土家族苗族自治州,巴东县,31.2233,110.2003,942.7,903.6,19.6,95.0,21.656636748343143,44.23049999999999
Q5712,2025-06-03 05:00:00,税家,恩施土家族苗族自治州,巴东县,30.9331,110.2219,1150.3,884.1,19.8,80.0,18.46512398705202,36.28199999999999
Q5720,2025-06-03 05:00:00,高家坡,恩施土家族苗族自治州,巴东县,31.1225,110.4797,735.0,927.4,22.3,74.0,19.917938191884065,37.553
Q5730,2025-06-03 05:00:00,麻沙坪,恩施土家族苗族自治州,巴东县,30.7125,110.4111,1234.0,874.0,21.2,53.0,13.337477038219076,26.124499999999983
Q5732,2025-06-03 05:00:00,庙坪,恩施土家族苗族自治州,巴东县,30.6672,110.2142,1261.9,871.3,20.9,67.0,16.55246749739772,33.18650000000004
Q5736,2025-06-03 05:00:00,倒卜龙,恩施土家族苗族自治州,巴东县,30.4069,110.1308,950.0,903.4,21.7,63.0,16.34736967994893,29.5055
Q5751,2025-06-03 05:00:00,绿葱坡滑雪场,恩施土家族苗族自治州,巴东县,30.8117,110.2419,1663.0,831.6,17.7,55.0,11.131844263242582,22.4135
Q5802,2025-06-03 05:00:00,茅田,恩施土家族苗族自治州,建始县,30.8097,109.8839,1364.3,861.5,20.0,68.0,15.891240439163816,31.23300000000001
Q5804,2025-06-03 05:00:00,高坪,恩施土家族苗族自治州,建始县,30.5989,110.0597,1239.1,871.6,20.5,74.0,17.836576915505308,31.569000000000003
Q5819,2025-06-03 05:00:00,封竹,恩施土家族苗族自治州,建始县,30.8222,109.9811,1731.3,825.6,16.9,59.0,11.352148532921596,21.162999999999997
Q5823,2025-06-03 05:00:00,石垭子,恩施土家族苗族自治州,建始县,30.6128,110.0208,777.3,921.7,23.1,63.0,17.801186348968628,31.217999999999996
Q5824,2025-06-03 05:00:00,落水洞,恩施土家族苗族自治州,建始县,30.5825,109.9603,917.0,906.0,23.6,65.0,18.92964272559962,36.41307142857141
Q5827,2025-06-03 05:00:00,冷竹,恩施土家族苗族自治州,建始县,30.5347,109.9972,1227.8,874.4,22.1,58.0,15.422218909593015,26.929500000000026
Q5829,2025-06-03 05:00:00,粟谷坝,恩施土家族苗族自治州,建始县,30.3572,110.0744,754.5,922.9,24.2,66.0,19.927512754494774,41.50199999999999
Q5831,2025-06-03 05:00:00,竹园坝,恩施土家族苗族自治州,建始县,30.2125,109.9622,1551.0,843.1,19.5,53.0,12.007228690232363,19.720000000000024
Q5836,2025-06-03 05:00:00,野三河景区,恩施土家族苗族自治州,建始县,30.6983,110.0806,896.7,910.6,20.9,74.0,18.28182977324524,33.52950000000003
Q6080,2025-06-03 05:00:00,掇刀,荆门市,掇刀区,30.975,112.2028,108.5,994.9,27.2,54.0,19.4832220994827,37.380500000000055
Q6082,2025-06-03 05:00:00,麻城,荆门市,掇刀区,30.9114,112.2447,85.0,998.1,27.6,61.0,22.53107328683257,32.32549999999995
Q6083,2025-06-03 05:00:00,樊桥,荆门市,掇刀区,30.7958,112.2522,82.0,998.7,27.1,59.0,21.16255366213789,33.07249999999997
Q6084,2025-06-03 05:00:00,凤凰,荆门市,掇刀区,30.9525,112.1789,106.0,995.7,26.7,64.0,22.42194637912809,35.491499999999995
Q6085,2025-06-03 05:00:00,龙泉,荆门市,掇刀区,30.8675,112.0964,97.5,996.7,27.3,60.0,21.77546052612966,32.27099999999998
Q6086,2025-06-03 05:00:00,仙女,荆门市,掇刀区,31.0422,112.1217,190.0,986.4,25.6,74.0,24.291585314383397,42.82749999999999
Q6111,2025-06-03 05:00:00,后港,荆门市,沙洋县,30.5242,112.3883,31.2,1004.4,27.8,70.0,26.159614190246337,47.824000000000005
Q6113,2025-06-03 05:00:00,高阳,荆门市,沙洋县,30.7592,112.46,65.0,1000.4,27.5,59.0,21.665096093192737,38.99000000000001
Q6114,2025-06-03 05:00:00,五里,荆门市,沙洋县,30.7297,112.2397,67.0,1000.3,27.5,68.0,24.96994125995096,27.368000000000052
Q6115,2025-06-03 05:00:00,十里,荆门市,沙洋县,30.6244,112.1758,56.2,1001.3,28.4,73.0,28.25238083666168,45.80170000000004
Q6117,2025-06-03 05:00:00,拾回桥,荆门市,沙洋县,30.5508,112.275,36.5,1003.8,27.8,63.0,23.543652771221705,45.047
Q6118,2025-06-03 05:00:00,曾集,荆门市,沙洋县,30.7172,112.3717,71.0,999.7,28.0,61.0,23.06412020301482,30.916499999999992
Q6122,2025-06-03 05:00:00,雷集,荆门市,掇刀区,30.8122,112.2886,104.0,995.9,27.3,64.0,23.227157894538305,43.542
Q6125,2025-06-03 05:00:00,双堰,荆门市,沙洋县,30.8186,112.4253,60.1,1001.0,27.2,60.0,21.648024554980772,31.360500000000037
Q6128,2025-06-03 05:00:00,港口,荆门市,沙洋县,30.4275,112.3442,40.0,1003.6,28.1,62.0,23.579404173097565,47.405
Q6129,2025-06-03 05:00:00,姚集,荆门市,沙洋县,30.8017,112.6122,40.0,1003.2,26.7,67.0,23.47297511564972,34.050999999999945
Q6160,2025-06-03 05:00:00,石桥驿,荆门市,东宝区,31.2861,112.1533,98.0,996.7,28.4,59.0,22.834116018671768,39.74250000000002
Q6162,2025-06-03 05:00:00,仙居,荆门市,东宝区,31.3903,112.0286,129.0,993.1,28.5,59.0,22.967347094394174,37.302
Q6163,2025-06-03 05:00:00,马河,荆门市,东宝区,31.1444,111.935,134.0,992.6,27.8,64.0,23.91736154536808,38.280500000000046
Q6164,2025-06-03 05:00:00,栗溪,荆门市,东宝区,31.2678,111.9847,231.2,981.5,28.9,52.0,20.718110086664467,27.803500000000017
Q6167,2025-06-03 05:00:00,观音寺,荆门市,东宝区,31.0697,111.925,129.0,992.9,26.4,72.0,24.782145553887545,45.73749999999996
Q6168,2025-06-03 05:00:00,东宝,荆门市,东宝区,31.0633,112.2033,110.0,995.2,27.5,53.0,19.461865982020598,38.20850000000008
Q6169,2025-06-03 05:00:00,岩垱,荆门市,东宝区,31.2031,112.1422,112.5,995.2,27.5,64.0,23.50112118583619,40.08000000000002
Q6170,2025-06-03 05:00:00,象河,荆门市,东宝区,31.3072,112.1028,121.0,994.0,28.3,55.0,21.162471762477136,39.53699999999995
Q6171,2025-06-03 05:00:00,安河,荆门市,东宝区,31.0814,112.1022,246.3,980.1,26.8,72.0,25.373732079392283,54.68950000000001
Q6172,2025-06-03 05:00:00,圣境山,荆门市,东宝区,31.12,112.1464,355.3,968.0,25.5,66.0,21.53707314755727,41.9005
Q6173,2025-06-03 05:00:00,东宝八角,荆门市,东宝区,31.1497,112.2619,70.8,999.2,27.8,64.0,23.91736154536808,26.840000000000018
Q6174,2025-06-03 05:00:00,文丰,荆门市,东宝区,31.1786,112.0386,179.5,987.1,28.2,53.0,20.27445650372894,29.82950000000002
Q6175,2025-06-03 05:00:00,琵琶洲,荆门市,东宝区,31.135,111.9811,156.5,989.9,27.0,60.0,21.395107071056287,34.54400000000007
Q6176,2025-06-03 05:00:00,铁坪,荆门市,东宝区,31.2347,111.9575,270.2,977.0,28.5,46.0,17.90674519223953,22.74700000000001
Q6210,2025-06-03 05:00:00,长寿,荆门市,钟祥市,31.4994,112.5936,124.4,993.5,27.6,65.0,24.008520715477324,38.210499999999975
Q6213,2025-06-03 05:00:00,客店,荆门市,钟祥市,31.4353,112.8739,207.8,983.8,28.9,48.0,19.1244093107672,28.334999999999976
Q6217,2025-06-03 05:00:00,张集,荆门市,钟祥市,31.5064,112.72,136.9,991.9,28.8,48.0,19.01379538591574,26.566999999999965
Q6218,2025-06-03 05:00:00,洋梓,荆门市,钟祥市,31.2917,112.6356,56.0,1002.2,28.1,61.0,23.199091202563736,42.23899999999993
Q6219,2025-06-03 05:00:00,柴湖,荆门市,钟祥市,30.9944,112.5881,40.0,1003.1,27.5,67.0,24.60273624142226,43.896
Q6220,2025-06-03 05:00:00,磷矿,荆门市,钟祥市,31.2944,112.4272,47.9,1002.2,27.3,68.0,24.678855262946957,42.82699999999996
Q6223,2025-06-03 05:00:00,九里,荆门市,钟祥市,31.1669,112.6503,53.0,1002.4,28.4,59.0,22.834116018671768,45.31050000000001
Q6224,2025-06-03 05:00:00,文集,荆门市,钟祥市,31.1594,112.5319,54.6,1002.4,27.3,71.0,25.767628289253437,42.35699999999991
Q6235,2025-06-03 05:00:00,洪山寺,荆门市,钟祥市,31.4969,112.5197,56.0,1000.5,27.9,66.0,24.80933060414647,49.3145
Q6236,2025-06-03 05:00:00,北山,荆门市,钟祥市,31.2022,112.4103,93.0,997.3,27.6,59.0,21.792349572510187,39.9875
Q6237,2025-06-03 05:00:00,陈坡,荆门市,钟祥市,31.0467,112.4686,43.0,1002.0,27.6,60.0,22.16171142967137,45.89400000000009
Q6260,2025-06-03 05:00:00,钟祥杨集,荆门市,钟祥市,31.3961,112.4883,59.0,1001.8,28.9,58.0,23.10866125051036,42.317499999999946
Q6263,2025-06-03 05:00:00,明显陵,荆门市,钟祥市,31.2106,112.6344,65.0,1000.7,26.7,68.0,23.8233180278236,43.224999999999966
Q6264,2025-06-03 05:00:00,郢中,荆门市,钟祥市,31.1667,112.5667,65.8,1000.5,27.7,58.0,21.54872606375544,41.540999999999976
Q6317,2025-06-03 05:00:00,宋河,荆门市,京山市,31.1814,113.3008,77.2,998.4,28.2,58.0,22.187141079552426,39.27100000000004
Q6319,2025-06-03 05:00:00,永兴,荆门市,京山市,30.9697,113.2225,63.0,999.6,28.7,63.0,24.811159633038493,40.65400000000004
Q6320,2025-06-03 05:00:00,钱场,荆门市,京山市,30.8547,113.0992,49.6,1002.0,28.5,57.0,22.188792955601155,44.44499999999996
Q6321,2025-06-03 05:00:00,石龙,荆门市,京山市,30.8972,112.8411,34.0,1003.0,27.5,60.0,22.032301111721427,41.61900000000005
Q6322,2025-06-03 05:00:00,永漋,荆门市,京山市,30.7744,112.8278,33.9,1003.8,27.9,56.0,21.05034111866973,35.54899999999997
Q6323,2025-06-03 05:00:00,坪坝,荆门市,京山市,31.2839,113.3547,73.0,998.4,30.0,54.0,22.926107391458345,41.75500000000004
Q6324,2025-06-03 05:00:00,屈家岭,荆门市,市辖区,30.8344,112.945,77.0,999.0,27.5,64.0,23.50112118583619,41.39450000000002
Q6333,2025-06-03 05:00:00,三阳,荆门市,京山市,31.3436,113.1756,203.2,984.2,28.8,58.0,22.975002757981517,36.66099999999999
Q6335,2025-06-03 05:00:00,三台,荆门市,京山市,31.2819,112.9369,174.2,986.9,29.6,55.0,22.81877487988425,40.08500000000001
Q6336,2025-06-03 05:00:00,将军岭,荆门市,京山市,31.2428,112.9794,208.9,983.6,29.5,53.0,21.862468156835764,43.768
Q6339,2025-06-03 05:00:00,空山洞,荆门市,京山市,30.9928,113.045,105.0,995.5,29.8,60.0,25.181871900695736,43.34700000000001
Q6343,2025-06-03 05:00:00,四股泉,荆门市,京山市,31.1531,113.2286,226.5,981.6,28.4,58.0,22.447097103101058,44.83350000000004
Q6344,2025-06-03 05:00:00,马岭,荆门市,京山市,31.0558,113.4464,45.0,1001.6,28.7,57.0,22.448192048939585,37.95699999999995
Q6349,2025-06-03 05:00:00,中南山,荆门市,京山市,30.9269,113.0072,111.0,995.1,27.8,62.0,23.16994399707533,40.90299999999997
Q6353,2025-06-03 05:00:00,黄台,荆门市,京山市,31.1539,112.8736,115.4,994.4,28.1,62.0,23.579404173097565,43.97599999999994
Q6358,2025-06-03 05:00:00,绿林寨,荆门市,京山市,31.3367,113.0661,174.0,988.2,30.4,45.0,19.549100382232805,33.354999999999954
Q6370,2025-06-03 05:00:00,罗汉寺,荆门市,市辖区,30.9961,112.6831,38.0,1003.3,28.5,62.0,24.135178302583714,40.26800000000006
Q6371,2025-06-03 05:00:00,长滩办事处,荆门市,市辖区,30.9972,112.7556,57.0,1001.5,27.4,65.0,23.72884774300041,44.42599999999993
Q6372,2025-06-03 05:00:00,月宝山,荆门市,市辖区,30.9675,112.7822,89.0,997.4,27.5,64.0,23.50112118583619,42.828
Q6373,2025-06-03 05:00:00,牙谷山,荆门市,市辖区,30.9711,112.8208,105.0,995.7,27.1,62.0,22.238615712755067,40.96599999999999
Q6374,2025-06-03 05:00:00,刘台,荆门市,市辖区,30.8964,112.7422,38.5,1003.5,28.0,62.0,23.44222053421178,26.862499999999976
Q6375,2025-06-03 05:00:00,种业基地,荆门市,市辖区,30.8661,112.8697,73.3,999.6,27.3,63.0,22.864233552436147,35.908500000000004
Q6376,2025-06-03 05:00:00,蔡垱,荆门市,市辖区,30.7656,112.8836,33.1,1003.8,28.0,60.0,22.68601987181785,37.847000000000016
Q6401,2025-06-03 05:00:00,洈水,荆州市,松滋市,29.9694,111.5644,100.3,997.2,28.6,57.0,22.31816330325095,44.78849999999998
Q6402,2025-06-03 05:00:00,沙道观,荆州市,松滋市,30.1794,111.9433,38.4,1003.1,28.8,61.0,24.16336496960125,43.95050000000003
Q6403,2025-06-03 05:00:00,纸厂河,荆州市,松滋市,30.0286,111.8453,52.1,1002.7,29.1,54.0,21.765739944738836,29.773500000000027
Q6404,2025-06-03 05:00:00,南海,荆州市,松滋市,30.1169,111.85,48.2,1003.5,27.8,58.0,21.67510890048982,38.21949999999995
Q6406,2025-06-03 05:00:00,卸甲坪,荆州市,松滋市,30.03,111.37,136.0,993.3,28.7,55.0,21.660536187573285,36.963500000000046
Q6407,2025-06-03 05:00:00,北干渠,荆州市,松滋市,30.0261,111.6894,43.0,1001.4,29.3,48.0,19.572505207753554,34.23000000000007
Q6408,2025-06-03 05:00:00,北河,荆州市,松滋市,30.0728,111.6294,164.0,989.1,27.4,52.0,18.98307819440033,21.702500000000008
Q6409,2025-06-03 05:00:00,陈店,荆州市,松滋市,30.2792,111.6517,122.0,993.1,28.3,58.0,22.316788404066795,37.90449999999999
Q6411,2025-06-03 05:00:00,涴市,荆州市,松滋市,30.2714,112.0189,50.1,1003.3,26.9,56.0,19.85164525283367,35.39450000000001
Q6412,2025-06-03 05:00:00,杨林市,荆州市,松滋市,29.9758,111.7756,69.2,1000.2,29.5,56.0,23.099966354392507,37.82700000000001
Q6414,2025-06-03 05:00:00,八宝,荆州市,松滋市,30.18,111.8686,46.1,1003.3,27.9,61.0,22.9298358614081,38.171499999999966
Q6415,2025-06-03 05:00:00,万家,荆州市,松滋市,29.9686,111.6961,76.2,1000.6,29.7,50.0,20.864314374812427,35.48800000000007
Q6417,2025-06-03 05:00:00,三堰淌,荆州市,松滋市,30.0903,111.4008,626.8,938.5,25.7,49.0,16.18078891650498,26.704999999999977
Q6418,2025-06-03 05:00:00,卸甲坪村,荆州市,松滋市,30.0397,111.3681,220.0,982.1,28.9,48.0,19.1244093107672,23.087000000000007
Q6426,2025-06-03 05:00:00,新江口,荆州市,松滋市,30.1769,111.7736,69.5,1000.1,27.8,55.0,20.553982578050697,38.95400000000003
Q6494,2025-06-03 05:00:00,南平,荆州市,公安县,29.9206,112.0969,44.0,1003.5,28.5,58.0,22.578070024997665,39.942000000000014
Q6495,2025-06-03 05:00:00,狮子口,荆州市,公安县,29.99,112.0072,48.0,1003.0,28.8,61.0,24.16336496960125,43.561000000000014
Q6496,2025-06-03 05:00:00,杨家厂,荆州市,公安县,30.0592,112.3197,30.0,1003.9,29.1,52.0,20.95960142826702,35.39450000000003
Q6497,2025-06-03 05:00:00,孟家溪,荆州市,公安县,29.8575,112.0914,40.0,1004.2,28.0,60.0,22.68601987181785,37.77200000000007
Q6498,2025-06-03 05:00:00,麻豪口,荆州市,公安县,29.9631,112.3392,40.0,1004.0,28.0,54.0,20.41741788463607,27.8785
Q6499,2025-06-03 05:00:00,夹竹园,荆州市,公安县,29.99,112.1083,37.0,1004.0,28.1,57.0,21.677839320428408,34.02049999999995
Q6500,2025-06-03 05:00:00,甘厂,荆州市,公安县,29.7447,112.0739,36.9,1004.3,28.0,59.0,22.30791954062089,39.592000000000034
Q6502,2025-06-03 05:00:00,斑竹垱,荆州市,公安县,30.0544,112.0081,39.5,1003.7,28.6,64.0,25.05899037558002,41.11249999999996
Q6503,2025-06-03 05:00:00,埠河,荆州市,公安县,30.2919,112.2406,44.0,1003.3,28.5,56.0,21.79951588620465,44.35100000000003
Q6577,2025-06-03 05:00:00,大垸,荆州市,石首市,29.8425,112.4731,35.7,1004.1,29.2,53.0,21.48667520610656,38.273499999999984
Q6651,2025-06-03 05:00:00,监利汪桥,荆州市,监利市,29.98,112.7044,26.1,1004.7,28.4,51.0,19.737964694106104,26.558500000000024
Q6656,2025-06-03 05:00:00,监利上车,荆州市,监利市,29.8086,113.0083,26.5,1005.0,28.0,55.0,20.795518215833035,30.092
Q6657,2025-06-03 05:00:00,监利周老嘴,荆州市,监利市,30.0322,112.9767,25.1,1004.6,28.0,53.0,20.039317553439105,35.70199999999999
Q6658,2025-06-03 05:00:00,监利朱河,荆州市,监利市,29.7317,113.1064,24.9,1005.0,27.8,54.0,20.18027380390432,31.669500000000017
Q6659,2025-06-03 05:00:00,监利福田,荆州市,监利市,29.9039,113.0831,24.7,1005.1,28.1,56.0,21.29752634989458,40.48999999999997
Q6660,2025-06-03 05:00:00,监利黄歇口,荆州市,监利市,30.0361,112.8011,26.1,1004.9,29.5,52.0,21.449968757650183,34.56249999999998
Q6661,2025-06-03 05:00:00,监利大垸,荆州市,监利市,29.8486,112.7075,24.2,1004.3,28.1,54.0,20.536900408826916,38.049
Q6662,2025-06-03 05:00:00,监利网市,荆州市,监利市,30.1097,113.1147,25.8,1004.9,28.2,56.0,21.422067249223037,38.39249999999999
Q6665,2025-06-03 05:00:00,监利分盐,荆州市,监利市,29.9844,113.0503,31.9,1004.8,27.8,52.0,19.43285625561157,29.3225
Q6667,2025-06-03 05:00:00,监利柘木,荆州市,监利市,29.59,113.1403,26.4,1005.1,28.1,52.0,19.77627446775925,30.0855
Q6668,2025-06-03 05:00:00,监利汴河,荆州市,监利市,29.8086,113.0872,25.1,1005.2,28.7,54.0,21.266708256890137,39.50899999999994
Q6670,2025-06-03 05:00:00,三洲,荆州市,监利市,29.545,112.9406,29.0,1004.8,27.0,55.0,19.6121814818016,32.9265
Q6750,2025-06-03 05:00:00,曹市,荆州市,洪湖市,29.8625,113.5478,29.8,1005.0,27.7,67.0,24.892493901234737,37.29600000000004
Q6751,2025-06-03 05:00:00,黄家口,荆州市,洪湖市,30.0486,113.5617,20.0,1005.3,27.7,61.0,22.663315342915208,38.70300000000001
Q6753,2025-06-03 05:00:00,瞿家湾渡口,荆州市,洪湖市,29.9325,113.2267,30.0,1005.2,27.6,56.0,20.68426400102662,35.046500000000044
Q6754,2025-06-03 05:00:00,洪狮渔场,荆州市,洪湖市,29.9217,113.29,20.0,1005.4,26.7,56.0,19.619203081737083,31.9665
Q6755,2025-06-03 05:00:00,瞿家湾,荆州市,洪湖市,29.9614,113.1831,23.5,1005.1,27.1,57.0,20.445178961726437,32.33149999999995
Q6756,2025-06-03 05:00:00,八卦洲,荆州市,洪湖市,29.8175,113.4078,34.0,1005.5,28.7,56.0,22.05436411825644,34.73099999999992
Q6757,2025-06-03 05:00:00,螺山,荆州市,洪湖市,29.6706,113.3161,26.7,1005.2,27.5,46.0,16.89143085231976,25.91249999999998
Q6758,2025-06-03 05:00:00,乌林,荆州市,洪湖市,29.9078,113.6072,30.0,1005.3,26.4,60.0,20.651787961572957,33.16750000000003
Q6759,2025-06-03 05:00:00,大沙,荆州市,洪湖市,30.0072,113.8642,30.0,1005.4,28.2,55.0,21.03953033405833,35.18149999999999
Q6760,2025-06-03 05:00:00,燕窝,荆州市,洪湖市,30.0958,113.9672,30.0,1004.9,27.1,60.0,21.52124101234361,35.24750000000001
Q6761,2025-06-03 05:00:00,汊河,荆州市,洪湖市,29.9578,113.4517,27.6,1005.4,26.2,65.0,22.10984224660473,37.2265
Q6764,2025-06-03 05:00:00,大同湖,荆州市,洪湖市,30.0467,113.7133,23.7,1005.5,27.2,56.0,20.20482291798206,29.965500000000038
Q6767,2025-06-03 05:00:00,峰口,荆州市,洪湖市,30.1211,113.3494,25.3,1005.3,27.4,61.0,22.26861095881577,35.40850000000001
Q6769,2025-06-03 05:00:00,土地湖,荆州市,洪湖市,29.9361,113.3403,20.0,1005.4,27.2,58.0,20.92642373648141,36.10249999999999
Q6770,2025-06-03 05:00:00,袁新泵站,荆州市,洪湖市,29.7106,113.3156,20.0,1005.3,26.9,56.0,19.85164525283367,34.70649999999997
Q6771,2025-06-03 05:00:00,府场,荆州市,洪湖市,30.1222,113.1589,31.2,1004.9,28.5,59.0,22.967347094394174,39.89849999999994
Q6772,2025-06-03 05:00:00,洪湖龙口,荆州市,洪湖市,29.9878,113.7756,25.1,1005.3,27.2,64.0,23.09122619197949,34.322499999999984
Q6773,2025-06-03 05:00:00,洪湖经开区,荆州市,洪湖市,29.8489,113.4908,23.2,1005.2,27.8,51.0,19.05914748146519,34.77649999999997
Q6847,2025-06-03 05:00:00,江滩公园,荆州市,洪湖市,29.8033,113.4594,28.5,1004.4,27.8,55.0,20.553982578050697,30.866000000000028
Q6853,2025-06-03 05:00:00,纪南,荆州市,荆州区,30.4272,112.2525,33.0,1003.9,28.1,64.0,24.34003011416523,42.28600000000008
Q6856,2025-06-03 05:00:00,荆州中学,荆州市,荆州区,30.3653,112.2097,32.0,1004.3,28.6,59.0,23.101256752487828,47.328500000000005
Q6862,2025-06-03 05:00:00,乐居,荆州市,荆州区,30.3531,112.1147,38.6,1004.5,28.2,64.0,24.482362570540605,49.671499999999966
Q6863,2025-06-03 05:00:00,麋鹿,荆州市,石首市,29.7822,112.5547,35.4,1004.4,28.1,68.0,25.86128199630056,43.46550000000003
Q6901,2025-06-03 05:00:00,观音垱,荆州市,沙市区,30.3797,112.4003,28.0,1004.2,27.2,62.0,22.369625373480137,45.81650000000003
Q6951,2025-06-03 05:00:00,秦市,荆州市,江陵县,29.9672,112.6025,30.3,1004.6,29.1,51.0,20.556532170031115,38.00350000000005
Q6953,2025-06-03 05:00:00,沙岗,荆州市,江陵县,30.0603,112.6308,30.0,1004.4,29.2,50.0,20.2704483076477,28.5935
Q6954,2025-06-03 05:00:00,熊河,荆州市,江陵县,30.1106,112.44,30.1,1004.3,29.0,51.0,20.437808898044054,28.104499999999987
Q6957,2025-06-03 05:00:00,三湖,荆州市,江陵县,30.1967,112.5561,26.0,1004.9,28.6,48.0,18.79424278168501,23.14349999999996
Q6958,2025-06-03 05:00:00,郝穴,荆州市,江陵县,29.9919,112.4553,31.3,1004.3,29.0,55.0,22.040774301812217,39.70999999999997
Q6960,2025-06-03 05:00:00,江北农场,荆州市,江陵县,30.1814,112.3494,30.0,1004.4,28.9,54.0,21.5149604746131,38.35099999999998
Q7030,2025-06-03 05:00:00,悟峰山,孝感市,大悟县,31.7775,114.1636,92.4,996.3,28.7,60.0,23.62967584098904,44.39099999999991
Q7038,2025-06-03 05:00:00,新城,孝感市,大悟县,31.4925,114.2794,120.0,991.8,29.2,57.0,23.108311070718376,33.02549999999999
Q7087,2025-06-03 05:00:00,河口茶园,孝感市,大悟县,31.3186,114.3764,56.4,999.0,28.9,57.0,22.710236056536047,47.32049999999994
Q7092,2025-06-03 05:00:00,大悟城关,孝感市,大悟县,31.5711,114.1214,74.9,997.6,29.1,55.0,22.16880920297473,29.092500000000012
Q7138,2025-06-03 05:00:00,雷公,孝感市,安陆市,31.2953,113.515,101.0,995.8,28.7,62.0,24.41733170235534,41.59249999999994
Q7165,2025-06-03 05:00:00,接官,孝感市,安陆市,31.4175,113.7522,68.6,999.4,28.1,58.0,22.05815229096224,39.16850000000003
Q7166,2025-06-03 05:00:00,辛榨,孝感市,安陆市,31.1122,113.6156,45.9,1002.4,28.4,65.0,25.15622951209602,40.42400000000002
Q7167,2025-06-03 05:00:00,府河,孝感市,安陆市,31.2575,113.6686,36.4,1003.2,28.9,61.0,24.303936832433315,50.54550000000002
Q7218,2025-06-03 05:00:00,田店,孝感市,应城市,31.0317,113.4494,52.5,1001.8,29.2,54.0,21.89208417225952,40.63653333333334
Q7266,2025-06-03 05:00:00,义和,孝感市,应城市,30.7686,113.4944,28.9,1004.5,27.4,62.0,22.63367015486193,39.66749999999994
Q7315,2025-06-03 05:00:00,城隍,孝感市,汉川市,30.6261,113.7594,24.9,1004.7,28.4,59.0,22.834116018671768,28.177000000000053
Q7316,2025-06-03 05:00:00,华严农场,孝感市,汉川市,30.6256,113.6964,24.1,1005.0,28.2,57.0,21.80460416438773,33.11699999999999
Q7317,2025-06-03 05:00:00,回龙,孝感市,汉川市,30.565,113.4961,24.3,1004.7,29.0,61.0,24.445222407464456,41.97049999999992
Q7318,2025-06-03 05:00:00,脉旺,孝感市,汉川市,30.5175,113.5933,23.9,1004.5,28.4,59.0,22.834116018671768,43.04549999999991
Q7350,2025-06-03 05:00:00,庙头,孝感市,汉川市,30.5944,113.7875,27.0,1004.6,27.5,61.0,22.39950613025012,40.194999999999965
Q7354,2025-06-03 05:00:00,刘家隔,孝感市,汉川市,30.7539,113.8008,25.0,1004.9,29.0,62.0,24.845963758406494,47.532999999999966
Q7358,2025-06-03 05:00:00,麻河,孝感市,汉川市,30.775,113.6914,22.2,1005.2,28.5,61.0,23.7459012331872,38.683999999999926
Q7378,2025-06-03 05:00:00,南河,孝感市,汉川市,30.4967,113.7769,25.0,1004.4,27.3,66.0,23.953006578742627,38.30849999999998
Q7387,2025-06-03 05:00:00,新河,孝感市,汉川市,30.6956,113.9111,30.0,1004.6,28.1,64.0,24.34003011416523,46.12199999999999
Q7392,2025-06-03 05:00:00,西江,孝感市,汉川市,30.4806,113.6775,24.0,1004.7,28.1,59.0,22.43846526149607,42.46599999999994
Q7393,2025-06-03 05:00:00,韩集,孝感市,汉川市,30.6742,113.5964,28.0,1005.2,28.0,58.0,21.92981920942392,32.28199999999995
Q7426,2025-06-03 05:00:00,周巷,孝感市,孝昌县,31.2169,114.1108,105.8,995.4,28.7,57.0,22.448192048939585,38.75599999999999
Q7442,2025-06-03 05:00:00,花西,孝感市,孝昌县,31.1939,113.8561,72.2,999.4,28.1,62.0,23.579404173097565,39.98199999999995
Q7461,2025-06-03 05:00:00,双峰山景区,孝感市,孝昌县,31.2011,114.1914,582.5,943.4,25.0,68.0,21.538520166073543,45.2415
Q7538,2025-06-03 05:00:00,隔蒲潭,孝感市,云梦县,30.9461,113.7253,28.7,1004.4,28.2,62.0,23.71728874021121,40.74775
Q7546,2025-06-03 05:00:00,倒店,孝感市,云梦县,31.1844,113.7389,58.9,1000.6,28.9,57.0,22.710236056536047,30.497500000000056
Q7554,2025-06-03 05:00:00,清明河,孝感市,云梦县,31.0272,113.6944,34.0,1003.9,28.8,56.0,22.182761283568365,44.12699999999998
Q7618,2025-06-03 05:00:00,杨店,孝感市,孝南区,31.025,114.1083,52.0,1002.3,28.7,59.0,23.23584791030589,41.78200000000001
Q7622,2025-06-03 05:00:00,陡岗,孝感市,孝南区,31.0397,113.8556,30.1,1003.5,28.8,61.0,24.16336496960125,43.636499999999984
Q7626,2025-06-03 05:00:00,肖港,孝感市,孝南区,31.0981,113.975,46.5,1001.8,28.7,60.0,23.62967584098904,44.22049999999997
Q7630,2025-06-03 05:00:00,毛陈,孝感市,孝南区,30.8239,113.9908,23.2,1004.8,28.4,58.0,22.447097103101058,40.522000000000006
Q7642,2025-06-03 05:00:00,新铺,孝感市,孝南区,30.9806,113.98,46.2,1002.1,29.7,55.0,22.95074581229367,42.66900000000006
Q7650,2025-06-03 05:00:00,卧龙,孝感市,孝南区,30.8961,113.9025,27.1,1004.9,28.2,61.0,23.334751825046517,49.90449999999999
Q7654,2025-06-03 05:00:00,闵集,孝感市,孝南区,30.8508,114.1303,46.2,1003.7,28.0,60.0,22.68601987181785,41.36600000000006
Q7658,2025-06-03 05:00:00,东山头,孝感市,孝南区,30.7981,114.0183,25.3,1004.7,28.6,58.0,22.709710027869388,39.77950000000003
Q7659,2025-06-03 05:00:00,朱湖,孝感市,孝南区,30.8081,113.9397,19.7,1005.0,28.5,60.0,23.356624163790688,48.294500000000006
Q7663,2025-06-03 05:00:00,郑家河,孝感市,市辖区,31.3603,113.2903,96.0,996.0,29.8,53.0,22.243986845614568,35.46700000000004
Q7701,2025-06-03 05:00:00,拖市,省直辖县级行政区划,天门市,30.7267,112.8314,40.0,1003.8,28.4,58.0,22.447097103101058,34.622500000000066
Q7704,2025-06-03 05:00:00,佛子山,省直辖县级行政区划,天门市,30.7503,113.0092,35.2,1003.6,28.1,62.0,23.579404173097565,41.98100000000002
Q7705,2025-06-03 05:00:00,汪场,省直辖县级行政区划,天门市,30.61,113.0192,26.7,1004.5,28.3,57.0,21.932016190203576,35.54333333333331
Q7708,2025-06-03 05:00:00,岳口,省直辖县级行政区划,天门市,30.5239,113.0894,38.0,1004.1,28.0,56.0,21.17361854703,32.171958333333365
Q7709,2025-06-03 05:00:00,九真,省直辖县级行政区划,天门市,30.7694,113.2297,29.7,1004.5,28.3,59.0,22.701560617930017,41.81049999999996
Q7712,2025-06-03 05:00:00,皂市,省直辖县级行政区划,天门市,30.8636,113.3256,39.0,1004.4,28.3,59.0,22.701560617930017,43.12300000000008
Q7713,2025-06-03 05:00:00,净潭,省直辖县级行政区划,天门市,30.6522,113.4097,30.0,1004.9,27.6,59.0,21.792349572510187,38.29449999999999
Q7716,2025-06-03 05:00:00,麻洋,省直辖县级行政区划,天门市,30.4411,113.2611,33.5,1004.4,28.3,61.0,23.471105045656454,45.404000000000025
