Station_Id_C,Datetime,Lat,Lon,Alti,City,Station_Name,Cnty,PRS,TEM,RHU,PWV,VAP
57249,2025-06-03 07:00:00,32.3244,109.6889,448.2,十堰市,竹溪,竹溪县,957.0,26.9,56.0,38.87549999999997,19.85164525283367
57251,2025-06-03 07:00:00,33.0033,110.4083,321.2,十堰市,郧西,郧西县,971.1,26.9,60.0,28,21.269619913750358
57253,2025-06-03 07:00:00,32.84,110.8669,244.8,十堰市,郧阳,郧阳区,978.8,28.8,53.0,33.13100000000003,20.994399071948628
57256,2025-06-03 07:00:00,32.6553,110.7728,290.2,十堰市,十堰,张湾区,974.1,29.3,44.0,28.7,17.941463107107424
57257,2025-06-03 07:00:00,32.2256,110.2261,308.4,十堰市,竹山,竹山县,973.0,24.4,59.0,31.3,18.029025950049803
57259,2025-06-03 07:00:00,32.0511,110.7475,429.5,十堰市,房县,房县,959.1,27.7,52.0,30.8,19.319547505435917
57260,2025-06-03 07:00:00,32.5417,111.4531,248.4,十堰市,丹江口,丹江口市,978.5,27.2,58.0,33.23499999999998,20.926423736481414
57264,2025-06-03 07:00:00,32.4261,111.0153,1017.5,十堰市,武当山,丹江口市,897.0,22.5,71.0,41.43299999999996,19.344470184612213
57265,2025-06-03 07:00:00,32.4319,111.7319,132.1,襄阳市,老河口,老河口市,991.5,29.1,44.0,28.238500000000013,17.735047362379788
57268,2025-06-03 07:00:00,32.2718,111.6211,124.2,襄阳市,谷城,谷城县,992.8,30.1,50.0,30.4,21.350287478894938
57278,2025-06-03 07:00:00,32.0031,112.0765,166.1,襄阳市,襄阳,襄城区,988.3,28.4,51.0,26.9,19.737964694106104
57279,2025-06-03 07:00:00,32.1614,112.7767,136.5,襄阳市,枣阳,枣阳市,990.6,28.9,46.0,23.5,18.327558922818568
57351,2025-06-03 07:00:00,30.8333,111.0167,231,宜昌市,坛子岭,夷陵区,981.5,26.5,55.0,43.83049999999997,19.042909525202294
57352,2025-06-03 07:00:00,30.8092,111.0003,185.3,宜昌市,三斗坪,夷陵区,986.6,26.7,58.0,45.37350000000001,20.31988890608483
57353,2025-06-03 07:00:00,30.8378,111.0164,191.8,宜昌市,苏家坳,夷陵区,985.9,26.2,57.0,43.07400000000001,19.388630893176455
57354,2025-06-03 07:00:00,31.4558,110.2711,2948.1,省直辖县级行政区划,神农顶,神农架林区,714.0,10.7,43.0,9.632500000000013,5.529317937802738
57355,2025-06-03 07:00:00,31.0483,110.35,337.5,恩施土家族苗族自治州,巴东,巴东县,969.6,25.0,71.0,36.421000000000056,22.488748996929726
57358,2025-06-03 07:00:00,30.8303,110.9639,295.5,宜昌市,秭归,秭归县,973.9,26.4,55.0,28.04900000000001,18.930805631441874
57359,2025-06-03 07:00:00,31.3453,110.7417,336.8,宜昌市,兴山,兴山县,969.6,25.4,55.0,27.237000000000027,17.841120468918948
57361,2025-06-03 07:00:00,31.8791,111.2583,331.8,襄阳市,保康,保康县,969.9,28.1,50.0,30.4,19.015648526691585
57362,2025-06-03 07:00:00,31.7484,110.6602,939,省直辖县级行政区划,神农架,神农架林区,904.7,23.7,53.0,25.9,15.528273453721448
57363,2025-06-03 07:00:00,31.7995,111.8388,159.9,襄阳市,南漳,南漳县,989.1,29.7,42.0,27.5,17.526024074842436
57367,2025-06-03 07:00:00,31.0836,110.9406,1910,宜昌市,大老岭,夷陵区,808.2,17.0,41.0,14.005000000000006,7.938977839787716
57368,2025-06-03 07:00:00,31.053,111.6318,146.2,宜昌市,远安,远安县,990.6,26.9,59.0,30.9,20.915126248521187
57370,2025-06-03 07:00:00,31.7353,112.2189,71.6,襄阳市,宜城,宜城市,999.0,28.8,50.0,26.1,19.806036860328895
57371,2025-06-03 07:00:00,31.9356,113.3081,121.9,随州市,随县,随县,992.3,28.6,59.0,43.23949999999998,23.101256752487828
57377,2025-06-03 07:00:00,30.9931,112.2123,191.9,荆门市,荆门,掇刀区,985.4,27.8,55.0,27.2,20.553982578050697
57378,2025-06-03 07:00:00,31.1724,112.5812,66.6,荆门市,钟祥,钟祥市,994.3,27.8,63.0,32.4,23.543652771221705
57381,2025-06-03 07:00:00,31.6194,113.3386,110.5,随州市,随州,曾都区,994.4,27.6,61.0,25.6,22.531073286832566
57385,2025-06-03 07:00:00,31.625,113.8206,120.4,随州市,广水,广水市,993.1,27.7,66.0,30.1,24.520964141514817
57386,2025-06-03 07:00:00,31.2519,113.9997,51.6,孝感市,孝昌,孝昌县,1000.3,27.7,61.0,38.64450000000005,22.663315342915208
57387,2025-06-03 07:00:00,30.9996,113.132,86.3,荆门市,京山,京山市,997.0,27.8,64.0,36.4,23.91736154536808
57388,2025-06-03 07:00:00,31.2642,113.6936,57.5,孝感市,安陆,安陆市,1000.3,28.1,60.0,35.4,22.818778232029903
57389,2025-06-03 07:00:00,31.0269,113.7486,32.2,孝感市,云梦,云梦县,1002.9,27.6,65.0,35.97950000000003,24.008520715477324
57395,2025-06-03 07:00:00,31.5883,114.1675,120,孝感市,大悟,大悟县,992.2,27.3,59.0,35.23450000000003,21.4125361840275
57398,2025-06-03 07:00:00,31.2803,114.6206,76.4,黄冈市,红安,红安县,997.9,27.5,62.0,33.3,22.766711148778807
57399,2025-06-03 07:00:00,31.1308,114.9547,74.3,黄冈市,麻城,麻城市,998.2,27.4,52.0,30.407999999999983,18.98307819440033
57439,2025-06-03 07:00:00,30.2911,108.9297,1127.5,恩施土家族苗族自治州,利川,利川市,885.2,22.4,49.0,29.7,13.26944167010201
57445,2025-06-03 07:00:00,30.6071,109.7201,610.3,恩施土家族苗族自治州,建始,建始县,939.9,25.0,66.0,37.4,20.90503427883608
57447,2025-06-03 07:00:00,30.2861,109.4707,458.7,恩施土家族苗族自治州,恩施,恩施市,956.5,25.2,60.0,40.2,19.23261312196766
57451,2025-06-03 07:00:00,30.8131,110.2539,1813.5,恩施土家族苗族自治州,绿葱坡,巴东县,818.0,16.5,58.0,21.6425,10.879630299639588
57453,2025-06-03 07:00:00,30.762,111.4172,191.9,宜昌市,夷陵,夷陵区,985.7,27.2,61.0,34.5,22.008824964230456
57458,2025-06-03 07:00:00,30.1511,111.0683,243.2,宜昌市,五峰,五峰土家族自治县,979.2,29.3,45.0,31.326500000000014,18.349223632268956
57460,2025-06-03 07:00:00,30.8215,111.7841,95.6,宜昌市,当阳,当阳市,996.5,28.0,56.0,32.6,21.17361854703
57461,2025-06-03 07:00:00,30.7019,111.2975,136.4,宜昌市,三峡,西陵区,977.4,26.8,-999.0,32.2,-352.0605326015679
57462,2025-06-03 07:00:00,30.8592,111.0831,139.9,宜昌市,夷陵三峡,夷陵区,991.4,27.6,59.0,44.780499999999904,21.792349572510187
57464,2025-06-03 07:00:00,30.4717,111.1817,180.7,宜昌市,长阳,长阳土家族自治县,986.7,28.4,52.0,33.1,20.124983609676814
57465,2025-06-03 07:00:00,30.3622,111.4319,120.1,宜昌市,宜都,宜都市,993.3,28.8,41.0,31.047499999999985,16.240950225469692
57466,2025-06-03 07:00:00,30.462,111.7464,67.3,宜昌市,枝江,枝江市,999.5,28.5,48.0,34.8,18.685299331032553
57469,2025-06-03 07:00:00,30.1783,111.68,111.2,荆州市,松滋,松滋市,995.0,28.1,55.0,34.5,20.917213379360746
57475,2025-06-03 07:00:00,30.403,112.9014,34.5,省直辖县级行政区划,潜江,潜江市,1003.4,28.3,59.0,38.5,22.701560617930017
57476,2025-06-03 07:00:00,30.3505,112.1484,35.3,荆州市,荆州,荆州区,1003.1,27.8,62.0,38.5,23.16994399707533
57477,2025-06-03 07:00:00,30.0708,112.2159,40.1,荆州市,公安,公安县,1002.5,28.3,54.0,35.2,20.777699548613917
57481,2025-06-03 07:00:00,30.9561,113.5753,33.4,孝感市,应城,应城市,1003.3,28.0,60.0,33.4,22.68601987181785
57482,2025-06-03 07:00:00,30.9033,113.9461,26.4,孝感市,孝感,孝感市,1003.8,27.3,62.0,36.5,22.501309210333982
57483,2025-06-03 07:00:00,30.6697,113.135,35.4,省直辖县级行政区划,天门,天门市,1003.2,28.7,56.0,38.5,22.05436411825644
57484,2025-06-03 07:00:00,30.7359,112.5489,61.1,荆门市,沙洋,沙洋县,1000.6,26.9,63.0,36.1,22.333100909437878
57485,2025-06-03 07:00:00,30.2953,113.4829,27.1,省直辖县级行政区划,仙桃,仙桃市,1004.4,27.9,57.0,36.6,21.426240067217403
57486,2025-06-03 07:00:00,30.6556,113.8431,25,孝感市,汉川,汉川市,1003.9,27.7,60.0,41.61249999999999,22.291785583195285
57489,2025-06-03 07:00:00,30.5236,114.0081,26.2,武汉市,蔡甸,蔡甸区,1004.4,27.7,57.0,34,21.177196304035522
57491,2025-06-03 07:00:00,30.871,114.3948,34.7,武汉市,黄陂,黄陂区,1003.0,28.0,56.0,31.7,21.17361854703
57492,2025-06-03 07:00:00,30.8386,114.8386,44.7,武汉市,新洲,新洲区,1002.1,27.3,58.0,29.3,21.049611841925337
57493,2025-06-03 07:00:00,30.3429,114.3353,80.8,武汉市,江夏,江夏区,998.2,27.4,54.0,27.2,19.713196586492653
57494,2025-06-03 07:00:00,30.5978,114.0506,23.6,武汉市,武汉,东西湖区,1004.3,27.6,59.0,32.976000000000006,21.792349572510187
57495,2025-06-03 07:00:00,30.6675,115.0669,61.8,黄冈市,团风,团风县,1000.0,27.6,50.0,25.721499999999992,18.46809285805948
57496,2025-06-03 07:00:00,30.2572,114.6119,35.3,鄂州市,鄂州,梁子湖区,1002.7,27.2,56.0,31.617999999999988,20.20482291798206
57498,2025-06-03 07:00:00,30.5147,114.9364,28.4,黄冈市,黄冈,黄州区,1003.8,27.7,60.0,31.8,22.291785583195285
57499,2025-06-03 07:00:00,30.0744,114.875,40.3,黄石市,大冶,大冶市,1002.1,28.4,46.0,35.464000000000006,17.802870116252567
57540,2025-06-03 07:00:00,29.6847,109.1436,779.9,恩施土家族苗族自治州,咸丰,咸丰县,921.7,24.0,73.0,34.9,21.777756425172466
57541,2025-06-03 07:00:00,29.995,109.4783,602.6,恩施土家族苗族自治州,宣恩,宣恩县,940.9,24.3,67.0,37.2,20.35122153444985
57543,2025-06-03 07:00:00,29.8839,110.025,541.2,恩施土家族苗族自治州,鹤峰,鹤峰县,946.8,25.2,56.0,38.3,17.950438913836486
57545,2025-06-03 07:00:00,29.5281,109.4211,506.4,恩施土家族苗族自治州,来凤,来凤县,950.9,25.7,71.0,40.1,23.44563291983375
57571,2025-06-03 07:00:00,29.6594,112.4122,41.2,荆州市,石首,石首市,1002.5,27.6,60.0,42.6,22.161711429671374
57573,2025-06-03 07:00:00,29.8753,112.9044,26.2,荆州市,监利,监利市,1003.8,27.7,58.0,37.933,21.548726063755442
57581,2025-06-03 07:00:00,29.8122,113.4422,28.4,荆州市,洪湖,洪湖市,1004.0,27.4,55.0,40.5,20.07825578253881
57582,2025-06-03 07:00:00,29.7242,113.8758,51.1,咸宁市,赤壁,赤壁市,1001.5,29.1,46.0,36.1,18.541185878851596
57583,2025-06-03 07:00:00,29.9259,113.9595,65.6,咸宁市,嘉鱼,嘉鱼县,999.9,28.3,48.0,32.5,18.46906626543459
57586,2025-06-03 07:00:00,29.5746,114.0339,138.9,咸宁市,崇阳国家基本气象站,崇阳县,991.5,27.9,47.0,37.3,17.667250581740667
57589,2025-06-03 07:00:00,29.274,113.8787,149.7,咸宁市,通城,通城县,989.8,27.1,57.0,38.7,20.445178961726434
57590,2025-06-03 07:00:00,29.8517,114.3672,102.8,咸宁市,咸宁,市辖区,995.7,28.4,51.0,35.6,19.737964694106104
57595,2025-06-03 07:00:00,29.6111,114.4578,103.6,咸宁市,通山,通山县,995.1,27.9,46.0,34.3,17.291351633192996
57596,2025-06-03 07:00:00,29.6347,114.2053,751.6,咸宁市,金沙本底站,崇阳县,924.0,23.0,62.0,38.176,17.412857498876043
58401,2025-06-03 07:00:00,30.7467,115.3956,127.1,黄冈市,罗田,罗田县,992.3,28.0,47.0,27.9,17.77071556625732
58402,2025-06-03 07:00:00,30.7295,115.6676,126.2,黄冈市,英山,英山县,992.1,29.4,44.0,30.8,18.04545537967424
58404,2025-06-03 07:00:00,30.4717,115.2175,69.9,黄冈市,浠水,浠水县,999.1,28.1,52.0,28.3,19.77627446775925
58407,2025-06-03 07:00:00,30.2385,115.0275,35.4,黄石市,黄石,黄石港区,1002.9,29.3,42.0,29.1,17.12594205678436
58408,2025-06-03 07:00:00,30.23,115.4358,75.7,黄冈市,蕲春,蕲春县,998.8,28.0,60.0,31.2,22.68601987181785
58409,2025-06-03 07:00:00,30.0978,115.9314,32,黄冈市,黄梅,黄梅县,1002.9,27.4,48.0,31.164500000000054,17.52284141021569
58500,2025-06-03 07:00:00,29.8961,115.2163,60.7,黄石市,阳新,阳新县,1000.6,27.4,49.0,33,17.88790060626185
58501,2025-06-03 07:00:00,29.925,115.6264,28.1,黄冈市,武穴,武穴市,1003.9,26.8,60.0,31.4,21.1447767328269
Q0004,2025-06-03 07:00:00,30.2789,108.8711,1082.2,恩施土家族苗族自治州,沪渝K1464,利川市,887.4,22.5,47.0,21.435499999999976,12.805494347560197
Q0005,2025-06-03 07:00:00,30.2444,109.1197,1131.4,恩施土家族苗族自治州,沪渝K1439,利川市,883.4,20.0,76.0,32.358499999999964,17.76079813788897
Q0007,2025-06-03 07:00:00,30.2389,109.3664,706.7,恩施土家族苗族自治州,沪渝K1412,恩施市,927.6,23.5,70.0,40.21799999999997,20.26314719387271
Q0008,2025-06-03 07:00:00,30.2439,109.4128,545.1,恩施土家族苗族自治州,沪渝K1407,巴东县,944.1,24.3,67.0,39.41049999999998,20.35122153444985
Q0010,2025-06-03 07:00:00,30.4114,109.5864,729.9,恩施土家族苗族自治州,沪渝K1375,恩施市,924.6,24.1,65.0,40.161500000000096,19.508058527328302
Q0011,2025-06-03 07:00:00,30.455,109.6258,624.1,恩施土家族苗族自治州,沪渝K1369,恩施市,935.4,24.9,58.0,30.686999999999966,18.26173341733192
Q0013,2025-06-03 07:00:00,30.4628,109.7828,780.1,恩施土家族苗族自治州,沪渝K1351,恩施市,918.7,23.3,65.0,32.764999999999986,18.589851498088372
Q0014,2025-06-03 07:00:00,30.4997,109.8508,903.4,恩施土家族苗族自治州,沪渝K1343,恩施市,906.1,23.0,65.0,32.754999999999974,18.255415119789404
Q0015,2025-06-03 07:00:00,30.55,109.8914,879.8,恩施土家族苗族自治州,沪渝K1336,建始县,908.2,22.3,67.0,31.919500000000014,18.033808903462603
Q0017,2025-06-03 07:00:00,30.6506,110.0908,794.9,恩施土家族苗族自治州,沪渝K1313,巴东县,917.2,22.8,64.0,30.6275,17.757929327942822
Q0019,2025-06-03 07:00:00,30.6308,110.1639,865.2,恩施土家族苗族自治州,沪渝K1305,巴东县,909.7,23.9,49.0,25.406999999999996,14.530280101573203
Q0021,2025-06-03 07:00:00,30.6119,110.3097,1104.2,恩施土家族苗族自治州,沪渝K1291,巴东县,885.1,22.5,46.0,27.505499999999998,12.533037021016364
Q0022,2025-06-03 07:00:00,30.6217,110.3864,923,恩施土家族苗族自治州,沪渝k1283,恩施市,924.3,23.2,59.0,33.996000000000045,16.77213993341317
Q0023,2025-06-03 07:00:00,30.6325,111.3253,62.7,宜昌市,秭归k48,市辖区,996.6,28.1,54.0,35.24600000000001,20.536900408826913
Q0026,2025-06-03 07:00:00,30.6247,110.6047,597.8,宜昌市,沪渝K1262,长阳土家族自治县,937.4,24.8,56.0,33.57699999999999,17.526982617881064
Q0028,2025-06-03 07:00:00,30.5711,111.4003,54.9,宜昌市,沪渝K1179,市辖区,998.2,28.2,55.0,36.18850000000005,21.039530334058334
Q0030,2025-06-03 07:00:00,30.5589,111.1281,241.9,宜昌市,沪渝K1208,长阳土家族自治县,980.4,27.1,63.0,40.165499999999966,22.597303062960798
Q0032,2025-06-03 07:00:00,30.3922,112.195,25.4,荆州市,沪渝K1097,荆州区,1002.8,28.5,45.0,23.386999999999997,17.517468122843017
Q0033,2025-06-03 07:00:00,30.3353,112.4733,25.4,荆州市,沪渝K1069,荆州区,1003.5,28.3,52.0,30.000000000000032,20.008155120887473
Q0034,2025-06-03 07:00:00,30.3383,112.5164,24.4,省直辖县级行政区划,沪渝K1065,潜江市,1003.1,28.3,55.0,36.0595,21.162471762477136
Q0037,2025-06-03 07:00:00,30.4533,113.8225,17,武汉市,沪渝K933,蔡甸区,1003.8,27.7,60.0,42.770999999999994,22.291785583195285
Q0039,2025-06-03 07:00:00,30.3486,113.5853,15.2,省直辖县级行政区划,沪渝k959,仙桃市,1003.7,28.0,61.0,40.395500000000034,23.06412020301482
Q0040,2025-06-03 07:00:00,30.3631,113.3619,9,省直辖县级行政区划,沪渝K982,仙桃市,1004.2,27.7,61.0,43.793499999999995,22.663315342915208
Q0047,2025-06-03 07:00:00,30.2406,115.1297,19.8,黄冈市,黄黄785,浠水县,1004.7,28.9,50.0,34.30600000000002,19.921259698715833
Q0049,2025-06-03 07:00:00,30.1353,115.33,21.4,黄冈市,黄黄K761,蕲春县,1004.4,28.5,56.0,44.36149999999995,21.79951588620465
Q0050,2025-06-03 07:00:00,30.0289,115.4664,41.4,黄冈市,黄黄K742,武穴市,1002.4,28.5,56.0,29.499499999999998,21.79951588620465
Q0051,2025-06-03 07:00:00,30.0039,115.5917,38,黄冈市,黄黄K730,武穴市,1003.3,27.9,57.0,26.121000000000027,21.426240067217403
Q0052,2025-06-03 07:00:00,30.0161,115.6708,42.5,黄冈市,黄黄K722,武穴市,1001.8,27.7,55.0,32.583499999999994,20.43413678459568
Q0053,2025-06-03 07:00:00,30.0278,115.7514,22.2,黄冈市,黄黄K714,武穴市,1004.1,26.8,62.0,39.904999999999916,21.849602623921133
Q0054,2025-06-03 07:00:00,30.0278,115.8164,23.1,黄冈市,黄黄K708,黄梅县,1004.5,27.3,56.0,29.352999999999966,20.323763157721018
Q0055,2025-06-03 07:00:00,30.0333,115.8986,25.2,黄冈市,黄黄K700,黄梅县,1003.9,26.6,58.0,28.861499999999992,20.200444081154547
Q0056,2025-06-03 07:00:00,30.1047,116.0217,45.9,黄冈市,黄黄K685,黄梅县,1001.9,27.7,58.0,32.33400000000004,21.548726063755442
Q0058,2025-06-03 07:00:00,30.1703,114.9136,25,黄石市,大广K2491,市辖区,1002.8,29.5,32.0,25.613499999999952,13.199980773938574
Q0060,2025-06-03 07:00:00,30.0042,114.9003,50.6,黄石市,大广K2510,大冶市,999.5,29.7,45.0,37.74849999999999,18.77788293733118
Q0061,2025-06-03 07:00:00,29.9158,114.8833,57.7,黄石市,大广K2520,大冶市,999.8,28.9,43.0,33.06050000000004,17.132283340895615
Q0064,2025-06-03 07:00:00,29.6617,114.9464,23.5,黄石市,大广K2552,阳新县,1003.6,29.4,46.0,30.465499999999953,18.865703351477617
Q0065,2025-06-03 07:00:00,29.6053,114.9322,37.1,黄石市,大广K2560,阳新县,1000.9,28.5,45.0,28.645500000000013,17.517468122843017
Q0066,2025-06-03 07:00:00,29.4306,114.8339,281.9,咸宁市,大广K2583,通山县,972.9,25.8,56.0,34.8185,18.602409364220513
Q0067,2025-06-03 07:00:00,29.3742,113.8803,81,咸宁市,杭瑞K731,崇阳县,995.7,27.7,57.0,37.126499999999936,21.177196304035522
Q0069,2025-06-03 07:00:00,29.5817,114.3203,81,咸宁市,杭瑞K679,通山县,993.1,27.8,46.0,37.49149999999997,17.19060361073331
Q0070,2025-06-03 07:00:00,29.6758,114.6372,141.1,咸宁市,杭瑞K646,通山县,989.7,27.7,45.0,30.8,16.718839187396465
Q0071,2025-06-03 07:00:00,29.7172,114.6692,128.1,咸宁市,杭瑞K640,通山县,991.4,28.0,48.0,41.02749999999998,18.148815897454284
Q0072,2025-06-03 07:00:00,29.7147,114.8767,167.3,黄石市,杭瑞K620,阳新县,987.7,26.5,54.0,27.93749999999999,18.696674806562253
Q0074,2025-06-03 07:00:00,29.7067,115.2367,54.2,黄石市,杭瑞K583,阳新县,999.7,27.5,55.0,36.01999999999999,20.196276019077978
Q0079,2025-06-03 07:00:00,33.08,110.3,444.3,十堰市,福银K1447,郧西县,957.2,26.0,63.0,38.88650000000005,21.1773247647653
Q0080,2025-06-03 07:00:00,32.95,110.5,395.1,十堰市,福银K1421,郧西县,962.0,26.8,50.0,31.60150000000004,17.62064727735575
Q0081,2025-06-03 07:00:00,32.86,110.65,275.8,十堰市,福银K1405,郧西县,973.5,28.1,52.0,35.406000000000056,19.77627446775925
Q0082,2025-06-03 07:00:00,32.82,110.7,205.1,十堰市,福银K1398,郧西县,981.5,28.8,49.0,34.47049999999997,19.40991612312232
Q0083,2025-06-03 07:00:00,32.51,111.14,162.4,十堰市,福银K1338,丹江口市,987.0,27.1,65.0,41.085000000000036,23.314677763372252
Q0084,2025-06-03 07:00:00,32.63,110.86,199.4,十堰市,福银K1364,丹江口市,982.5,29.6,41.0,33.238,17.01035945591371
Q0087,2025-06-03 07:00:00,32.28,111.66,73.4,襄阳市,福银K1277,谷城县,997.0,28.2,59.0,43.39950000000002,22.56967799471712
Q0089,2025-06-03 07:00:00,32.19,112.1,76.5,襄阳市,福银K1234,市辖区,996.9,29.8,37.0,32.20950000000003,15.52882100542904
Q0093,2025-06-03 07:00:00,31.67,113.26,101,随州市,福银K1103,市辖区,994.8,27.2,62.0,36.580499999999944,22.369625373480137
Q0094,2025-06-03 07:00:00,31.6,113.33,83,随州市,福银K1093,市辖区,997.2,28.5,52.0,33.856000000000066,20.2424076086186
Q0095,2025-06-03 07:00:00,31.48,113.43,110,随州市,福银K1076,市辖区,994.0,30.6,49.0,40.58399999999997,21.532193430440987
Q0096,2025-06-03 07:00:00,31.39,113.51,97.7,孝感市,福银K1064,安陆市,996.2,28.5,54.0,36.94349999999999,21.020961747411622
Q0100,2025-06-03 07:00:00,30.98,114.05,29.2,孝感市,福银K993,市辖区,1002.7,28.1,60.0,42.27050000000003,22.818778232029903
Q0103,2025-06-03 07:00:00,31.54,112.28,56.7,荆门市,襄荆K1620,钟祥市,999.4,28.2,5.0,6.126499999999992,1.912684575823485
Q0104,2025-06-03 07:00:00,31.42,112.34,68.6,荆门市,襄荆K1634,钟祥市,998.1,28.1,61.0,34.39300000000001,23.199091202563736
Q0106,2025-06-03 07:00:00,30.99,112.27,51.3,荆门市,襄荆K1685,市辖区,999.6,28.9,53.0,30.624500000000015,21.116535280638782
Q0107,2025-06-03 07:00:00,30.82,112.24,75.1,荆门市,襄荆K1704,市辖区,997.7,27.2,62.0,33.136499999999984,22.369625373480137
Q0108,2025-06-03 07:00:00,30.7,112.22,50.4,荆门市,襄荆K1715交通气象站,沙洋县,1000.6,27.7,5.0,8.205999999999994,1.8576487985996075
Q0109,2025-06-03 07:00:00,30.45,112.21,42.3,荆门市,襄荆K1745,沙洋县,1002.5,28.5,62.0,43.29549999999994,24.135178302583714
Q0600,2025-06-03 07:00:00,29.8361,113.5272,26,荆州市,洪湖石码头,洪湖市,1003.4,28.6,52.0,30.76750000000001,20.360429680158767
Q0603,2025-06-03 07:00:00,29.7378,112.4081,20,荆州市,石首海事码头,石首市,1002.9,27.4,62.0,33.83050000000002,22.63367015486193
Q0604,2025-06-03 07:00:00,30.0744,112.215,11,荆州市,公安航道码头,公安县,1002.3,28.3,60.0,38.299499999999995,23.086332831793236
Q0605,2025-06-03 07:00:00,30.03,112.4025,50,荆州市,江陵航道码头,江陵县,1002.4,27.2,59.0,29.467000000000002,21.287224145731095
Q0606,2025-06-03 07:00:00,30.3206,112.2025,15,荆州市,杨林矶海事码头,市辖区,1002.3,26.6,71.0,44.67000000000004,24.72812982348229
Q0607,2025-06-03 07:00:00,30.6586,114.5494,40,武汉市,阳逻海事水上搜救中心,新洲区,1003.8,26.5,55.0,30.804999999999946,19.042909525202294
Q0608,2025-06-03 07:00:00,30.3672,114.1486,0,武汉市,金口航道码头,江夏区,1003.9,26.9,59.0,27.119000000000007,20.915126248521187
Q0609,2025-06-03 07:00:00,30.2064,113.9283,20,咸宁市,嘉鱼簰洲湾海事站房,嘉鱼县,1003.8,26.3,67.0,42.006499999999996,22.92530389253498
Q0611,2025-06-03 07:00:00,31.0047,110.6128,194.5,宜昌市,秭归泄滩小学,秭归县,984.1,25.1,72.0,36.822500000000055,22.941956793634528
Q0612,2025-06-03 07:00:00,30.5539,111.39,40,宜昌市,长江航道宜昌综合码头,宜都市,1001.1,28.3,54.0,36.238000000000035,20.777699548613917
Q0613,2025-06-03 07:00:00,30.4106,111.5064,60,宜昌市,宜昌海事局孙家河执法队,宜都市,1001.7,25.5,68.0,39.29999999999999,22.18971172778628
Q0614,2025-06-03 07:00:00,30.3075,111.6236,40,宜昌市,松滋河口,宜都市,1001.6,26.9,56.0,35.80350000000005,19.85164525283367
Q0615,2025-06-03 07:00:00,30.3725,111.64,50,宜昌市,枝江姚港,枝江市,1002.1,25.8,65.0,40.62349999999997,21.59208229775595
Q0616,2025-06-03 07:00:00,30.4125,111.8875,40,宜昌市,枝江七星台,枝江市,1002.3,27.0,59.0,41.50149999999996,21.03852195320535
Q0617,2025-06-03 07:00:00,29.7708,113.0303,40,荆州市,监利何王庙,监利市,1003.0,28.5,55.0,36.54399999999996,21.410238816808135
Q0618,2025-06-03 07:00:00,29.6517,112.9492,30,荆州市,监利三洲,监利市,1003.2,27.9,11.0,5.281499999999993,4.134888434024412
Q0619,2025-06-03 07:00:00,29.9542,113.8303,30,荆州市,洪湖龙口汽渡码头,洪湖市,1003.3,27.8,59.0,35.48224999999996,22.0488176746362
Q0701,2025-06-03 07:00:00,30.6869,114.5175,4,武汉市,水口白灯船,新洲区,1003.4,26.3,61.0,34.69599999999998,20.872291603651252
Q0702,2025-06-03 07:00:00,30.5583,114.6317,4,武汉市,牧鹅洲白灯船,新洲区,1003.7,27.2,38.0,20.046499999999984,13.710415551487825
Q0704,2025-06-03 07:00:00,30.3142,112.2003,8,荆州市,沙市河段航道整治一期工程提示标,沙市区,1001.5,25.9,66.0,36.877999999999965,22.054679452365757
Q0705,2025-06-03 07:00:00,30.0753,112.3128,7,荆州市,公安大桥进口白泵船,公安县,1001.8,26.5,68.0,35.433499999999974,23.543960867522838
Q0707,2025-06-03 07:00:00,29.7636,112.6675,6,荆州市,桃花洲中提示标,洪湖市,1002.1,28.1,50.0,24.68300000000003,19.015648526691585
Q0725,2025-06-03 07:00:00,30.6411,114.3525,4,武汉市,天兴洲航道整治建筑物上提示标,江岸区,1003.1,26.2,56.0,39.536500000000004,19.048479473997922
Q0729,2025-06-03 07:00:00,30.5308,114.8308,4,黄冈市,黄冈大桥#1红浮,市辖区,1003.3,26.3,59.0,29.828999999999997,20.18795417402334
Q0737,2025-06-03 07:00:00,30.1289,115.2844,3,黄冈市,李家洲#3红浮,市辖区,1003.4,26.2,55.0,35.23800000000003,18.708328054819386
Q1000,2025-06-03 07:00:00,30.5944,114.3017,28.8,武汉市,江滩,江岸区,1004.1,28.0,51.0,29.029500000000002,19.283116891045175
Q1001,2025-06-03 07:00:00,30.9978,114.8886,62,武汉市,潘塘,新洲区,999.1,28.2,49.0,27.233500000000014,18.74430884307015
Q1002,2025-06-03 07:00:00,30.9278,114.7925,28,武汉市,三店,新洲区,1003.8,28.9,51.0,34.43900000000005,20.319684892690148
Q1003,2025-06-03 07:00:00,30.8803,114.6789,24.6,武汉市,李集,新洲区,1004.0,28.9,57.0,40.13250000000006,22.710236056536047
Q1004,2025-06-03 07:00:00,30.8169,114.8717,27,武汉市,旧街,新洲区,1003.9,27.6,58.0,34.226500000000044,21.422987715348995
Q1005,2025-06-03 07:00:00,30.7997,114.8161,40,武汉市,辛冲,新洲区,1002.8,27.3,55.0,28.858000000000025,19.960838815618857
Q1006,2025-06-03 07:00:00,30.8086,114.73,37,武汉市,汪集,新洲区,1002.6,28.3,54.0,33.34650000000002,20.777699548613917
Q1007,2025-06-03 07:00:00,30.8736,114.6136,28.8,武汉市,仓埠,江岸区,1001.6,28.8,58.0,38.42449999999999,22.975002757981514
Q1008,2025-06-03 07:00:00,30.9403,114.7225,67,武汉市,凤凰,新洲区,1000.4,28.2,54.0,32.319500000000055,20.656993418893638
Q1010,2025-06-03 07:00:00,30.5064,114.3839,40.8,武汉市,化工,洪山区,1003.0,27.9,45.0,25.870000000000033,16.91545268464532
Q1011,2025-06-03 07:00:00,30.7475,114.0272,26,武汉市,五一大队,东西湖区,1004.6,28.1,62.0,43.76049999999993,23.579404173097565
Q1013,2025-06-03 07:00:00,30.4836,114.3192,31,武汉市,湖北省农科院,洪山区,1004.1,28.4,55.0,35.05400000000003,21.286040356388938
Q1014,2025-06-03 07:00:00,30.5325,114.5006,41,武汉市,花山工作基地,市辖区,1002.1,27.6,51.0,32.978499999999954,18.83745471522067
Q1016,2025-06-03 07:00:00,30.5333,114.5058,29,武汉市,湖北省预备役师,洪山区,1003.3,29.1,44.0,26.57000000000003,17.735047362379788
Q1017,2025-06-03 07:00:00,30.6381,114.3803,22,武汉市,和平公园,青山区,1004.1,28.7,52.0,30.11150000000001,20.479052395523833
Q1018,2025-06-03 07:00:00,30.3322,114.0706,19,武汉市,纱帽,汉南区,1004.3,28.3,54.0,39.10099999999996,20.777699548613917
Q1019,2025-06-03 07:00:00,30.2669,113.8478,25,武汉市,湘口,汉南区,1004.4,27.4,63.0,36.041666666666714,22.998729350908093
Q1020,2025-06-03 07:00:00,30.3078,113.9783,27,武汉市,邓南,汉南区,1003.9,27.0,64.0,40.50450000000002,22.821447542460042
Q1021,2025-06-03 07:00:00,30.3461,113.9131,24,武汉市,东荆,汉南区,1004.3,27.5,63.0,36.29620833333331,23.1339161673075
Q1022,2025-06-03 07:00:00,30.6703,114.1803,32,武汉市,气象预警中心,东西湖区,1004.4,29.1,54.0,21.18999999999997,21.765739944738833
Q1023,2025-06-03 07:00:00,30.4614,114.2383,23.2,武汉市,建和分校,洪山区,1004.5,27.8,57.0,39.20150000000003,21.301400126343445
Q1024,2025-06-03 07:00:00,30.6242,114.1408,26,武汉市,实验小学,东西湖区,1004.6,30.4,47.0,33.34200000000001,20.417949288109817
Q1025,2025-06-03 07:00:00,30.6014,114.4875,25,武汉市,白玉公园,青山区,1016.5,29.0,47.0,28.195499999999978,18.834843494275894
Q1026,2025-06-03 07:00:00,30.455,114.1294,28,武汉市,沌阳,汉南区,1004.4,28.3,61.0,39.30299999999994,23.471105045656458
Q1027,2025-06-03 07:00:00,30.5183,114.3594,43.1,武汉市,华师,洪山区,1002.2,27.8,50.0,27.230999999999995,18.685438707318813
Q1028,2025-06-03 07:00:00,30.6731,114.2292,24,武汉市,常青路,东西湖区,1004.5,29.1,50.0,32.23250000000001,20.153462911795213
Q1029,2025-06-03 07:00:00,30.5644,114.4858,26.8,武汉市,光谷二十七小学,洪山区,1003.9,28.4,39.0,29.51049999999997,15.09373770725761
Q1030,2025-06-03 07:00:00,30.6772,114.2828,35,武汉市,材保所,东西湖区,1004.4,29.9,44.0,27.832000000000072,18.573350402140377
Q1031,2025-06-03 07:00:00,30.4789,114.4464,35,武汉市,湖北省第二师范,洪山区,1003.0,28.5,39.0,27.514999999999986,15.18180570646395
Q1032,2025-06-03 07:00:00,30.6644,114.3136,26,武汉市,百步亭社区,江岸区,1004.5,28.7,52.0,30.918500000000012,20.479052395523833
Q1033,2025-06-03 07:00:00,30.5133,114.3114,19,武汉市,南湖社区,武昌区,1004.5,27.5,55.0,32.657,20.196276019077978
Q1036,2025-06-03 07:00:00,30.5517,114.4369,23,武汉市,东湖落雁景区,市辖区,1004.4,27.3,57.0,28.226500000000005,20.686687499823176
Q1038,2025-06-03 07:00:00,30.6708,114.41,25,武汉市,天兴洲,洪山区,1004.0,28.0,57.0,37.011999999999965,21.55171887822696
Q1039,2025-06-03 07:00:00,30.5031,114.4803,45.3,武汉市,光谷二十一小学,洪山区,1002.3,30.1,35.0,26.951999999999995,14.945201235226454
Q1040,2025-06-03 07:00:00,30.7594,114.6317,24,武汉市,五云,江岸区,1002.6,28.2,53.0,28.71950000000002,20.27445650372894
Q1041,2025-06-03 07:00:00,30.6386,114.5739,11.5,武汉市,鄢家湖,江岸区,1004.4,28.1,52.0,31.311499999999963,19.77627446775925
Q1042,2025-06-03 07:00:00,30.8764,114.4739,32.5,武汉市,席家岗,江岸区,1002.8,28.4,61.0,37.2465,23.608153849813185
Q1043,2025-06-03 07:00:00,30.8822,114.5217,39.2,武汉市,六指中心福利院,江岸区,1002.7,28.4,59.0,32.64550000000004,22.834116018671768
Q1044,2025-06-03 07:00:00,30.8683,114.5803,42.3,武汉市,青华,江岸区,1002.5,28.2,57.0,34.00700000000003,21.804604164387726
Q1045,2025-06-03 07:00:00,30.7972,114.4647,31.3,武汉市,大咀,江岸区,1002.6,28.3,58.0,34.91949999999996,22.316788404066795
Q1052,2025-06-03 07:00:00,30.5447,114.42,23.3,武汉市,武汉植物园,洪山区,1004.3,27.5,57.0,30.01200000000002,20.930686056135354
Q1054,2025-06-03 07:00:00,30.5814,114.3311,23,武汉市,湖大,武昌区,1004.3,28.3,37.0,27.012999999999984,14.236571912939162
Q1057,2025-06-03 07:00:00,30.6369,114.5061,33,武汉市,林业站,洪山区,1004.5,29.0,49.0,32.608500000000014,19.636326196159974
Q1061,2025-06-03 07:00:00,30.6411,114.4039,33.5,武汉市,青山,青山区,1003.5,28.0,51.0,28.60227499999998,19.283116891045175
Q1071,2025-06-03 07:00:00,30.51,114.4581,35,武汉市,士官学校,洪山区,1003.6,28.4,42.0,28.247499999999995,16.254794453969733
Q1072,2025-06-03 07:00:00,30.6664,114.335,27,武汉市,堤角公园,江岸区,1004.0,29.3,53.0,38.74849999999998,21.611307833561217
Q1073,2025-06-03 07:00:00,30.6272,114.2394,25,武汉市,湖北省移动公司,江汉区,1004.3,29.4,46.0,35.033499999999975,18.865703351477617
Q1081,2025-06-03 07:00:00,30.255,114.0589,22.1,武汉市,汉南,汉南区,1004.4,27.6,55.0,39.68249999999999,20.314902143865428
Q1082,2025-06-03 07:00:00,30.4769,114.1631,18.1,武汉市,沌口,汉南区,1004.1,27.9,60.0,36.11250000000004,22.553936912860426
Q1083,2025-06-03 07:00:00,30.4156,114.1306,21.6,武汉市,春笋,汉南区,1004.6,28.3,54.0,39.61549999999995,20.777699548613917
Q1084,2025-06-03 07:00:00,30.3267,114.0014,23.3,武汉市,恒大农业,汉南区,1004.4,27.4,62.0,40.40250000000003,22.63367015486193
Q1085,2025-06-03 07:00:00,30.2131,113.8472,22.6,武汉市,武湖湿地,汉南区,1004.5,27.2,58.0,30.563499999999962,20.926423736481414
Q1086,2025-06-03 07:00:00,30.22,113.8256,21.3,武汉市,喜鹊湖,汉南区,1004.6,27.3,59.0,32.61850000000002,21.4125361840275
Q1087,2025-06-03 07:00:00,30.4258,114.1092,33.7,武汉市,龙灵山,汉南区,1003.3,27.7,55.0,34.301500000000026,20.43413678459568
Q1088,2025-06-03 07:00:00,30.4586,114.0606,29,武汉市,武汉西,汉南区,1003.7,28.2,55.0,37.35749999999998,21.039530334058334
Q1101,2025-06-03 07:00:00,30.8781,114.9839,83,武汉市,道观河,新洲区,996.6,28.5,55.0,31.049000000000074,21.410238816808135
Q1102,2025-06-03 07:00:00,30.6969,114.5339,25,武汉市,阳逻,江岸区,1004.5,27.8,48.0,28.02799999999999,17.93802115902606
Q1103,2025-06-03 07:00:00,30.6675,114.7861,18.7,武汉市,涨渡湖,新洲区,1004.9,28.6,52.0,31.444000000000024,20.360429680158767
Q1104,2025-06-03 07:00:00,30.5964,114.6472,23,武汉市,双柳,新洲区,1004.4,28.4,46.0,27.750499999999974,17.802870116252567
Q1105,2025-06-03 07:00:00,30.8894,115.0589,344.5,武汉市,将军山,新洲区,968.1,27.1,52.0,29.83750000000003,18.6517422106978
Q1106,2025-06-03 07:00:00,30.9481,114.9694,73,武汉市,徐古,新洲区,998.5,28.1,51.0,27.943,19.395961497225418
Q1107,2025-06-03 07:00:00,30.8731,114.7681,25,武汉市,徐治湾,新洲区,1003.9,28.8,45.0,32.522500000000086,17.825433174296005
Q1108,2025-06-03 07:00:00,30.9156,114.6519,39.3,武汉市,方院,新洲区,1002.3,28.7,59.0,34.22799999999997,23.23584791030589
Q1109,2025-06-03 07:00:00,30.7858,114.5475,31.6,武汉市,杨裴,江岸区,1003.2,28.3,60.0,38.50050000000005,23.086332831793236
Q1111,2025-06-03 07:00:00,30.975,114.7111,51.1,武汉市,陈家田,新洲区,1001.0,28.1,61.0,35.48249999999993,23.199091202563736
Q1112,2025-06-03 07:00:00,30.8286,114.9725,196.4,武汉市,大雾山,新洲区,984.7,27.6,56.0,42.476000000000084,20.68426400102662
Q1113,2025-06-03 07:00:00,30.8742,114.8856,30.1,武汉市,王寨,新洲区,1003.5,29.0,52.0,33.179500000000026,20.838550248986095
Q1114,2025-06-03 07:00:00,30.9244,114.6972,55.4,武汉市,春光,新洲区,1000.6,28.4,52.0,29.914500000000018,20.124983609676814
Q1115,2025-06-03 07:00:00,30.9389,114.9081,36,武汉市,易河,新洲区,1002.8,28.9,49.0,26.72599999999997,19.522834504741517
Q1116,2025-06-03 07:00:00,30.9575,114.87,60,武汉市,李岗,新洲区,1000.1,28.9,47.0,32.037500000000044,18.725984116792883
Q1117,2025-06-03 07:00:00,30.9631,114.7978,28,武汉市,徐寨,新洲区,1003.8,28.6,49.0,29.408500000000036,19.185789506303454
Q1118,2025-06-03 07:00:00,30.6256,114.7536,22.2,武汉市,陈路,新洲区,1004.6,28.7,54.0,35.96000000000002,21.266708256890137
Q1119,2025-06-03 07:00:00,30.6903,114.705,26.5,武汉市,滨湖,新洲区,1004.0,27.9,53.0,31.918500000000027,19.92264427302671
Q1120,2025-06-03 07:00:00,30.5981,114.6917,22.5,武汉市,航天新城,新洲区,1004.5,28.2,57.0,35.48400000000001,21.804604164387726
Q1121,2025-06-03 07:00:00,30.7686,114.6692,20.6,武汉市,大泊,新洲区,1004.5,27.3,63.0,35.09200000000001,22.864233552436147
Q1122,2025-06-03 07:00:00,30.7528,114.7064,23.9,武汉市,冯铺,新洲区,1004.2,27.6,58.0,32.26100000000005,21.422987715348995
Q1123,2025-06-03 07:00:00,30.8286,114.6825,23.6,武汉市,人胜,新洲区,1004.2,27.3,59.0,31.498000000000058,21.4125361840275
Q1124,2025-06-03 07:00:00,30.7658,114.815,35.4,武汉市,杨铺,新洲区,1002.9,28.0,55.0,33.724500000000035,20.795518215833035
Q1125,2025-06-03 07:00:00,30.7722,114.8658,39.5,武汉市,朱岗,新洲区,1002.5,27.3,59.0,34.87550000000001,21.4125361840275
Q1126,2025-06-03 07:00:00,30.6581,114.6303,22,武汉市,毛集,新洲区,1003.0,28.0,52.0,30.791500000000045,19.66121722224214
Q1128,2025-06-03 07:00:00,30.7972,114.6519,13.8,武汉市,王瓦,新洲区,1004.3,28.2,58.0,35.74050000000004,22.187141079552422
Q1129,2025-06-03 07:00:00,30.73,114.7775,20.2,武汉市,四道沟,新洲区,1004.7,27.3,58.0,33.89100000000002,21.049611841925337
Q1130,2025-06-03 07:00:00,30.8692,115.0061,92.7,武汉市,道观河水库,新洲区,996.2,29.9,51.0,32.875000000000036,21.52820160248089
Q1131,2025-06-03 07:00:00,30.9228,115.0169,109.7,武汉市,大屋冲,新洲区,994.3,27.7,54.0,37.51500000000009,20.06260702487576
Q1132,2025-06-03 07:00:00,30.9228,114.7528,34,武汉市,凤凰镇中心小学,新洲区,1001.5,30.2,41.0,26.43299999999999,17.60811698603073
Q1133,2025-06-03 07:00:00,30.8536,114.9625,31,武汉市,旧街利河小学,新洲区,1001.9,28.0,53.0,25.880500000000026,20.039317553439105
Q1134,2025-06-03 07:00:00,30.6467,114.8336,15,武汉市,双柳汉昕小学,新洲区,1004.7,28.4,53.0,29.12050000000001,20.51200252524752
Q1135,2025-06-03 07:00:00,30.8819,114.8447,32,武汉市,刘六,新洲区,1002.2,28.2,52.0,25.63750000000003,19.891919588564242
Q1136,2025-06-03 07:00:00,30.6756,114.7642,28.8,武汉市,涨渡湖湿地森林公园,新洲区,1004.9,27.8,53.0,32.216999999999985,19.80656502975794
Q1191,2025-06-03 07:00:00,30.8192,114.6042,35.7,武汉市,紫薇都市田园,江岸区,1002.8,29.1,48.0,29.67080000000003,19.347324395323405
Q1199,2025-06-03 07:00:00,30.8331,114.7997,26.4,武汉市,邾城,新洲区,1003.9,28.2,47.0,32.55350000000005,17.97923501274076
Q1201,2025-06-03 07:00:00,31.2047,114.3831,48.5,武汉市,姚家集,黄陂区,1001.3,27.5,65.0,35.61800000000002,23.86832620436488
Q1202,2025-06-03 07:00:00,30.9883,114.5211,88,武汉市,蔡家榨,黄陂区,997.0,28.7,58.0,45.32599999999999,22.842019979622737
Q1203,2025-06-03 07:00:00,30.9947,114.2333,37.5,武汉市,李家集,黄陂区,1001.2,28.0,63.0,32.837499999999984,23.820320865408746
Q1204,2025-06-03 07:00:00,30.8131,114.2119,35,武汉市,天河机场,黄陂区,1002.4,28.2,59.0,33.31299999999998,22.56967799471712
Q1207,2025-06-03 07:00:00,31.2856,114.3106,67,武汉市,蔡店,黄陂区,999.0,28.0,65.0,40.74450000000003,24.576521527802676
Q1208,2025-06-03 07:00:00,30.8853,114.2261,41,武汉市,祁家湾,黄陂区,1002.4,28.0,56.0,30.75349999999998,21.17361854703
Q1209,2025-06-03 07:00:00,30.8003,114.2903,38,武汉市,横店,黄陂区,1001.7,28.2,53.0,25.84099999999998,20.27445650372894
Q1210,2025-06-03 07:00:00,30.7506,114.3008,30,武汉市,盘龙城,黄陂区,1002.3,29.1,52.0,34.38100000000004,20.95960142826702
Q1212,2025-06-03 07:00:00,31.0553,114.4678,49,武汉市,夏家寺水库,黄陂区,1000.2,29.4,56.0,39.65449999999999,22.966943210494488
Q1213,2025-06-03 07:00:00,31.3047,114.2033,537,武汉市,刘家山,黄陂区,948.1,23.7,75.0,54.48850000000003,21.973971868473747
Q1214,2025-06-03 07:00:00,30.7583,114.4194,23,武汉市,三里桥,江岸区,1004.7,29.0,57.0,34.139500000000005,22.842257003696293
Q1215,2025-06-03 07:00:00,30.9933,114.3361,48,武汉市,罗汉寺,黄陂区,1001.5,28.3,56.0,33.54849999999999,21.547243976340358
Q1216,2025-06-03 07:00:00,31.1075,114.3617,49,武汉市,长轩岭,黄陂区,1001.5,28.0,59.0,38.75849999999996,22.30791954062089
Q1217,2025-06-03 07:00:00,30.7003,114.5036,21,武汉市,现代农展中心,江岸区,1004.6,28.1,55.0,28.5215,20.917213379360746
Q1218,2025-06-03 07:00:00,31.2347,114.23,100.2,武汉市,源泉,黄陂区,993.7,27.4,65.0,47.345999999999975,23.728847743000415
Q1219,2025-06-03 07:00:00,31.0919,114.2014,105.3,武汉市,矿巴水库,黄陂区,996.4,27.3,64.0,37.51549999999998,23.227157894538305
Q1220,2025-06-03 07:00:00,30.7003,114.4181,29,武汉市,武湖,江岸区,1004.2,28.7,52.0,30.685500000000026,20.479052395523833
Q1221,2025-06-03 07:00:00,30.7122,114.3606,17.3,武汉市,滠口,黄陂区,1003.5,27.6,53.0,28.574949999999998,19.57617842954305
Q1222,2025-06-03 07:00:00,30.7164,114.4722,28,武汉市,农科院北区,江岸区,1004.3,28.5,52.0,27.91299999999998,20.2424076086186
Q1224,2025-06-03 07:00:00,31.2561,114.3842,50.2,武汉市,崇杰,黄陂区,1001.0,27.5,64.0,40.923499999999976,23.50112118583619
Q1225,2025-06-03 07:00:00,31.1831,114.3153,65.1,武汉市,梅店水库,黄陂区,999.1,28.1,65.0,44.416500000000006,24.720343084699063
Q1226,2025-06-03 07:00:00,31.2664,114.2336,106.9,武汉市,道士冲,黄陂区,994.1,27.9,66.0,41.439000000000014,24.80933060414647
Q1227,2025-06-03 07:00:00,31.2417,114.2836,87.3,武汉市,姚家老屋,黄陂区,996.4,27.8,66.0,41.064499999999974,24.664779093660833
Q1228,2025-06-03 07:00:00,30.8536,114.1789,22,武汉市,双墩,黄陂区,1002.6,28.2,56.0,31.166499999999946,21.422067249223034
Q1229,2025-06-03 07:00:00,30.9553,114.1625,21.6,武汉市,红旗,黄陂区,1002.6,27.4,64.0,44.11699999999998,23.363788546954254
Q1230,2025-06-03 07:00:00,31.1272,114.4814,46.7,武汉市,同兴集,黄陂区,999.6,28.4,60.0,41.518,23.221134934242475
Q1231,2025-06-03 07:00:00,31.1839,114.4325,61.2,武汉市,磨盘,黄陂区,997.8,27.5,61.0,34.750500000000045,22.399506130250117
Q1232,2025-06-03 07:00:00,31.1419,114.4219,73.8,武汉市,吊箭楼,黄陂区,996.4,26.8,65.0,34.65599999999998,22.90684146056248
Q1233,2025-06-03 07:00:00,31.035,114.3906,29,武汉市,卧虎,黄陂区,1001.8,27.5,61.0,42.3054999999999,22.399506130250117
Q1234,2025-06-03 07:00:00,31.0972,114.315,48.5,武汉市,院基寺水库,黄陂区,999.4,27.7,62.0,40.26600000000001,23.03484510263513
Q1235,2025-06-03 07:00:00,31.0725,114.2422,86.4,武汉市,彭家冲,黄陂区,997.6,28.2,60.0,38.78199999999999,22.952214909881818
Q1236,2025-06-03 07:00:00,30.9511,114.4708,49,武汉市,红十月水库,黄陂区,999.6,28.9,53.0,31.149499999999986,21.116535280638782
Q1237,2025-06-03 07:00:00,31.0414,114.3053,60.4,武汉市,北新,黄陂区,998.1,27.4,60.0,49.16950000000001,21.90355176276961
Q1238,2025-06-03 07:00:00,31.3386,114.2825,96,武汉市,余家冲水库,黄陂区,993.6,27.5,70.0,40.64200000000004,25.70435129700833
Q1239,2025-06-03 07:00:00,31.0269,114.1628,34,武汉市,官家砦,黄陂区,1001.3,27.5,61.0,46.461000000000034,22.399506130250117
Q1243,2025-06-03 07:00:00,30.9133,114.4825,21,武汉市,定正,黄陂区,1002.4,28.8,58.0,37.608000000000004,22.975002757981514
Q1244,2025-06-03 07:00:00,31.1486,114.3,62.7,武汉市,黄陂石门,黄陂区,998.3,28.2,64.0,39.28049999999997,24.482362570540605
Q1245,2025-06-03 07:00:00,31.25,114.3386,27.9,武汉市,仁和,黄陂区,1001.0,27.4,65.0,41.77299999999997,23.728847743000415
Q1246,2025-06-03 07:00:00,31.1961,114.4222,55.1,武汉市,帽子村,黄陂区,998.4,27.2,65.0,37.954499999999996,23.452026601229175
Q1247,2025-06-03 07:00:00,30.9967,114.2653,53,武汉市,白庙集,黄陂区,1001.4,27.9,59.0,41.14600000000004,22.178037964312754
Q1248,2025-06-03 07:00:00,30.9969,114.4553,28.8,武汉市,白龙寺,黄陂区,1003.0,28.5,54.0,33.62049999999998,21.020961747411622
Q1250,2025-06-03 07:00:00,30.7614,114.1772,14.3,武汉市,童家湖,黄陂区,1003.9,28.8,54.0,38.898999999999916,21.390519809155208
Q1251,2025-06-03 07:00:00,30.9539,114.6003,55.1,武汉市,艾馆,黄陂区,998.7,28.1,52.0,32.57299999999997,19.77627446775925
Q1252,2025-06-03 07:00:00,30.8608,114.2969,43.9,武汉市,全华,黄陂区,1000.3,27.1,60.0,38.460499999999904,21.521241012343612
Q1253,2025-06-03 07:00:00,30.9294,114.3856,35.8,武汉市,下店,黄陂区,1001.3,29.1,55.0,38.27300000000006,22.168809202974735
Q1254,2025-06-03 07:00:00,30.9661,114.2142,32.9,武汉市,黄陂郑店,黄陂区,1001.0,28.8,63.0,44.92249999999997,24.955606444014407
Q1255,2025-06-03 07:00:00,31.2994,114.4211,65.4,武汉市,茶庙,黄陂区,997.3,27.4,61.0,39.538500000000056,22.268610958815774
Q1270,2025-06-03 07:00:00,31.1797,114.2817,337.8,武汉市,木兰天池,黄陂区,970.3,24.4,77.0,51.59100000000002,23.529406748370086
Q1271,2025-06-03 07:00:00,31.1264,114.2086,122,武汉市,云雾山,黄陂区,993.1,26.6,65.0,43.93600000000002,22.638428711638717
Q1301,2025-06-03 07:00:00,30.3508,114.4364,20.5,武汉市,老屋汤,江夏区,1004.6,26.9,61.0,37.93699999999992,21.624113578979532
Q1302,2025-06-03 07:00:00,30.1533,114.2303,42,武汉市,安山,江夏区,1002.2,27.3,57.0,28.07350000000002,20.686687499823176
Q1303,2025-06-03 07:00:00,30.3481,114.1275,27.6,武汉市,金口,江夏区,1004.2,28.4,56.0,32.875499999999995,21.673059271959648
Q1304,2025-06-03 07:00:00,30.285,114.2281,32.6,武汉市,郑店,江夏区,1003.9,27.8,54.0,29.25750000000002,20.18027380390432
Q1305,2025-06-03 07:00:00,30.1131,114.1917,24,武汉市,法泗,江夏区,1004.2,28.5,49.0,30.84099999999998,19.074576400429066
Q1306,2025-06-03 07:00:00,30.3058,114.4239,38.2,武汉市,五里界,江夏区,1002.8,28.1,52.0,32.81199999999998,19.77627446775925
Q1307,2025-06-03 07:00:00,30.0333,114.3808,40,武汉市,山坡,江夏区,1001.5,29.4,48.0,31.126999999999967,19.68595132328099
Q1308,2025-06-03 07:00:00,30.0231,114.4622,40.8,武汉市,湖泗,江夏区,1002.0,30.5,50.0,36.546,21.8461112243223
Q1309,2025-06-03 07:00:00,30.1494,114.5,32.3,武汉市,舒安,江夏区,1002.6,29.4,55.0,38.984999999999964,22.5568192245928
Q1310,2025-06-03 07:00:00,30.2106,114.3286,35,武汉市,乌龙泉,江夏区,1002.6,29.0,51.0,29.93600000000004,20.437808898044054
Q1311,2025-06-03 07:00:00,30.4372,114.3781,19.7,武汉市,庙山,江夏区,1004.6,27.9,59.0,41.096000000000046,22.178037964312754
Q1313,2025-06-03 07:00:00,30.2603,114.4494,22.8,武汉市,梁子湖,江夏区,1004.6,28.7,54.0,38.584999999999994,21.266708256890137
Q1314,2025-06-03 07:00:00,30.3864,114.38,22,武汉市,庙山天玺湾,江夏区,1004.7,28.2,51.0,31.73849999999995,19.509382673399543
Q1316,2025-06-03 07:00:00,30.3872,114.3056,26,武汉市,中央大公园,江夏区,1004.5,28.5,42.0,24.442000000000043,16.349636914653484
Q1317,2025-06-03 07:00:00,30.3178,114.2592,28,武汉市,郑店海吉星,江夏区,1004.4,28.0,60.0,35.321000000000055,22.68601987181785
Q1318,2025-06-03 07:00:00,30.3278,114.3869,27,武汉市,五里界锦绣,江夏区,1002.8,28.0,47.0,28.803000000000015,17.77071556625732
Q1319,2025-06-03 07:00:00,30.1294,114.4775,35,武汉市,舒安未来家园,江夏区,1004.1,28.0,54.0,28.876500000000057,20.41741788463607
Q1320,2025-06-03 07:00:00,30.005,114.5111,55,武汉市,湖泗祝祠,江夏区,1001.5,27.0,57.0,34.14299999999998,20.325351717503473
Q1321,2025-06-03 07:00:00,30.0417,114.5383,49,武汉市,舒安嗣孟,江夏区,1002.1,29.6,52.0,39.444000000000045,21.574114431890564
Q1322,2025-06-03 07:00:00,30.2406,114.3142,66,武汉市,乌龙泉茗泉谷,江夏区,1000.8,28.5,47.0,34.973000000000035,18.29602226163604
Q1323,2025-06-03 07:00:00,30.0956,114.3458,24,武汉市,山坡光星,江夏区,1004.3,29.7,48.0,34.393999999999984,20.029741799819927
Q1324,2025-06-03 07:00:00,30.2308,114.4347,24,武汉市,乌龙泉杨湖,江夏区,1004.6,29.8,48.0,33.4345,20.145497520556592
Q1325,2025-06-03 07:00:00,30.2164,114.0742,24,武汉市,金口南岸,江夏区,1004.8,27.4,59.0,44.32299999999994,21.538492566723452
Q1326,2025-06-03 07:00:00,30.2019,114.1539,21,武汉市,金水花篮棚,江夏区,1004.9,27.8,56.0,34.658500000000025,20.927691352197073
Q1327,2025-06-03 07:00:00,30.2031,114.1856,23,武汉市,法泗花莲湖,江夏区,1004.8,28.5,58.0,36.491000000000014,22.578070024997665
Q1328,2025-06-03 07:00:00,30.3664,114.3228,23,武汉市,东湖路学校,江夏区,1004.5,28.5,45.0,28.327999999999996,17.517468122843017
Q1329,2025-06-03 07:00:00,30.2903,114.0978,21.1,武汉市,金口长江,江夏区,1004.6,27.4,64.0,42.866500000000066,23.363788546954254
Q1330,2025-06-03 07:00:00,30.2444,114.1503,23.7,武汉市,马蹄口,江夏区,1004.5,27.1,55.0,31.51299999999999,19.727804261314983
Q1331,2025-06-03 07:00:00,30.2861,114.1775,43.3,武汉市,三门口,江夏区,1002.1,27.3,63.0,40.83999999999997,22.864233552436147
Q1332,2025-06-03 07:00:00,30.1914,114.4686,20.9,武汉市,塘口,江夏区,1004.5,28.0,61.0,38.09650000000001,23.06412020301482
Q1333,2025-06-03 07:00:00,30.1481,114.36,34.1,武汉市,三合,江夏区,1003.0,30.8,46.0,31.12499999999999,20.44658087886827
Q1334,2025-06-03 07:00:00,30.1872,114.3167,41,武汉市,乌龙泉五星,江夏区,1002.2,29.6,49.0,32.39899999999999,20.329453983896876
Q1335,2025-06-03 07:00:00,30.0183,114.25,21.7,武汉市,邓家洲,江夏区,1004.3,27.9,58.0,39.320000000000036,21.802139015765075
Q1336,2025-06-03 07:00:00,30.0481,114.3033,35.5,武汉市,前途,江夏区,1002.7,29.3,54.0,38.80350000000004,22.019068358722752
Q1337,2025-06-03 07:00:00,30.2183,114.2303,28.3,武汉市,涂洲,江夏区,1003.9,28.5,57.0,34.32900000000003,22.188792955601155
Q1338,2025-06-03 07:00:00,30.1039,114.2444,31.2,武汉市,合心,江夏区,1003.5,28.2,54.0,30.554500000000033,20.656993418893638
Q1339,2025-06-03 07:00:00,30.1778,114.3586,32.5,武汉市,沿湖,江夏区,1003.1,29.0,46.0,30.443499999999958,18.434102143333853
Q1340,2025-06-03 07:00:00,30.2194,114.3758,21.5,武汉市,长岭,江夏区,1004.4,28.4,53.0,31.269500000000008,20.51200252524752
Q1341,2025-06-03 07:00:00,30.1742,114.5003,39.8,武汉市,祝庙,江夏区,1002.3,29.5,58.0,37.58850000000004,23.924965152763665
Q1342,2025-06-03 07:00:00,30.0381,114.4119,39.1,武汉市,陈六,江夏区,1002.3,30.4,55.0,37.69099999999998,23.893344911617874
Q1343,2025-06-03 07:00:00,30.3275,114.1272,27.9,武汉市,金口花园,江夏区,1004.0,27.3,62.0,45.37749999999999,22.501309210333982
Q1344,2025-06-03 07:00:00,30.1744,114.2619,26.9,武汉市,安山青春,江夏区,1003.8,27.9,57.0,32.91750000000005,21.426240067217403
Q1345,2025-06-03 07:00:00,30.1472,114.3175,41.3,武汉市,安山英雄,江夏区,1002.1,29.9,49.0,36.52749999999996,20.683958402383603
Q1346,2025-06-03 07:00:00,30.0914,114.3069,40.7,武汉市,周李家,江夏区,1002.2,28.8,53.0,34.06300000000001,20.994399071948628
Q1347,2025-06-03 07:00:00,30.2844,114.3825,35.2,武汉市,狮子山,江夏区,1002.8,27.1,55.0,29.13649999999999,19.727804261314983
Q1348,2025-06-03 07:00:00,30.3039,114.1303,26,武汉市,凉亭,江夏区,1004.5,27.7,58.0,39.817000000000036,21.548726063755442
Q1349,2025-06-03 07:00:00,30.3728,114.1886,24.9,武汉市,金港,江夏区,1004.4,27.5,59.0,40.79249999999996,21.665096093192737
Q1350,2025-06-03 07:00:00,30.0536,114.2386,22.2,武汉市,山坡东方红,江夏区,1004.4,27.9,57.0,39.71050000000006,21.426240067217403
Q1351,2025-06-03 07:00:00,30.1067,114.4064,42.6,武汉市,新生,江夏区,1002.0,29.1,45.0,29.508999999999954,18.13811662061569
Q1352,2025-06-03 07:00:00,30.0669,114.4333,38.5,武汉市,官堤,江夏区,1002.4,29.8,48.0,31.908999999999995,20.145497520556592
Q1353,2025-06-03 07:00:00,30.3608,114.2928,262,武汉市,八分山,江夏区,977.3,26.0,62.0,42.992000000000026,20.841176752626165
Q1354,2025-06-03 07:00:00,30.4092,114.3656,20.7,武汉市,普生园,江夏区,1003.4,28.7,47.0,28.286499999999982,18.50991274210808
Q1401,2025-06-03 07:00:00,30.7736,114.0089,20.9,武汉市,东山,东西湖区,1004.5,29.0,61.0,47.145000000000074,24.445222407464456
Q1402,2025-06-03 07:00:00,30.7692,114.1272,33.6,武汉市,柏泉,东西湖区,1003.5,28.5,58.0,39.121999999999936,22.578070024997665
Q1403,2025-06-03 07:00:00,30.7053,114.0806,21,武汉市,郁金香公园,东西湖区,1004.8,28.6,59.0,35.5415,23.101256752487828
Q1404,2025-06-03 07:00:00,30.6506,114.0136,13,武汉市,走马岭,东西湖区,1004.3,28.3,59.0,30.84200000000007,22.701560617930017
Q1405,2025-06-03 07:00:00,30.7461,113.9286,31.3,武汉市,辛安渡,东西湖区,1004.3,28.0,62.0,43.935499999999976,23.44222053421178
Q1406,2025-06-03 07:00:00,30.6808,114.1228,23,武汉市,径河,东西湖区,1004.1,28.9,57.0,36.75049999999998,22.710236056536047
Q1407,2025-06-03 07:00:00,30.6642,114.2636,16,武汉市,将军路,东西湖区,1004.1,27.9,58.0,37.74300000000001,21.802139015765075
Q1408,2025-06-03 07:00:00,30.7228,114.145,25,武汉市,杜公湖,东西湖区,1004.4,28.9,55.0,25.312500000000014,21.913385668587416
Q1410,2025-06-03 07:00:00,30.6897,113.9931,22,武汉市,新沟,东西湖区,1004.6,28.0,65.0,52.586500000000015,24.576521527802676
Q1411,2025-06-03 07:00:00,30.6919,114.1892,32,武汉市,塔尔头,东西湖区,1004.3,29.4,52.0,33.167999999999985,21.326447266887737
Q1412,2025-06-03 07:00:00,30.6422,114.1814,23,武汉市,金银湖,东西湖区,1004.4,28.7,56.0,32.59400000000003,22.05436411825644
Q1413,2025-06-03 07:00:00,30.7642,113.9464,32,武汉市,红星合作社,东西湖区,1004.4,28.0,67.0,48.266000000000005,25.332722190196602
Q1501,2025-06-03 07:00:00,30.3908,113.7656,21,武汉市,成功闸,蔡甸区,1004.2,27.6,58.0,33.61849999999996,21.422987715348995
Q1502,2025-06-03 07:00:00,30.5081,114.0531,30,武汉市,大集,蔡甸区,1003.6,27.6,60.0,37.67149999999994,22.161711429671374
Q1503,2025-06-03 07:00:00,30.5236,113.8964,41.3,武汉市,索河,蔡甸区,1002.7,27.2,64.0,40.90149999999996,23.091226191979494
Q1504,2025-06-03 07:00:00,30.3917,113.9786,35,武汉市,桐湖农场,蔡甸区,1004.5,28.2,58.0,33.89750000000004,22.187141079552422
Q1506,2025-06-03 07:00:00,30.3169,113.7728,27,武汉市,消泗,蔡甸区,1004.7,27.9,64.0,42.62749999999997,24.05753270705112
Q1507,2025-06-03 07:00:00,30.4617,113.9281,48.6,武汉市,永安,蔡甸区,1001.8,27.8,62.0,35.726999999999954,23.16994399707533
Q1509,2025-06-03 07:00:00,30.4297,114.0436,31.3,武汉市,奓山,蔡甸区,1003.4,28.4,54.0,37.37200000000001,20.89902144081823
Q1510,2025-06-03 07:00:00,30.4525,113.8792,26.5,武汉市,侏儒,蔡甸区,1004.3,27.5,63.0,36.29620833333331,23.1339161673075
Q1512,2025-06-03 07:00:00,30.3242,113.8619,25,武汉市,沉湖湿地,蔡甸区,1004.2,27.5,68.0,46.120000000000054,24.969941259950957
Q1513,2025-06-03 07:00:00,30.4078,114.0333,37.2,武汉市,千子山,蔡甸区,1002.8,27.7,58.0,37.45699999999995,21.548726063755442
Q1514,2025-06-03 07:00:00,30.4839,113.9544,122,武汉市,九真山,蔡甸区,993.3,25.8,73.0,56.61549999999995,24.24956934978745
Q1515,2025-06-03 07:00:00,30.4467,114.0142,27.3,武汉市,绿茵园,蔡甸区,1003.9,27.6,61.0,42.12,22.531073286832566
Q1516,2025-06-03 07:00:00,30.4086,113.8017,21.5,武汉市,时光农场,蔡甸区,1004.6,28.2,62.0,42.26349999999993,23.71728874021121
Q1517,2025-06-03 07:00:00,30.4275,113.9525,22.7,武汉市,农耕园,蔡甸区,1004.6,27.7,64.0,41.70374999999996,23.777904622074974
Q1518,2025-06-03 07:00:00,30.4956,114.0656,32.4,武汉市,花博汇,蔡甸区,1004.7,28.6,54.0,41.31899999999995,21.143523129395643
Q1519,2025-06-03 07:00:00,30.5394,113.9619,32,武汉市,鸽翅岭,蔡甸区,1003.4,28.5,60.0,36.677500000000066,23.356624163790688
Q1520,2025-06-03 07:00:00,30.4989,113.9781,22.3,武汉市,景秀大地,蔡甸区,1004.6,27.6,62.0,34.53937500000002,22.900435143993754
Q1521,2025-06-03 07:00:00,30.4289,113.7733,23.2,武汉市,七沟,蔡甸区,1004.4,27.4,60.0,37.09400000000006,21.90355176276961
Q1522,2025-06-03 07:00:00,30.5133,113.8858,27.1,武汉市,香草花田,蔡甸区,1004.0,28.1,62.0,45.67849999999993,23.579404173097565
Q1523,2025-06-03 07:00:00,30.54,113.9247,22.2,武汉市,金龙水寨,蔡甸区,1004.5,27.7,64.0,42.03024999999996,23.777904622074974
Q1524,2025-06-03 07:00:00,30.6244,113.9264,24.8,武汉市,谢八家,蔡甸区,1004.2,28.2,60.0,29.907000000000025,22.952214909881818
Q1525,2025-06-03 07:00:00,30.5567,113.9353,23.3,武汉市,蔡甸野生动物王国,蔡甸区,1004.4,27.9,61.0,30.13150000000003,22.9298358614081
Q1526,2025-06-03 07:00:00,30.5292,114.0256,21.5,武汉市,长江大学,蔡甸区,1004.6,27.5,65.0,39.97799999999998,23.86832620436488
Q1527,2025-06-03 07:00:00,30.6311,113.9797,26.1,武汉市,蔡甸汉江堤防,蔡甸区,1004.1,28.4,57.0,35.701499999999996,22.06007818753035
Q1528,2025-06-03 07:00:00,30.5306,114.0786,24.3,武汉市,后官湖湿地公园,蔡甸区,1004.3,27.4,62.0,40.66216666666668,22.63367015486193
Q1529,2025-06-03 07:00:00,30.3156,113.8164,23.3,武汉市,张家大湖,蔡甸区,1004.7,27.7,63.0,37.89206428571425,23.406374862355054
Q1599,2025-06-03 07:00:00,30.5664,114.0289,17.8,武汉市,孙家畈,蔡甸区,1004.2,28.3,56.0,38.12749999999998,21.547243976340358
Q1701,2025-06-03 07:00:00,30.4017,114.4189,30,武汉市,藏龙岛,江夏区,1004.0,27.5,50.0,27.894500000000026,18.360250926434524
Q1702,2025-06-03 07:00:00,30.5039,114.4608,40,武汉市,东湖高新射击场,洪山区,1003.0,28.8,44.0,27.07250000000002,17.42931243708943
Q1703,2025-06-03 07:00:00,30.5972,114.3886,30,武汉市,武汉欢乐谷,洪山区,1004.5,28.6,48.0,28.708999999999968,18.794242781685014
Q1704,2025-06-03 07:00:00,30.57,114.39,30,武汉市,东湖湖心亭,武昌区,1004.4,27.7,55.0,31.036000000000026,20.43413678459568
Q1706,2025-06-03 07:00:00,30.6508,114.3919,30,武汉市,青山沙排中心,青山区,1004.0,27.0,66.0,45.385,23.53461777816192
Q1707,2025-06-03 07:00:00,30.5,114.5006,50,武汉市,驿山高尔夫,洪山区,1000.4,27.4,44.0,32.14649999999995,16.06260462603105
Q1708,2025-06-03 07:00:00,30.5094,114.4117,40,武汉市,华科,武昌区,1003.0,27.9,42.0,30.289999999999992,15.787755839002298
Q1709,2025-06-03 07:00:00,30.4739,114.4547,40,武汉市,省奥体中心,市辖区,1001.9,28.5,38.0,29.44749999999995,14.792528637067438
Q1710,2025-06-03 07:00:00,30.5489,114.3281,30,武汉市,洪山体育馆,武昌区,1002.9,28.5,36.0,27.3605,14.013974498274415
Q1711,2025-06-03 07:00:00,30.5219,114.3725,30,武汉市,武汉体育学院,洪山区,1004.1,27.5,44.0,26.077999999999964,16.15702081526238
Q1712,2025-06-03 07:00:00,30.5383,114.3511,30,武汉市,武大,武昌区,1004.1,27.6,46.0,25.129999999999995,16.990645429414723
Q1713,2025-06-03 07:00:00,30.4508,114.4231,30,武汉市,武汉软件职院,市辖区,1003.4,28.2,39.0,32.13900000000001,14.918939691423182
Q1714,2025-06-03 07:00:00,30.5058,114.325,30,武汉市,武汉理工大学,洪山区,1004.5,28.5,45.0,28.327999999999996,17.517468122843017
Q1715,2025-06-03 07:00:00,30.4414,114.3086,20,武汉市,武汉城市职院,洪山区,1004.7,27.6,58.0,43.302000000000035,21.422987715348995
Q1716,2025-06-03 07:00:00,30.5061,114.1683,30,武汉市,武汉体育中心,汉南区,1004.5,27.7,49.0,30.949499999999997,18.20495822627615
Q1717,2025-06-03 07:00:00,30.4664,114.08,30,武汉市,武汉商学院,汉南区,1004.4,27.6,45.0,21.762499999999996,16.62128357225353
Q1718,2025-06-03 07:00:00,30.5208,114.1497,30,武汉市,江汉大学,汉南区,1004.5,27.3,62.0,40.75449999999999,22.501309210333982
Q1720,2025-06-03 07:00:00,30.6472,114.2831,30,武汉市,全民健身中心,江岸区,1004.7,29.4,47.0,33.10940000000003,19.2758273373793
Q1721,2025-06-03 07:00:00,30.6028,114.2636,30,武汉市,汉口文体中心,江汉区,1004.6,27.6,53.0,37.9805,19.57617842954305
Q1722,2025-06-03 07:00:00,30.5017,114.2308,30,武汉市,汉阳沙排中心,汉阳区,1004.0,27.4,57.0,29.42650000000005,20.80837417463113
Q1723,2025-06-03 07:00:00,30.3978,114.1156,40,武汉市,军山,汉南区,1002.5,27.2,51.0,27.87750000000001,18.40082087173366
Q1724,2025-06-03 07:00:00,30.4764,113.9647,60,武汉市,蔡甸国防园,蔡甸区,1001.3,27.4,60.0,36.908500000000046,21.90355176276961
Q1725,2025-06-03 07:00:00,31.1183,114.4642,50,武汉市,海工大木兰校区,黄陂区,1000.8,27.0,69.0,44.94699999999996,24.60437313171473
Q1726,2025-06-03 07:00:00,30.6378,114.1269,20,武汉市,体育中心,东西湖区,1003.8,27.9,52.0,34.6775,19.546745324479037
Q1727,2025-06-03 07:00:00,30.5425,114.3689,30,武汉市,东湖帆船基地,武昌区,1004.7,28.7,50.0,32.06349999999998,19.691396534157533
Q1728,2025-06-03 07:00:00,30.4408,114.2756,20,武汉市,雷神山,江夏区,1004.5,27.3,64.0,42.87850000000006,23.227157894538305
Q1729,2025-06-03 07:00:00,30.1603,114.1839,47,武汉市,桂子米业,江夏区,1002.1,28.1,50.0,33.712,19.015648526691585
Q1730,2025-06-03 07:00:00,30.1494,114.4292,40,武汉市,天子山教育基地,江夏区,1002.8,28.6,53.0,32.47550000000003,20.751976404777203
Q1745,2025-06-03 07:00:00,30.5631,114.07,22.1,武汉市,中法生态城,蔡甸区,1004.2,27.9,58.0,33.58400000000001,21.802139015765075
Q1752,2025-06-03 07:00:00,30.6517,114.2239,35,武汉市,马池路,东西湖区,1004.4,28.9,50.0,36.43750000000003,19.921259698715833
Q1753,2025-06-03 07:00:00,30.4872,114.4561,50,武汉市,高新大道,市辖区,1001.1,28.8,38.0,26.0735,15.052588013849961
Q1754,2025-06-03 07:00:00,30.6575,114.4003,60,武汉市,天兴洲大桥,洪山区,999.2,27.3,53.0,29.80600000000001,19.234990131414534
Q1755,2025-06-03 07:00:00,30.5811,114.2161,35,武汉市,知音桥,硚口区,1003.3,28.3,48.0,26.55149999999996,18.46906626543459
Q1756,2025-06-03 07:00:00,30.5656,114.2783,15,武汉市,晴川桥,硚口区,1002.6,27.2,46.0,30.097500000000004,16.596818825485265
Q1759,2025-06-03 07:00:00,30.6036,114.3217,20,武汉市,长江二桥,江岸区,1000.8,26.5,47.0,24.124000000000006,16.27303177608196
Q1760,2025-06-03 07:00:00,30.6294,114.3394,25,武汉市,二七长江大桥,江岸区,1000.2,26.7,49.0,34.49749999999999,17.166802696519948
Q1761,2025-06-03 07:00:00,30.5069,114.2625,30,武汉市,杨泗港长江大桥,汉阳区,999.7,26.0,59.0,30.900499999999955,19.83273271620877
Q1762,2025-06-03 07:00:00,30.5339,114.2764,40,武汉市,鹦鹉洲大桥,汉阳区,1000.6,26.4,51.0,33.30200000000004,17.55401976733701
Q1763,2025-06-03 07:00:00,30.5872,114.1797,25,武汉市,古田桥,硚口区,1002.6,27.0,55.0,25.826999999999984,19.6121814818016
Q1764,2025-06-03 07:00:00,30.5644,114.2483,35,武汉市,月湖桥,硚口区,1003.0,27.7,50.0,29.146,18.576487985996074
Q1765,2025-06-03 07:00:00,30.5286,114.3831,11,武汉市,八一路延长线,市辖区,1003.5,27.9,49.0,27.712500000000006,18.419048478836014
Q1766,2025-06-03 07:00:00,30.6058,114.43,20,武汉市,青化立交,洪山区,1002.9,28.3,49.0,26.650100000000005,18.853838479297814
Q1767,2025-06-03 07:00:00,30.6017,114.41,22,武汉市,欢乐大道,市辖区,1003.2,27.4,52.0,29.86849999999997,18.98307819440033
Q1768,2025-06-03 07:00:00,30.6386,114.2514,26,武汉市,姑嫂树立交,东西湖区,1002.7,28.4,44.0,28.418499999999973,17.02883228511115
Q1769,2025-06-03 07:00:00,30.5097,114.3594,18,武汉市,楚康路出口,洪山区,1002.9,27.2,42.0,27.49150000000001,15.153617188486542
Q1770,2025-06-03 07:00:00,30.6083,114.2083,22,武汉市,长丰大道,硚口区,1003.2,27.4,52.0,31.80600000000001,18.98307819440033
Q1771,2025-06-03 07:00:00,30.4992,114.4108,27,武汉市,雄楚大道光谷大道入口,洪山区,1000.9,28.4,41.0,30.720500000000083,15.867775538399023
Q1772,2025-06-03 07:00:00,30.505,114.2844,22,武汉市,白沙洲大道高架,洪山区,1003.5,27.7,55.0,31.199500000000047,20.43413678459568
Q1773,2025-06-03 07:00:00,30.4556,114.3156,6,武汉市,野芷湖立交线,洪山区,1004.7,27.5,61.0,45.155000000000065,22.399506130250117
Q1774,2025-06-03 07:00:00,30.46,114.3883,7,武汉市,庙山立交,江夏区,1003.0,28.0,49.0,28.7925,18.52691622865125
Q1775,2025-06-03 07:00:00,30.5186,114.1814,17,武汉市,汪家咀立交,汉阳区,1002.9,28.5,50.0,30.87899999999997,19.463853469825576
Q1776,2025-06-03 07:00:00,30.5147,114.2403,21,武汉市,四新北路,汉阳区,1003.3,27.3,55.0,32.03649999999994,19.960838815618857
Q1778,2025-06-03 07:00:00,30.5103,114.4556,8,武汉市,老武黄立交,市辖区,1002.1,28.2,47.0,29.748499999999968,17.97923501274076
Q1779,2025-06-03 07:00:00,30.4628,114.2886,13,武汉市,青菱立交,洪山区,1003.7,27.2,60.0,31.951499999999992,21.648024554980775
Q1780,2025-06-03 07:00:00,30.4244,114.3781,25,武汉市,汤逊湖大桥,江夏区,1004.8,27.6,49.0,27.922500000000003,18.09873100089829
Q2004,2025-06-03 07:00:00,32.6525,110.7253,336.4,十堰市,红卫,张湾区,968.5,28.8,48.0,32.801999999999964,19.01379538591574
Q2022,2025-06-03 07:00:00,32.4628,110.7172,643.8,十堰市,小川,茅箭区,936.0,25.9,60.0,36.4575,20.049708593059776
Q2023,2025-06-03 07:00:00,32.6861,110.5586,186.4,十堰市,黄龙,张湾区,984.7,29.8,52.0,37.04700000000006,21.824288980602976
Q2031,2025-06-03 07:00:00,32.4253,111.0228,851,十堰市,紫霄宫,丹江口市,913.9,23.2,73.0,35.132,20.75196974812138
Q2032,2025-06-03 07:00:00,32.4308,111.0567,588,十堰市,八仙观,丹江口市,944.0,25.0,66.0,36.06099999999999,20.90503427883608
Q2033,2025-06-03 07:00:00,32.4489,111.0708,558,十堰市,太子坡,丹江口市,945.5,24.8,70.0,42.54699999999999,21.908728272351325
Q2034,2025-06-03 07:00:00,32.4978,111.0942,396,十堰市,元和观,丹江口市,961.8,27.6,64.0,41.80900000000003,23.639158858316133
Q2050,2025-06-03 07:00:00,32.6017,110.7742,310,十堰市,火车站小学,茅箭区,972.3,28.8,50.0,36.81849999999999,19.806036860328895
Q2204,2025-06-03 07:00:00,32.7708,111.1592,253.1,十堰市,习家店,丹江口市,977.9,28.8,54.0,33.53499999999999,21.390519809155208
Q2205,2025-06-03 07:00:00,32.7553,111.3811,297,十堰市,石鼓,丹江口市,973.2,28.7,50.0,33.83350000000002,19.691396534157533
Q2206,2025-06-03 07:00:00,32.4447,111.2453,186,十堰市,丁家营,丹江口市,985.8,28.1,57.0,41.62049999999993,21.677839320428408
Q2236,2025-06-03 07:00:00,32.5219,111.0364,179.1,十堰市,蒿口新村,丹江口市,986.2,28.9,59.0,40.24799999999999,23.50708644448468
Q2261,2025-06-03 07:00:00,32.3306,111.1797,503.1,十堰市,马鞍山,丹江口市,950.9,27.7,57.0,33.207499999999946,21.177196304035522
Q2266,2025-06-03 07:00:00,32.5486,111.5125,133.4,十堰市,大坝街道,丹江口市,991.5,28.3,53.0,30.164500000000036,20.392927334750695
Q2309,2025-06-03 07:00:00,32.7992,110.8847,212.2,十堰市,茶店,郧阳区,982.5,29.0,56.0,41.03449999999999,22.44151565275426
Q2324,2025-06-03 07:00:00,32.8525,111.0044,221,十堰市,安阳,郧阳区,980.6,29.1,58.0,41.65700000000002,23.378016977682446
Q2326,2025-06-03 07:00:00,32.8278,110.3708,193.5,十堰市,五峰,郧阳区,985.0,29.3,53.0,34.863500000000016,21.611307833561217
Q2334,2025-06-03 07:00:00,33.0756,110.735,834.7,十堰市,塘上,郧阳区,914.9,26.9,50.0,34.713,17.724683261458633
Q2350,2025-06-03 07:00:00,32.8653,110.6186,244.8,十堰市,韩家沟,郧阳区,979.8,28.6,55.0,35.84450000000001,21.53506985401408
Q2353,2025-06-03 07:00:00,32.5125,110.4669,537.4,十堰市,毛河,郧阳区,947.3,24.9,64.0,34.30749999999997,20.150878253607637
Q2401,2025-06-03 07:00:00,33.0742,110.0211,273.4,十堰市,上津,郧西县,976.2,28.1,55.0,37.24399999999994,20.917213379360746
Q2402,2025-06-03 07:00:00,33.0053,110.2311,374.2,十堰市,马安,郧西县,965.3,27.5,58.0,35.7035,21.297891074664044
Q2403,2025-06-03 07:00:00,33.0589,110.3233,364.3,十堰市,土门,郧西县,966.1,27.3,65.0,36.33100000000001,23.59008223664047
Q2405,2025-06-03 07:00:00,32.9978,110.0711,264.9,十堰市,六郎,郧西县,974.3,27.6,49.0,31.660000000000036,18.09873100089829
Q2409,2025-06-03 07:00:00,33.1683,110.5619,838.1,十堰市,三官,郧西县,914.2,26.8,46.0,32.11300000000003,16.210995495167293
Q2411,2025-06-03 07:00:00,33.2025,109.9003,794,十堰市,槐树,郧西县,920.0,26.1,55.0,35.71349999999993,18.597949340039946
Q2423,2025-06-03 07:00:00,32.9303,110.5283,273,十堰市,河夹,郧西县,973.5,28.9,48.0,32.61399999999999,19.1244093107672
Q2424,2025-06-03 07:00:00,33.1942,109.575,890.6,十堰市,湖北口,郧西县,909.6,26.1,45.0,23.18800000000002,15.216504005487227
Q2433,2025-06-03 07:00:00,33.1864,109.75,640,十堰市,包耳场,郧西县,936.1,25.4,49.0,28.002000000000006,15.894816417764153
Q2502,2025-06-03 07:00:00,32.2775,110.6972,669.3,十堰市,土城,房县,932.7,26.7,54.0,33.41699999999997,18.91851725738933
Q2503,2025-06-03 07:00:00,32.1378,111.0931,843.6,十堰市,沙河,房县,914.5,25.6,45.0,23.069999999999972,14.771909988476388
Q2504,2025-06-03 07:00:00,32.2108,110.9142,711.4,十堰市,卧牛观,房县,928.2,27.8,42.0,21.562499999999996,15.695768514147803
Q2505,2025-06-03 07:00:00,32.0058,110.4417,624.2,十堰市,门古寺,房县,938.5,25.6,56.0,45.24499999999996,18.382821318992843
Q2507,2025-06-03 07:00:00,32.0336,110.6253,495.7,十堰市,军店,房县,951.5,27.2,56.0,29.6415,20.20482291798206
Q2509,2025-06-03 07:00:00,32.0064,110.28,795.4,十堰市,中坝,房县,919.5,24.6,66.0,59.454999999999984,20.411151434556633
Q2524,2025-06-03 07:00:00,31.9419,110.9697,415,十堰市,三里坪,房县,960.5,26.7,62.0,35.951,21.72126055478034
Q2528,2025-06-03 07:00:00,32.0997,110.7728,464.5,十堰市,白鹤,房县,955.0,27.2,54.0,30.06299999999999,19.4832220994827
Q2530,2025-06-03 07:00:00,32.1044,110.5331,563.7,十堰市,汪家河,房县,944.3,27.4,49.0,36.567500000000045,17.88790060626185
Q2532,2025-06-03 07:00:00,32.3347,110.3903,265,十堰市,对寺河,房县,978.2,28.6,57.0,39.505499999999955,22.31816330325095
Q2541,2025-06-03 07:00:00,31.8828,110.5647,991.9,十堰市,三座庵,房县,900.5,23.9,70.0,38.096000000000004,20.75754300224743
Q2546,2025-06-03 07:00:00,31.9833,110.7353,737,十堰市,南潭,房县,925.8,25.1,63.0,31.380499999999994,20.074212194430213
Q2548,2025-06-03 07:00:00,32.2303,110.7133,592.3,十堰市,白鸡,房县,940.9,27.2,60.0,33.437499999999936,21.648024554980775
Q2559,2025-06-03 07:00:00,31.8842,110.7753,1359,十堰市,东蒿,房县,861.8,21.4,60.0,25.71599999999998,15.285473711527272
Q2605,2025-06-03 07:00:00,31.7169,110.0508,523.7,十堰市,柳林,竹山县,949.4,25.4,55.0,32.88450000000001,17.841120468918948
Q2623,2025-06-03 07:00:00,32.4331,109.82,580.3,十堰市,秦古,竹山县,942.8,26.2,62.0,41.34449999999996,21.089387989069124
Q2624,2025-06-03 07:00:00,32.3533,109.9286,513.9,十堰市,擂鼓,竹山县,950.0,26.4,61.0,41.251499999999986,20.99598442759917
Q2626,2025-06-03 07:00:00,32.2786,110.0842,508.8,十堰市,溢水,竹山县,950.5,25.7,63.0,38.93799999999998,20.803871464077833
Q2628,2025-06-03 07:00:00,32.1117,110.2306,361,十堰市,深河,竹山县,967.3,27.3,52.0,38.023999999999944,18.872065789312373
Q2655,2025-06-03 07:00:00,32.23,110.1844,273.8,十堰市,潘口,竹山县,976.3,27.2,55.0,37.117500000000035,19.84402250873238
Q2676,2025-06-03 07:00:00,32.2256,110.2261,307,十堰市,北大街,竹山县,972.8,27.2,54.0,36.04799999999993,19.4832220994827
Q2701,2025-06-03 07:00:00,32.3569,109.6453,563.6,十堰市,龙坝,竹溪县,944.3,27.6,57.0,40.44799999999997,21.053625858187807
Q2721,2025-06-03 07:00:00,32.0428,109.6986,849.5,十堰市,泉溪,竹溪县,914.3,22.9,66.0,55.24499999999999,18.424269463368105
Q2745,2025-06-03 07:00:00,32.1683,109.5989,655.4,十堰市,界牌沟,竹溪县,935.9,24.1,75.0,56.45500000000006,22.509298300763422
Q2748,2025-06-03 07:00:00,31.9983,109.7814,498.9,十堰市,天宝,竹溪县,950.4,24.5,75.0,39.90650000000005,23.056009632042862
Q2757,2025-06-03 07:00:00,31.8119,109.7686,1063.6,十堰市,高子河,竹溪县,892.4,22.4,61.0,44.775999999999996,16.519100854616788
Q2903,2025-06-03 07:00:00,31.5953,110.8861,716.7,省直辖县级行政区划,新华,神农架林区,927.7,25.1,57.0,28.787500000000026,18.162382461627335
Q2906,2025-06-03 07:00:00,31.5622,110.5533,1398.1,省直辖县级行政区划,徐家庄,神农架林区,857.8,18.8,77.0,26.1254,16.699233018825907
Q2910,2025-06-03 07:00:00,31.4828,110.3786,1245,省直辖县级行政区划,木鱼,神农架林区,871.3,21.7,48.0,20.832499999999982,12.455138803770613
Q2912,2025-06-03 07:00:00,31.6119,110.3383,2597.4,省直辖县级行政区划,神农架机场,神农架林区,744.8,12.2,46.0,8.502,6.532561789226672
Q2916,2025-06-03 07:00:00,31.4089,110.1781,1026.6,省直辖县级行政区划,板桥,神农架林区,895.7,21.6,67.0,25.096000000000007,17.279224599289588
Q2923,2025-06-03 07:00:00,31.5508,110.3911,2285,省直辖县级行政区划,牛场坪,神农架林区,772.7,15.0,35.0,9.274999999999993,5.964173088282255
Q2925,2025-06-03 07:00:00,31.4083,110.5553,699.8,省直辖县级行政区划,九冲,神农架林区,930.0,22.1,60.0,26.813499999999955,15.954019561647947
Q2933,2025-06-03 07:00:00,31.4958,109.9953,1752,省直辖县级行政区划,大九湖,神农架林区,823.6,19.2,46.0,19.682999999999982,10.22847590456214
Q2940,2025-06-03 07:00:00,31.3992,110.475,819.5,省直辖县级行政区划,红花,神农架林区,916.9,23.1,68.0,34.82400000000003,19.21397891634709
Q2950,2025-06-03 07:00:00,31.7328,110.8061,498,省直辖县级行政区划,阳日,神农架林区,951.5,25.0,59.0,28.117500000000028,18.68783367350498
Q2957,2025-06-03 07:00:00,31.5144,110.3881,1569,省直辖县级行政区划,青天袍,神农架林区,842.9,20.7,53.0,23.00900000000001,12.933432141617294
Q3005,2025-06-03 07:00:00,31.9889,112.0322,107.3,襄阳市,隆中,襄城区,994.8,28.9,51.0,39.081999999999994,20.319684892690148
Q3008,2025-06-03 07:00:00,32.0283,112.1664,68.6,襄阳市,襄阳老站,襄城区,999.2,29.6,48.0,33.44800000000001,19.91456716789898
Q3012,2025-06-03 07:00:00,32.1517,112.2992,70.1,襄阳市,刘集小学,襄州区,998.6,29.5,48.0,32.5215,19.799971160907862
Q3100,2025-06-03 07:00:00,32.0631,112.2203,69.7,襄阳市,东津,襄州区,998.6,29.6,46.0,32.57250000000002,19.08479353590319
Q3101,2025-06-03 07:00:00,32.2967,112.3483,79,襄阳市,朱集,襄州区,998.0,28.8,45.0,30.488499999999966,17.825433174296005
Q3103,2025-06-03 07:00:00,31.9919,112.3706,93,襄阳市,峪山,襄州区,997.1,29.4,53.0,34.46950000000001,21.736571252789425
Q3104,2025-06-03 07:00:00,32.2089,111.9589,86,襄阳市,龙王,襄州区,995.6,30.2,37.0,32.50300000000001,15.890251914222855
Q3106,2025-06-03 07:00:00,31.9858,112.4556,84.6,襄阳市,黄龙,襄州区,994.6,29.2,55.0,34.77100000000003,22.29749313841247
Q3107,2025-06-03 07:00:00,32.3633,111.9611,110.7,襄阳市,石桥,襄州区,994.1,29.6,39.0,29.292499999999972,16.18058582391792
Q3108,2025-06-03 07:00:00,32.2664,112.4508,114.6,襄阳市,程河,襄州区,994.6,29.1,46.0,34.698,18.541185878851596
Q3109,2025-06-03 07:00:00,32.1878,112.1847,108.3,襄阳市,伙牌,襄州区,994.3,30.1,36.0,30.651999999999934,15.372206984804354
Q3112,2025-06-03 07:00:00,32.0886,112.1903,65.4,襄阳市,张湾,襄州区,999.0,29.7,41.0,29.351500000000048,17.108737787346186
Q3113,2025-06-03 07:00:00,32.3253,112.1328,142.2,襄阳市,黄集,襄州区,990.7,29.9,34.0,25.536000000000026,14.352134401653931
Q3202,2025-06-03 07:00:00,31.9703,112.75,167.5,襄阳市,枣阳吴店,枣阳市,987.6,28.6,54.0,31.62700000000003,21.143523129395643
Q3203,2025-06-03 07:00:00,32.2017,112.5589,131,襄阳市,七方,枣阳市,991.6,28.8,50.0,27.807999999999996,19.806036860328895
Q3206,2025-06-03 07:00:00,32.3414,112.9942,241.1,襄阳市,枣阳新市,枣阳市,979.1,30.1,38.0,22.91850000000001,16.226218483960153
Q3207,2025-06-03 07:00:00,32.12,112.8781,156,襄阳市,刘升榆树,枣阳市,988.2,29.0,45.0,30.82299999999998,18.03336079239181
Q3212,2025-06-03 07:00:00,32.0417,112.5906,72,襄阳市,琚湾,枣阳市,996.6,28.5,56.0,45.88099999999994,21.79951588620465
Q3217,2025-06-03 07:00:00,32.3253,112.8719,177.3,襄阳市,姚棚水库,枣阳市,986.2,29.3,50.0,32.56400000000007,20.388026258076618
Q3218,2025-06-03 07:00:00,31.8503,112.8028,140,襄阳市,唐店,枣阳市,990.4,29.2,54.0,39.019499999999994,21.89208417225952
Q3222,2025-06-03 07:00:00,31.9303,112.5761,156,襄阳市,耿集,枣阳市,988.6,28.2,62.0,38.53049999999998,23.71728874021121
Q3237,2025-06-03 07:00:00,31.9519,112.9217,115,襄阳市,王城,枣阳市,993.2,29.1,61.0,44.98749999999999,24.58722475239016
Q3240,2025-06-03 07:00:00,32.1411,112.7553,125.5,襄阳市,北城,枣阳市,992.2,30.1,43.0,30.190000000000005,18.361247231849642
Q3305,2025-06-03 07:00:00,32.4536,111.7536,153.1,襄阳市,老河口半店,老河口市,988.7,29.1,52.0,36.065000000000055,20.95960142826702
Q3309,2025-06-03 07:00:00,32.3367,111.7022,90,襄阳市,方营,老河口市,996.8,30.0,56.0,41.65400000000004,23.775222480030877
Q3311,2025-06-03 07:00:00,32.3472,111.6742,80.3,襄阳市,老河口黄营,老河口市,997.1,29.1,56.0,41.654500000000034,22.57187846121064
Q3314,2025-06-03 07:00:00,32.4319,111.8458,148.3,襄阳市,农垦示范园,老河口市,989.9,29.3,41.0,22.5915,16.718181531622825
Q3315,2025-06-03 07:00:00,32.5408,111.6622,163.3,襄阳市,老河口黑虎山水库,老河口市,987.9,28.6,45.0,21.404499999999974,17.6196026078297
Q3317,2025-06-03 07:00:00,32.5203,111.7786,145.2,襄阳市,古城水库,老河口市,990.0,28.9,45.0,23.800499999999992,17.92913372884425
Q3318,2025-06-03 07:00:00,32.4217,111.6878,84.4,襄阳市,老河口西关,老河口市,995.9,28.9,55.0,39.905000000000044,21.913385668587416
Q3321,2025-06-03 07:00:00,32.38,111.67,90,襄阳市,老河口老站,老河口市,996.5,29.2,51.0,39.732,20.675857273800652
Q3326,2025-06-03 07:00:00,32.2931,111.7247,89,襄阳市,白鹤岗,老河口市,996.8,29.7,52.0,41.6925,21.698886949804923
Q3401,2025-06-03 07:00:00,32.2931,111.3314,180,襄阳市,五山,谷城县,986.8,29.4,50.0,32.39499999999998,20.506199295084365
Q3404,2025-06-03 07:00:00,32.1678,111.4981,146.4,襄阳市,谷城南河,谷城县,989.9,30.0,47.0,36.264999999999965,19.954204581454484
Q3405,2025-06-03 07:00:00,31.9917,111.4303,518,襄阳市,赵湾,谷城县,949.5,26.6,50.0,30.144000000000005,17.41417593202978
Q3409,2025-06-03 07:00:00,32.1725,111.4061,701.7,襄阳市,薤山,谷城县,929.5,26.5,55.0,30.055500000000034,19.042909525202294
Q3413,2025-06-03 07:00:00,32.0483,111.8314,158,襄阳市,茨河,谷城县,988.6,28.2,60.0,43.93199999999998,22.952214909881818
Q3420,2025-06-03 07:00:00,32.1342,111.3078,247.7,襄阳市,紫金,谷城县,976.0,28.8,45.0,38.948500000000045,17.825433174296005
Q3501,2025-06-03 07:00:00,31.9906,111.1233,275,襄阳市,寺坪,保康县,975.8,27.9,60.0,39.4805,22.553936912860426
Q3516,2025-06-03 07:00:00,31.5581,111.3953,660,襄阳市,两峪,保康县,933.0,26.2,51.0,31.730000000000018,17.34772237810525
Q3517,2025-06-03 07:00:00,31.6419,111.1967,796,襄阳市,歇马毛家岭,保康县,918.3,25.7,46.0,25.793999999999947,15.190128370596513
Q3520,2025-06-03 07:00:00,31.4017,111.2936,997,襄阳市,保康天宝寨,保康县,898.8,24.4,46.0,27.456999999999994,14.056528706818494
Q3525,2025-06-03 07:00:00,31.4942,111.3539,292,襄阳市,马良产业园,保康县,974.0,27.6,71.0,51.53699999999997,26.224691858444462
Q3545,2025-06-03 07:00:00,31.8447,110.8022,1576,襄阳市,尧治河,保康县,840.6,19.3,55.0,20.346999999999976,12.306156917170755
Q3555,2025-06-03 07:00:00,31.68,111.0128,1064,襄阳市,团结,保康县,889.3,22.7,56.0,27.008000000000006,15.444164025161705
Q3606,2025-06-03 07:00:00,31.6647,111.9922,120,襄阳市,武镇,南漳县,993.5,29.1,60.0,43.52299999999995,24.184155494154254
Q3608,2025-06-03 07:00:00,31.3292,111.8253,183,襄阳市,东巩,南漳县,982.5,27.7,50.0,33.69850000000001,18.576487985996074
Q3617,2025-06-03 07:00:00,31.6231,111.6778,820,襄阳市,薛坪,南漳县,917.6,23.8,55.0,24.315999999999995,16.21161462891365
Q3618,2025-06-03 07:00:00,31.7775,111.5617,254,襄阳市,长坪,南漳县,979.7,27.0,67.0,53.38950000000003,23.891202896012857
Q3623,2025-06-03 07:00:00,31.5489,111.8342,343.2,襄阳市,南漳大坪,南漳县,968.5,26.7,61.0,33.422000000000004,21.370917642606464
Q3632,2025-06-03 07:00:00,31.9058,111.6194,271.6,襄阳市,赵店,南漳县,975.9,29.7,34.0,24.651499999999995,14.187733774872452
Q3641,2025-06-03 07:00:00,31.4556,111.6847,342,襄阳市,漫云,南漳县,967.8,27.8,50.0,24.32300000000004,18.685438707318813
Q3748,2025-06-03 07:00:00,31.6356,112.5942,141,襄阳市,高楼,宜城市,990.9,29.1,47.0,27.819999999999972,18.944255137087502
Q3750,2025-06-03 07:00:00,31.5681,112.2661,55,襄阳市,孔湾,宜城市,1000.8,28.7,58.0,39.136499999999934,22.842019979622737
Q3751,2025-06-03 07:00:00,31.7467,112.4303,89,襄阳市,二库,宜城市,996.2,28.6,53.0,32.28100000000003,20.751976404777203
Q3752,2025-06-03 07:00:00,31.4622,111.9878,177.5,襄阳市,小南河,宜城市,987.1,27.8,57.0,25.66150000000001,21.301400126343445
Q3760,2025-06-03 07:00:00,31.4853,112.0169,159,襄阳市,刘猴,宜城市,989.7,27.6,67.0,37.53450000000002,24.747244429799704
Q3770,2025-06-03 07:00:00,31.7736,112.0389,94,襄阳市,谭湾,宜城市,995.8,28.9,52.0,35.84000000000003,20.718110086664467
Q3782,2025-06-03 07:00:00,31.8692,112.2653,86,襄阳市,联合,宜城市,996.7,29.5,52.0,31.86049999999998,21.449968757650183
Q3792,2025-06-03 07:00:00,31.5683,112.455,62,襄阳市,流水,宜城市,1000.5,28.4,58.0,36.10599999999997,22.447097103101058
Q3802,2025-06-03 07:00:00,32.0808,113.5014,145.6,随州市,殷店,随县,989.5,29.1,62.0,39.54199999999995,24.990294010626062
Q3803,2025-06-03 07:00:00,31.6611,112.9072,154.4,随州市,洪山,随县,989.4,28.0,58.0,39.764500000000005,21.929819209423922
Q3804,2025-06-03 07:00:00,31.5336,113.2278,120,随州市,柳林,随县,992.9,29.1,58.0,40.15649999999999,23.378016977682446
Q3805,2025-06-03 07:00:00,32.0003,113.105,127.7,随州市,唐镇,随县,992.3,28.8,62.0,42.55149999999996,24.559485706807827
Q3807,2025-06-03 07:00:00,31.8839,113.3125,92,随州市,厉山,随县,996.5,28.6,58.0,37.34000000000004,22.709710027869388
Q3809,2025-06-03 07:00:00,32.3436,113.6333,153.8,随州市,淮河,随县,988.7,27.9,62.0,42.184000000000005,23.305734809955773
Q3812,2025-06-03 07:00:00,31.8386,113.5169,115,随州市,万店,曾都区,993.1,28.6,59.0,40.38100000000001,23.101256752487828
Q3815,2025-06-03 07:00:00,31.8106,113.0514,115.3,随州市,澴潭,随县,993.4,29.2,60.0,43.91199999999999,24.32453796917724
Q3820,2025-06-03 07:00:00,32.1531,113.0822,215.4,随州市,吴山,随县,982.1,28.0,52.0,36.80600000000002,19.66121722224214
Q3823,2025-06-03 07:00:00,31.7278,113.2831,64.1,随州市,南郊,曾都区,999.4,27.6,66.0,36.164000000000044,24.377882572638516
Q3829,2025-06-03 07:00:00,31.61,113.4317,85,随州市,大堰坡,曾都区,997.6,28.0,62.0,38.13649999999993,23.44222053421178
Q3830,2025-06-03 07:00:00,31.53,112.9711,228.2,随州市,长岗,随县,981.1,28.4,56.0,39.218999999999994,21.673059271959648
Q3831,2025-06-03 07:00:00,31.7164,113.3869,96.2,随州市,雷达站,曾都区,995.8,28.4,60.0,39.45549999999999,23.221134934242475
Q3832,2025-06-03 07:00:00,31.4911,113.5678,65.8,随州市,府河,曾都区,999.1,28.8,61.0,43.67449999999999,24.16336496960125
Q3836,2025-06-03 07:00:00,32.3561,113.1931,215.4,随州市,新城,随县,982.1,28.7,55.0,41.59749999999998,21.660536187573285
Q3844,2025-06-03 07:00:00,31.5131,113.0106,274.3,随州市,东庄畈,随县,975.9,28.4,54.0,36.54800000000001,20.89902144081823
Q3845,2025-06-03 07:00:00,31.6922,113.3744,78.4,随州市,城南新区,曾都区,997.7,27.4,65.0,41.28029999999998,23.728847743000415
Q3847,2025-06-03 07:00:00,31.4867,112.9781,1042,随州市,金顶,随县,893.4,22.6,52.0,19.232000000000003,14.254164615208797
Q3852,2025-06-03 07:00:00,31.9353,113.3081,122.2,随州市,王家河,随县,992.6,28.7,62.0,41.34299999999999,24.41733170235534
Q3853,2025-06-03 07:00:00,31.4347,113.2972,175.7,随州市,银杏谷,曾都区,986.4,28.6,58.0,34.391499999999986,22.709710027869388
Q3854,2025-06-03 07:00:00,31.4703,112.9844,467.3,随州市,自在谷,随县,954.8,27.6,36.0,21.739000000000022,13.297026857802825
Q3855,2025-06-03 07:00:00,31.4778,112.9647,981.1,随州市,状元台,随县,900.1,22.1,50.0,19.952500000000025,13.29501630137329
Q3856,2025-06-03 07:00:00,31.7839,113.3958,105.4,随州市,北郊,曾都区,994.6,27.8,60.0,32.302,22.422526448782573
Q3857,2025-06-03 07:00:00,31.7206,113.3617,64.5,随州市,西城,曾都区,999.2,27.7,64.0,38.54650000000001,23.777904622074974
Q3901,2025-06-03 07:00:00,31.7872,113.6322,109.6,随州市,余店,广水市,994.0,27.5,65.0,40.37499999999998,23.86832620436488
Q3902,2025-06-03 07:00:00,31.4711,113.5781,47.3,随州市,长岭,广水市,1001.0,28.7,58.0,33.206499999999984,22.842019979622737
Q3909,2025-06-03 07:00:00,31.7264,113.8322,120,随州市,蔡河,广水市,993.2,27.8,65.0,37.79199999999997,24.29107031951446
Q3911,2025-06-03 07:00:00,31.4608,113.9217,46.4,随州市,太平,广水市,999.4,28.6,61.0,43.90650000000007,23.884350201724704
Q3913,2025-06-03 07:00:00,31.7358,114.0353,100,随州市,武胜关,广水市,994.0,28.3,64.0,36.88649999999997,24.62542168724612
Q3918,2025-06-03 07:00:00,31.62,113.82,93.3,随州市,应山,广水市,995.8,28.1,59.0,39.699500000000064,22.43846526149607
Q3924,2025-06-03 07:00:00,32.0019,113.7164,203.6,随州市,尹家湾,广水市,983.1,29.7,54.0,42.94250000000004,22.533459524797422
Q4000,2025-06-03 07:00:00,30.7433,111.2694,67.8,宜昌市,葛洲坝,西陵区,999.0,27.4,59.0,43.292999999999935,21.538492566723452
Q4001,2025-06-03 07:00:00,30.6589,111.3303,56.3,宜昌市,王家河公园,伍家岗区,1000.8,28.5,57.0,43.30699999999993,22.188792955601155
Q4002,2025-06-03 07:00:00,30.7186,111.3436,160,宜昌市,窑湾,西陵区,987.3,27.7,60.0,47.36499999999991,22.291785583195285
Q4003,2025-06-03 07:00:00,30.5061,111.4444,42.6,宜昌市,猇亭,猇亭区,1001.4,27.9,59.0,44.01399999999993,22.178037964312754
Q4005,2025-06-03 07:00:00,30.6931,111.0022,615,宜昌市,土城,点军区,938.6,24.9,72.0,40.32549999999997,22.669738035308594
Q4015,2025-06-03 07:00:00,30.7067,111.2972,116.6,宜昌市,白龙岗公园,西陵区,992.0,28.4,56.0,43.94049999999996,21.673059271959648
Q4019,2025-06-03 07:00:00,30.6183,111.3422,87,宜昌市,艾家小学,点军区,996.9,28.2,53.0,35.3585,20.27445650372894
Q4022,2025-06-03 07:00:00,30.5697,111.3964,78.5,宜昌市,猇亭古战场,猇亭区,998.0,28.5,53.0,35.827500000000015,20.63168467801511
Q4023,2025-06-03 07:00:00,30.6519,111.205,100,宜昌市,长岭,点军区,995.3,28.2,63.0,36.59100000000004,24.09982565537591
Q4025,2025-06-03 07:00:00,30.7389,111.2333,98.8,宜昌市,鸣翠谷,点军区,995.4,27.6,64.0,30.781000000000063,23.639158858316133
Q4026,2025-06-03 07:00:00,30.7417,111.3144,86.3,宜昌市,沙河公园,西陵区,997.0,28.8,56.0,42.53799999999994,22.182761283568365
Q4032,2025-06-03 07:00:00,30.7086,111.2361,78.9,宜昌市,宜昌一中,点军区,997.7,28.6,59.0,32.08599999999999,23.101256752487828
Q4033,2025-06-03 07:00:00,30.6853,111.3367,84.3,宜昌市,水井湾,伍家岗区,997.2,27.0,73.0,48.24399999999994,26.030713603118485
Q4034,2025-06-03 07:00:00,30.6161,111.4,62.5,宜昌市,龙盘湖,伍家岗区,999.7,27.8,64.0,35.90900000000005,23.91736154536808
Q4035,2025-06-03 07:00:00,30.6478,111.3658,88.6,宜昌市,碧桂园公园,伍家岗区,996.7,28.4,57.0,43.12649999999992,22.06007818753035
Q4036,2025-06-03 07:00:00,30.6967,111.3817,113,宜昌市,夷陵中学,夷陵区,994.0,27.1,62.0,33.88399999999997,22.238615712755067
Q4037,2025-06-03 07:00:00,30.7214,111.1625,389.1,宜昌市,李家咀,点军区,963.3,27.6,63.0,54.51549999999995,23.269797001154945
Q4105,2025-06-03 07:00:00,30.8789,110.9697,215,宜昌市,太平溪,夷陵区,982.9,27.3,61.0,49.56849999999998,22.138384868231824
Q4109,2025-06-03 07:00:00,31.2667,111.15,1162,宜昌市,樟村坪林场,夷陵区,882.9,22.0,57.0,29.188999999999993,15.064122520774676
Q4111,2025-06-03 07:00:00,30.6117,111.5211,109.2,宜昌市,鸦鹊岭,夷陵区,994.6,28.1,52.0,29.026500000000002,19.77627446775925
Q4112,2025-06-03 07:00:00,30.9667,110.9878,990,宜昌市,王家垭,夷陵区,899.8,24.2,64.0,34.78449999999996,19.3236487316313
Q4113,2025-06-03 07:00:00,30.9228,110.9672,855,宜昌市,古村坪,夷陵区,913.3,22.4,53.0,28.081000000000028,14.352661398273602
Q4115,2025-06-03 07:00:00,30.96,111.5114,1251.8,宜昌市,百里荒,夷陵区,871.9,19.0,63.0,27.986999999999995,13.834839620078366
Q4120,2025-06-03 07:00:00,31.1456,111.0747,1068.2,宜昌市,秀水,夷陵区,891.0,22.8,44.0,20.15399999999995,12.208576412960689
Q4127,2025-06-03 07:00:00,31.0511,111.4406,402,宜昌市,十字沟,夷陵区,962.1,25.9,69.0,40.84799999999996,23.057164882018743
Q4131,2025-06-03 07:00:00,31.0117,111.3114,945,宜昌市,二户坪,夷陵区,905.3,22.1,58.0,22.6275,15.422218909593015
Q4140,2025-06-03 07:00:00,30.9325,111.3158,169.1,宜昌市,三峡大瀑布,夷陵区,985.4,25.1,82.0,47.56850000000003,26.12833968163932
Q4146,2025-06-03 07:00:00,30.9192,111.0428,403,宜昌市,沙坪,夷陵区,962.1,26.4,69.0,51.87200000000001,23.749556155808893
Q4148,2025-06-03 07:00:00,31.0078,110.9369,705.9,宜昌市,黄金河,夷陵区,929.1,24.7,67.0,41.39550000000006,20.844770619927733
Q4150,2025-06-03 07:00:00,31.4353,111.2158,1098.9,宜昌市,古村,夷陵区,888.0,23.4,51.0,24.653999999999996,14.674282326329333
Q4153,2025-06-03 07:00:00,31.2117,111.2406,1073.1,宜昌市,马卧泥,夷陵区,890.8,22.7,49.0,21.8935,13.51364352201649
Q4154,2025-06-03 07:00:00,30.7428,111.5075,108.8,宜昌市,青龙,夷陵区,994.5,28.0,57.0,32.15499999999998,21.55171887822696
Q4201,2025-06-03 07:00:00,30.3053,110.4817,705.3,宜昌市,傅家堰,五峰土家族自治县,927.7,23.9,67.0,38.10049999999997,19.867934016436827
Q4202,2025-06-03 07:00:00,30.1778,110.8722,1004.1,宜昌市,长乐坪,五峰土家族自治县,898.1,23.0,48.0,25.318499999999982,13.480921934613711
Q4203,2025-06-03 07:00:00,30.0528,110.4344,1139.2,宜昌市,湾潭,五峰土家族自治县,881.9,22.3,46.0,20.057999999999996,12.381421038198205
Q4204,2025-06-03 07:00:00,30.1022,111.2453,591.9,宜昌市,仁和坪,五峰土家族自治县,941.2,25.6,48.0,29.510000000000034,15.756703987708148
Q4205,2025-06-03 07:00:00,30.2381,110.3611,1830.5,宜昌市,牛庄,五峰土家族自治县,815.4,17.0,51.0,15.165500000000016,9.875313898272525
Q4206,2025-06-03 07:00:00,30.2056,110.445,506.8,宜昌市,采花,五峰土家族自治县,950.6,26.2,54.0,35.269500000000065,18.368176635640854
Q4207,2025-06-03 07:00:00,30.1831,111.075,255.1,宜昌市,渔关,五峰土家族自治县,977.7,28.0,48.0,30.75050000000004,18.148815897454284
Q4208,2025-06-03 07:00:00,30.0797,110.9669,853.1,宜昌市,清水湾,五峰土家族自治县,912.7,24.4,46.0,26.70050000000002,14.056528706818494
Q4209,2025-06-03 07:00:00,30.0789,110.6214,952.7,宜昌市,后河,五峰土家族自治县,903.1,22.5,48.0,24.169999999999977,13.077951674104032
Q4210,2025-06-03 07:00:00,30.2494,110.6283,564.8,宜昌市,水浕司,五峰土家族自治县,944.0,25.6,64.0,31.296,21.008938650277532
Q4213,2025-06-03 07:00:00,30.14,110.5681,2213.7,宜昌市,北风垭,五峰土家族自治县,779.3,14.6,65.0,21.160000000000018,10.79425392577638
Q4214,2025-06-03 07:00:00,30.2553,111.02,737.6,宜昌市,涨水坪,五峰土家族自治县,926.0,24.9,55.0,32.837,17.317160999194066
Q4215,2025-06-03 07:00:00,30.2011,110.9022,1031,宜昌市,三教庙,五峰土家族自治县,894.2,23.3,50.0,26.49750000000003,14.299885767760285
Q4218,2025-06-03 07:00:00,30.3589,110.4706,1157.3,宜昌市,大龙坪,五峰土家族自治县,882.2,22.7,41.0,20.51299999999998,11.307334375564816
Q4238,2025-06-03 07:00:00,30.1997,110.4069,1174.1,宜昌市,万里,五峰土家族自治县,880.3,22.4,55.0,19.83649999999996,14.894271262359398
Q4249,2025-06-03 07:00:00,30.2219,110.8947,1259,宜昌市,柴埠溪,五峰土家族自治县,872.4,20.5,54.0,26.105500000000017,13.015880451855226
Q4252,2025-06-03 07:00:00,30.2056,110.665,619.4,宜昌市,万马池,五峰土家族自治县,938.2,25.8,58.0,31.876499999999986,19.266781127228384
Q4309,2025-06-03 07:00:00,30.5808,111.6733,125.7,宜昌市,胡家畈,枝江市,992.1,27.6,55.0,33.45849999999992,20.314902143865428
Q4321,2025-06-03 07:00:00,30.3967,111.5886,68,宜昌市,雅畈,枝江市,999.2,28.4,63.0,37.90050000000002,24.3821916809546
Q4323,2025-06-03 07:00:00,30.43,111.7592,44.5,宜昌市,马家店,枝江市,1002.0,28.7,52.0,38.23349999999992,20.479052395523833
Q4325,2025-06-03 07:00:00,30.4386,111.4522,55.9,宜昌市,万福垴,枝江市,1000.6,28.1,58.0,37.32449999999997,22.058152290962237
Q4326,2025-06-03 07:00:00,30.3369,111.5311,57,宜昌市,田家河,枝江市,1000.5,30.0,48.0,38.98150000000002,20.37876212574075
Q4327,2025-06-03 07:00:00,30.4011,111.6131,87.7,宜昌市,姚家港工业园,枝江市,997.0,27.9,55.0,29.934999999999988,20.67444217012206
Q4401,2025-06-03 07:00:00,30.63,110.5428,506,宜昌市,社坪,长阳土家族自治县,950.0,25.6,58.0,33.31299999999996,19.03935065181401
Q4403,2025-06-03 07:00:00,30.4286,110.4992,380,宜昌市,渔峡口,长阳土家族自治县,965.5,26.0,59.0,27.67049999999998,19.83273271620877
Q4404,2025-06-03 07:00:00,30.6069,111.0583,167,宜昌市,高家堰,长阳土家族自治县,987.8,26.8,77.0,54.424899999999944,27.135796807127857
Q4406,2025-06-03 07:00:00,30.3353,111.0731,631,宜昌市,大堰,长阳土家族自治县,937.0,25.8,43.0,26.981000000000044,14.283992904669319
Q4411,2025-06-03 07:00:00,30.3692,110.9569,473,宜昌市,横山,长阳土家族自治县,954.0,26.3,70.0,42.24550000000005,23.95181003697684
Q4415,2025-06-03 07:00:00,30.4944,110.7997,1546.9,宜昌市,火烧坪,长阳土家族自治县,843.3,17.9,40.0,13.028500000000003,8.198567914421801
Q4425,2025-06-03 07:00:00,30.6219,110.4972,490,宜昌市,榔坪,长阳土家族自治县,954.0,26.1,59.0,28.002499999999987,19.950527473861033
Q4437,2025-06-03 07:00:00,30.6211,110.8139,1055,宜昌市,中岭,长阳土家族自治县,892.8,22.9,52.0,25.35650000000002,14.516091092350628
Q4441,2025-06-03 07:00:00,30.5814,111.0614,680,宜昌市,龙池山,长阳土家族自治县,931.5,25.1,48.0,27.323999999999987,15.29463786242302
Q4443,2025-06-03 07:00:00,30.4703,111.1336,190.3,宜昌市,清江画廊,长阳土家族自治县,985.5,27.7,53.0,32.94999999999999,19.691077265155837
Q4446,2025-06-03 07:00:00,30.3936,111.1128,220,宜昌市,三洞水,长阳土家族自治县,983.5,28.2,57.0,39.64100000000001,21.804604164387726
Q4447,2025-06-03 07:00:00,30.4117,110.97,290,宜昌市,都镇湾,长阳土家族自治县,975.7,26.7,58.0,29.222499999999982,20.31988890608483
Q4453,2025-06-03 07:00:00,30.3731,110.7244,283.3,宜昌市,崩尖子,长阳土家族自治县,975.1,26.0,68.0,41.17649999999997,22.858064825460957
Q4510,2025-06-03 07:00:00,30.1967,111.4717,199.8,宜昌市,九道河,宜都市,984.5,28.8,44.0,25.908,17.42931243708943
Q4519,2025-06-03 07:00:00,30.3839,111.4547,74.1,宜昌市,陆城,宜都市,998.7,29.3,45.0,32.87449999999999,18.349223632268956
Q4604,2025-06-03 07:00:00,30.5725,111.9686,74,宜昌市,草埠湖,当阳市,1000.6,28.7,53.0,36.854999999999976,20.872880326206985
Q4606,2025-06-03 07:00:00,30.7075,111.675,158.6,宜昌市,王店,当阳市,988.7,27.2,57.0,39.2445,20.565623327231737
Q4610,2025-06-03 07:00:00,31.0844,111.9219,102.3,宜昌市,红旗岗,当阳市,993.1,26.6,69.0,43.93399999999999,24.031562786201096
Q4611,2025-06-03 07:00:00,30.9275,111.9269,58,宜昌市,淯溪光明,当阳市,1000.7,27.6,60.0,34.32850000000006,22.161711429671374
Q4612,2025-06-03 07:00:00,30.9167,111.685,96,宜昌市,向家草坝,当阳市,996.2,28.7,62.0,49.16999999999999,24.41733170235534
Q4614,2025-06-03 07:00:00,30.8369,111.7611,70,宜昌市,长坂雄风,当阳市,999.1,28.8,56.0,36.017499999999956,22.182761283568365
Q4701,2025-06-03 07:00:00,31.1906,111.4081,553.8,宜昌市,嫘祖,远安县,945.4,26.3,49.0,26.08899999999997,16.766267025883792
Q4708,2025-06-03 07:00:00,31.1481,111.6794,179.8,宜昌市,茅坪场,远安县,985.9,26.3,72.0,44.903499999999994,24.636147466604754
Q4709,2025-06-03 07:00:00,31.2208,111.5594,152.4,宜昌市,洋坪,远安县,990.1,27.2,66.0,46.23250000000003,23.812827010478856
Q4710,2025-06-03 07:00:00,31.1881,111.7553,391.9,宜昌市,晓坪水库,远安县,963.1,24.6,71.0,41.46500000000004,21.95745078565941
Q4718,2025-06-03 07:00:00,31.2361,111.5361,186,宜昌市,芭芒店,远安县,984.0,26.7,61.0,34.92950000000003,21.370917642606464
Q4729,2025-06-03 07:00:00,30.9167,111.5608,723.5,宜昌市,龙凤,远安县,924.5,23.0,56.0,27.507999999999978,15.727742257049332
Q4801,2025-06-03 07:00:00,31.2092,110.53,992.5,宜昌市,高桥,兴山县,898.7,20.4,77.0,32.962999999999944,18.445413983985386
Q4802,2025-06-03 07:00:00,31.2261,110.7697,286,宜昌市,昭君,兴山县,975.4,25.5,59.0,36.65900000000002,19.25283811675574
Q4804,2025-06-03 07:00:00,31.1192,110.7786,266,宜昌市,峡口,兴山县,978.6,25.0,68.0,35.97950000000004,21.538520166073543
Q4806,2025-06-03 07:00:00,31.5008,111.0083,1281,宜昌市,榛子,兴山县,869.2,22.0,40.0,19.43049999999999,10.57131404966644
Q4808,2025-06-03 07:00:00,31.1778,111.0017,644.1,宜昌市,南对河,兴山县,936.2,23.3,71.0,39.68750000000002,20.305837790219606
Q4818,2025-06-03 07:00:00,31.5183,110.8078,498.7,宜昌市,观音河,兴山县,954.2,25.0,57.0,29.297500000000028,18.054347786267524
Q4837,2025-06-03 07:00:00,31.4728,110.9975,1301.6,宜昌市,和平,兴山县,868.2,22.7,37.0,20.77599999999997,10.204179802338981
Q4901,2025-06-03 07:00:00,31.0306,110.6972,190.3,宜昌市,彭家坡,秭归县,985.0,25.5,71.0,57.30049999999999,23.16866959812979
Q4902,2025-06-03 07:00:00,30.9564,110.7569,351,宜昌市,郭家坝,秭归县,968.6,25.0,72.0,43.95399999999995,22.805491940548453
Q4903,2025-06-03 07:00:00,30.8722,110.5756,620.5,宜昌市,两河口,秭归县,938.5,24.0,70.0,29.247000000000003,20.88278013372702
Q4905,2025-06-03 07:00:00,30.7458,110.7553,421.8,宜昌市,杨林桥,秭归县,960.7,25.2,63.0,29.594499999999996,20.194243778066046
Q4909,2025-06-03 07:00:00,30.9614,110.6022,420,宜昌市,沙镇溪,秭归县,960.6,24.2,69.0,41.03400000000006,20.833308788789992
Q4911,2025-06-03 07:00:00,30.8442,110.7836,499,宜昌市,九畹溪,秭归县,952.3,25.1,67.0,44.21600000000008,21.34876534963213
Q4918,2025-06-03 07:00:00,30.8361,110.9464,547.7,宜昌市,金缸城,秭归县,946.1,24.0,72.0,38.703999999999965,21.479430994690652
Q4920,2025-06-03 07:00:00,30.9039,110.7792,918,宜昌市,烟墩堡,秭归县,906.8,20.7,80.0,32.59949999999996,19.522161723195918
Q4921,2025-06-03 07:00:00,30.7814,110.7939,271.1,宜昌市,芝兰,秭归县,976.9,26.8,61.0,39.20650000000004,21.497189678374017
Q4932,2025-06-03 07:00:00,30.9803,110.8039,1385,宜昌市,九岭头,秭归县,859.5,19.2,84.0,34.04299999999995,18.678086434417818
Q4941,2025-06-03 07:00:00,30.9881,110.4783,753,宜昌市,高潮,秭归县,926.0,21.3,80.0,36.012000000000036,20.256001803378226
Q4945,2025-06-03 07:00:00,30.7944,110.4961,1330,宜昌市,七甲,秭归县,865.1,21.4,67.0,31.723,17.06877897787212
Q4950,2025-06-03 07:00:00,30.8117,110.3497,985,宜昌市,雁落坪,秭归县,899.6,23.3,70.0,43.426000000000016,20.019840074864398
Q4957,2025-06-03 07:00:00,30.6814,110.7139,1085,宜昌市,三台寺,秭归县,890.7,22.9,56.0,27.95099999999999,15.632713484069908
Q4962,2025-06-03 07:00:00,30.9811,110.7606,209.2,宜昌市,吴家沟,秭归县,981.8,24.4,71.0,54.483633333333344,21.695946482263327
Q5102,2025-06-03 07:00:00,30.4808,109.5828,638.9,恩施土家族苗族自治州,白杨坪,恩施市,936.4,25.1,70.0,47.95500000000002,22.304680216033567
Q5106,2025-06-03 07:00:00,30.2978,109.6278,1054.7,恩施土家族苗族自治州,三岔,恩施市,892.9,22.0,78.0,42.390499999999996,20.614062396849558
Q5109,2025-06-03 07:00:00,30.1222,109.3956,599.8,恩施土家族苗族自治州,芭蕉,恩施市,940.7,24.4,63.0,31.79799999999998,19.25133279412098
Q5116,2025-06-03 07:00:00,30.0906,109.1692,881,恩施土家族苗族自治州,金龙坝,恩施市,911.6,23.9,67.0,36.381500000000024,19.867934016436827
Q5122,2025-06-03 07:00:00,30.3303,109.4231,1113,恩施土家族苗族自治州,望城坡,恩施市,886.9,21.0,72.0,36.45200000000004,17.89750178479379
Q5133,2025-06-03 07:00:00,30.3539,109.6558,1312.4,恩施土家族苗族自治州,小卫家山,恩施市,867.3,21.2,62.0,31.33099999999998,15.602331629614767
Q5135,2025-06-03 07:00:00,30.3583,109.8217,1567,恩施土家族苗族自治州,神堂,恩施市,841.8,19.1,67.0,25.78349999999999,14.805366810381134
Q5150,2025-06-03 07:00:00,30.4167,109.1628,1615,恩施土家族苗族自治州,大峡谷顶,恩施市,834.9,18.1,53.0,23.576999999999995,11.00066862077141
Q5153,2025-06-03 07:00:00,30.3733,109.3019,946,恩施土家族苗族自治州,马者滑坡点,恩施市,905.2,23.1,63.0,34.965500000000034,17.801186348968628
Q5206,2025-06-03 07:00:00,30.3353,109.1053,1025.3,恩施土家族苗族自治州,宜影古镇,利川市,896.7,23.3,55.0,28.139499999999984,15.729874344536315
Q5207,2025-06-03 07:00:00,30.2233,109.0339,1088.3,恩施土家族苗族自治州,元堡,利川市,887.5,22.5,49.0,21.00099999999998,13.350409000647867
Q5208,2025-06-03 07:00:00,30.0775,108.8592,1469.7,恩施土家族苗族自治州,黄泥塘,利川市,856.0,19.6,48.0,20.15150000000001,10.942300672847063
Q5209,2025-06-03 07:00:00,29.9294,108.7097,474,恩施土家族苗族自治州,龙桥,利川市,954.1,24.0,74.0,38.18499999999995,22.07608185565428
Q5210,2025-06-03 07:00:00,30.2089,108.7014,1479.9,恩施土家族苗族自治州,福宝山,利川市,849.1,19.1,58.0,20.02249999999999,12.81658619406128
Q5211,2025-06-03 07:00:00,30.4353,108.5392,676,恩施土家族苗族自治州,建南,利川市,932.9,23.3,74.0,41.88650000000003,21.163830936285223
Q5214,2025-06-03 07:00:00,30.43,108.7925,1129,恩施土家族苗族自治州,南坪,利川市,885.3,21.3,69.0,33.19950000000003,17.47080155541372
Q5222,2025-06-03 07:00:00,30.2664,108.805,1092.5,恩施土家族苗族自治州,凉雾,利川市,887.5,23.1,56.0,26.237499999999976,15.82327675463878
Q5226,2025-06-03 07:00:00,30.3353,109.1494,986.8,恩施土家族苗族自治州,利川团堡,利川市,899.1,22.7,56.0,32.00350000000005,15.444164025161705
Q5241,2025-06-03 07:00:00,30.0786,108.6025,1074,恩施土家族苗族自治州,小河,利川市,891.6,22.9,54.0,28.27850000000004,15.074402288210269
Q5249,2025-06-03 07:00:00,30.4533,108.6578,1558.5,恩施土家族苗族自治州,铁峰,利川市,841.7,18.2,89.0,34.90449999999996,18.58928516502702
Q5250,2025-06-03 07:00:00,30.4922,108.7469,1406,恩施土家族苗族自治州,药材,利川市,855.3,18.7,89.0,35.298,19.181334158431262
Q5301,2025-06-03 07:00:00,29.9539,109.0781,788.1,恩施土家族苗族自治州,黄金洞,咸丰县,919.6,24.0,72.0,36.31850000000006,21.479430994690652
Q5307,2025-06-03 07:00:00,29.6125,108.9175,468,恩施土家族苗族自治州,朝阳寺,咸丰县,955.0,26.0,67.0,40.867999999999995,22.521916813321823
Q5309,2025-06-03 07:00:00,29.3997,108.9803,1268.8,恩施土家族苗族自治州,坪坝营,咸丰县,871.1,20.0,60.0,21.35100000000001,14.021682740438658
Q5310,2025-06-03 07:00:00,29.7658,108.8233,723.6,恩施土家族苗族自治州,茅坝,咸丰县,927.6,24.1,66.0,35.11850000000004,19.808182504671816
Q5326,2025-06-03 07:00:00,29.8839,108.9089,832,恩施土家族苗族自治州,李子溪,咸丰县,916.6,22.9,67.0,36.21400000000003,18.703425061297924
Q5327,2025-06-03 07:00:00,29.9194,108.9083,847,恩施土家族苗族自治州,中心场,咸丰县,914.8,22.1,79.0,46.711000000000034,21.006125756169798
Q5330,2025-06-03 07:00:00,29.8736,108.8114,869,恩施土家族苗族自治州,八家台,咸丰县,910.1,23.3,62.0,31.11400000000005,17.73185835202275
Q5338,2025-06-03 07:00:00,29.8175,109.0397,872.4,恩施土家族苗族自治州,柏杨坪,咸丰县,909.3,23.0,65.0,30.61650000000004,18.255415119789404
Q5409,2025-06-03 07:00:00,29.4669,109.4019,458,恩施土家族苗族自治州,翔凤,来凤县,956.0,26.5,64.0,35.03400000000003,22.159021992962668
Q5421,2025-06-03 07:00:00,29.3261,109.2883,602,恩施土家族苗族自治州,兴隆坳,来凤县,938.4,24.7,77.0,49.570499999999996,23.9559304139468
Q5422,2025-06-03 07:00:00,29.4094,109.3228,512,恩施土家族苗族自治州,沙坝水库,来凤县,949.6,26.1,64.0,38.98499999999993,21.64125014113739
Q5508,2025-06-03 07:00:00,29.6986,109.5653,589,恩施土家族苗族自治州,沙道,宣恩县,941.3,25.2,74.0,46.02199999999994,23.720222850426783
Q5509,2025-06-03 07:00:00,30.0575,109.8269,1681,恩施土家族苗族自治州,椿木营,宣恩县,829.9,18.6,48.0,18.773000000000007,10.280422741903132
Q5515,2025-06-03 07:00:00,30.1294,109.6347,664.8,恩施土家族苗族自治州,中间河,宣恩县,933.4,23.8,68.0,40.81850000000004,20.04345081392961
Q5516,2025-06-03 07:00:00,30.0081,109.5883,490.9,恩施土家族苗族自治州,长潭北,宣恩县,952.0,25.3,66.0,37.23849999999998,21.282279298230428
Q5517,2025-06-03 07:00:00,29.96,109.3461,1134.7,恩施土家族苗族自治州,荆竹坪,宣恩县,884.4,20.6,63.0,32.08999999999997,15.27919308182148
Q5530,2025-06-03 07:00:00,29.9867,109.3608,743.4,恩施土家族苗族自治州,洗草坝,宣恩县,925.3,23.2,74.0,40.49799999999995,21.036243306314823
Q5532,2025-06-03 07:00:00,29.8356,109.6717,655.8,恩施土家族苗族自治州,金盆村,宣恩县,934.2,24.4,66.0,36.397500000000015,20.168062927174358
Q5539,2025-06-03 07:00:00,29.9019,109.26,1180.2,恩施土家族苗族自治州,竹园,宣恩县,880.3,20.5,64.0,31.441499999999976,15.426228683680268
Q5543,2025-06-03 07:00:00,29.6717,109.6153,582.9,恩施土家族苗族自治州,彭家寨,宣恩县,941.4,24.7,68.0,35.28249999999997,21.155886599329644
Q5601,2025-06-03 07:00:00,29.7383,110.3472,467,恩施土家族苗族自治州,江坪河,鹤峰县,953.8,24.5,77.0,42.51099999999997,23.67083655556401
Q5603,2025-06-03 07:00:00,30.0658,110.2706,1382,恩施土家族苗族自治州,蛤蟆颈,鹤峰县,857.7,20.1,56.0,25.24499999999999,13.168222927811694
Q5605,2025-06-03 07:00:00,30.0139,110.2697,1300,恩施土家族苗族自治州,清湖,鹤峰县,865.5,21.2,47.0,21.01449999999998,11.827573977288614
Q5610,2025-06-03 07:00:00,29.8969,110.3406,1142,恩施土家族苗族自治州,五里,鹤峰县,884.2,21.8,60.0,28.19549999999999,15.664425390825528
Q5620,2025-06-03 07:00:00,29.8628,109.8564,1175,恩施土家族苗族自治州,堰塘,鹤峰县,880.0,21.0,69.0,35.176500000000004,17.151772543760714
Q5621,2025-06-03 07:00:00,30.0564,110.0675,1011.3,恩施土家族苗族自治州,云蒙,鹤峰县,896.5,19.8,91.0,34.09849999999997,21.004078535271674
Q5626,2025-06-03 07:00:00,30.1083,110.1294,1215.7,恩施土家族苗族自治州,龚家垭,鹤峰县,876.0,20.4,77.0,34.16999999999999,18.445413983985386
Q5628,2025-06-03 07:00:00,29.7681,110.5636,509,恩施土家族苗族自治州,马家,鹤峰县,948.1,25.1,61.0,34.34100000000006,19.436935616829253
Q5629,2025-06-03 07:00:00,29.8014,110.6133,673.7,恩施土家族苗族自治州,细杉,鹤峰县,931.9,24.1,55.0,29.858499999999996,16.506818753893178
Q5630,2025-06-03 07:00:00,29.7203,110.2667,912.3,恩施土家族苗族自治州,堰垭,鹤峰县,906.9,23.8,74.0,40.417000000000044,21.811990591629275
Q5632,2025-06-03 07:00:00,29.9206,110.4636,1194,恩施土家族苗族自治州,上六峰,鹤峰县,878.1,20.3,68.0,26.700000000000017,16.18909052112378
Q5633,2025-06-03 07:00:00,29.9917,110.4858,1137,恩施土家族苗族自治州,中坪,鹤峰县,881.7,19.9,67.0,24.259499999999974,15.56078093668518
Q5634,2025-06-03 07:00:00,29.9133,110.2561,606.5,恩施土家族苗族自治州,水泉,鹤峰县,939.1,24.4,68.0,34.44299999999998,20.77921634920995
Q5706,2025-06-03 07:00:00,31.1572,110.4386,741,恩施土家族苗族自治州,溪丘湾,巴东县,925.0,22.1,76.0,36.682000000000016,20.2084247780874
Q5707,2025-06-03 07:00:00,30.6875,110.1708,1411,恩施土家族苗族自治州,大支坪,巴东县,856.6,20.6,60.0,22.397500000000022,14.5516124588776
Q5708,2025-06-03 07:00:00,30.8936,110.3064,1166,恩施土家族苗族自治州,朱砂土,巴东县,879.6,21.1,60.0,24.31550000000002,15.006559192363992
Q5709,2025-06-03 07:00:00,30.6925,110.2486,1570.6,恩施土家族苗族自治州,玉米塘,巴东县,839.1,19.1,55.0,26.05300000000003,12.153659321954663
Q5710,2025-06-03 07:00:00,31.2233,110.2003,942.7,恩施土家族苗族自治州,茅山岭,巴东县,902.5,20.5,93.0,41.271666666666675,22.41623855597289
Q5712,2025-06-03 07:00:00,30.9331,110.2219,1150.3,恩施土家族苗族自治州,税家,巴东县,883.1,21.2,56.0,22.635500000000008,14.092428568684307
Q5720,2025-06-03 07:00:00,31.1225,110.4797,735,恩施土家族苗族自治州,高家坡,巴东县,926.2,22.1,80.0,37.86900000000003,21.272026082197268
Q5730,2025-06-03 07:00:00,30.7125,110.4111,1234,恩施土家族苗族自治州,麻沙坪,巴东县,873.0,22.1,54.0,23.87150000000002,14.358617605483154
Q5732,2025-06-03 07:00:00,30.6672,110.2142,1261.9,恩施土家族苗族自治州,庙坪,巴东县,870.5,21.2,56.0,22.635500000000008,14.092428568684307
Q5736,2025-06-03 07:00:00,30.4069,110.1308,950,恩施土家族苗族自治州,倒卜龙,巴东县,902.3,23.2,62.0,31.49800000000001,17.6249606079935
Q5751,2025-06-03 07:00:00,30.8117,110.2419,1663,恩施土家族苗族自治州,绿葱坡滑雪场,巴东县,830.9,18.2,54.0,22.067999999999987,11.278892122600665
Q5802,2025-06-03 07:00:00,30.8097,109.8839,1364.3,恩施土家族苗族自治州,茅田,建始县,860.8,19.9,66.0,25.321000000000037,15.32853047494361
Q5804,2025-06-03 07:00:00,30.5989,110.0597,1239.1,恩施土家族苗族自治州,高坪,建始县,870.9,20.9,54.0,26.52699999999998,13.340794699395179
Q5819,2025-06-03 07:00:00,30.8222,109.9811,1731.3,恩施土家族苗族自治州,封竹,建始县,824.8,17.2,52.0,15.090999999999992,10.19734461268214
Q5823,2025-06-03 07:00:00,30.6128,110.0208,777.3,恩施土家族苗族自治州,石垭子,建始县,920.7,23.8,63.0,32.732999999999976,18.56966766584655
Q5824,2025-06-03 07:00:00,30.5825,109.9603,917,恩施土家族苗族自治州,落水洞,建始县,905.1,23.5,69.0,42.75,19.973673662531674
Q5827,2025-06-03 07:00:00,30.5347,109.9972,1227.8,恩施土家族苗族自治州,冷竹,建始县,873.7,21.8,56.0,23.946500000000018,14.620130364770496
Q5829,2025-06-03 07:00:00,30.3572,110.0744,754.5,恩施土家族苗族自治州,粟谷坝,建始县,921.9,25.0,69.0,46.81900000000002,21.855263109692263
Q5831,2025-06-03 07:00:00,30.2125,109.9622,1551,恩施土家族苗族自治州,竹园坝,建始县,842.5,19.8,56.0,22.761999999999993,12.925586790936414
Q5836,2025-06-03 07:00:00,30.6983,110.0806,896.7,恩施土家族苗族自治州,野三河景区,建始县,909.6,21.7,72.0,33.594500000000004,18.68270820565592
Q6080,2025-06-03 07:00:00,30.975,112.2028,108.5,荆门市,掇刀,掇刀区,994.1,28.7,52.0,38.89649999999993,20.479052395523833
Q6082,2025-06-03 07:00:00,30.9114,112.2447,85,荆门市,麻城,掇刀区,997.3,28.7,54.0,31.352000000000007,21.266708256890137
Q6083,2025-06-03 07:00:00,30.7958,112.2522,82,荆门市,樊桥,掇刀区,998.0,28.0,59.0,32.97799999999997,22.30791954062089
Q6084,2025-06-03 07:00:00,30.9525,112.1789,106,荆门市,凤凰,掇刀区,994.9,28.6,52.0,41.668499999999895,20.360429680158767
Q6085,2025-06-03 07:00:00,30.8675,112.0964,97.5,荆门市,龙泉,掇刀区,996.0,28.0,63.0,27.74200000000003,23.820320865408746
Q6086,2025-06-03 07:00:00,31.0422,112.1217,190,荆门市,仙女,掇刀区,985.5,26.7,67.0,45.160000000000025,23.47297511564972
Q6111,2025-06-03 07:00:00,30.5242,112.3883,31.2,荆门市,后港,沙洋县,1003.5,28.0,64.0,44.47949999999999,24.19842119660571
Q6113,2025-06-03 07:00:00,30.7592,112.46,65,荆门市,高阳,沙洋县,999.7,28.0,63.0,27.890499999999985,23.820320865408746
Q6114,2025-06-03 07:00:00,30.7297,112.2397,67,荆门市,五里,沙洋县,999.5,27.6,61.0,32.36749999999995,22.531073286832566
Q6115,2025-06-03 07:00:00,30.6244,112.1758,56.2,荆门市,十里,沙洋县,1000.6,27.9,64.0,42.34999999999997,24.05753270705112
Q6117,2025-06-03 07:00:00,30.5508,112.275,36.5,荆门市,拾回桥,沙洋县,1003.0,28.2,62.0,44.37750000000001,23.71728874021121
Q6118,2025-06-03 07:00:00,30.7172,112.3717,71,荆门市,曾集,沙洋县,999.0,27.4,60.0,31.54949999999997,21.90355176276961
Q6122,2025-06-03 07:00:00,30.8122,112.2886,104,荆门市,雷集,掇刀区,995.2,27.8,61.0,40.89699999999998,22.796235222928953
Q6125,2025-06-03 07:00:00,30.8186,112.4253,60.1,荆门市,双堰,沙洋县,1000.4,28.1,61.0,41.36650000000005,23.199091202563736
Q6128,2025-06-03 07:00:00,30.4275,112.3442,40,荆门市,港口,沙洋县,1002.7,28.6,56.0,38.378000000000036,21.92661657863252
Q6129,2025-06-03 07:00:00,30.8017,112.6122,40,荆门市,姚集,沙洋县,1002.5,27.6,65.0,37.59749999999999,24.008520715477324
Q6160,2025-06-03 07:00:00,31.2861,112.1533,98,荆门市,石桥驿,东宝区,995.9,28.2,59.0,35.06050000000001,22.56967799471712
Q6162,2025-06-03 07:00:00,31.3903,112.0286,129,荆门市,仙居,东宝区,992.3,28.6,53.0,35.802,20.751976404777203
Q6163,2025-06-03 07:00:00,31.1444,111.935,134,荆门市,马河,东宝区,991.7,27.0,67.0,49.542500000000075,23.891202896012857
Q6164,2025-06-03 07:00:00,31.2678,111.9847,231.2,荆门市,栗溪,东宝区,980.8,27.5,59.0,34.266499999999965,21.665096093192737
Q6167,2025-06-03 07:00:00,31.0697,111.925,129,荆门市,观音寺,东宝区,992.1,26.8,70.0,43.537,24.66890618829805
Q6168,2025-06-03 07:00:00,31.0633,112.2033,110,荆门市,东宝,东宝区,994.4,28.4,55.0,39.233999999999945,21.286040356388938
Q6169,2025-06-03 07:00:00,31.2031,112.1422,112.5,荆门市,岩垱,东宝区,994.3,27.5,57.0,39.05049999999995,20.930686056135354
Q6170,2025-06-03 07:00:00,31.3072,112.1028,121,荆门市,象河,东宝区,993.2,27.3,64.0,42.98349999999999,23.227157894538305
Q6171,2025-06-03 07:00:00,31.0814,112.1022,246.3,荆门市,安河,东宝区,979.3,27.4,60.0,38.671999999999976,21.90355176276961
Q6172,2025-06-03 07:00:00,31.12,112.1464,355.3,荆门市,圣境山,东宝区,967.1,24.3,74.0,39.767000000000046,22.477468560437142
Q6173,2025-06-03 07:00:00,31.1497,112.2619,70.8,荆门市,东宝八角,东宝区,998.3,28.3,57.0,32.693,21.932016190203576
Q6174,2025-06-03 07:00:00,31.1786,112.0386,179.5,荆门市,文丰,东宝区,986.4,27.0,61.0,37.50600000000005,21.751692188907228
Q6175,2025-06-03 07:00:00,31.135,111.9811,156.5,荆门市,琵琶洲,东宝区,988.9,26.7,68.0,43.59699999999994,23.8233180278236
Q6176,2025-06-03 07:00:00,31.2347,111.9575,270.2,荆门市,铁坪,东宝区,976.4,26.5,50.0,21.545500000000015,17.311735932002087
Q6210,2025-06-03 07:00:00,31.4994,112.5936,124.4,荆门市,长寿,钟祥市,992.7,28.4,64.0,43.091499999999975,24.76921059652531
Q6213,2025-06-03 07:00:00,31.4353,112.8739,207.8,荆门市,客店,钟祥市,983.1,29.3,43.0,29.982999999999997,17.533702581945892
Q6217,2025-06-03 07:00:00,31.5064,112.72,136.9,荆门市,张集,钟祥市,991.1,29.1,50.0,36.59899999999998,20.153462911795213
Q6218,2025-06-03 07:00:00,31.2917,112.6356,56,荆门市,洋梓,钟祥市,1001.4,28.3,59.0,43.662500000000016,22.701560617930017
Q6219,2025-06-03 07:00:00,30.9944,112.5881,40,荆门市,柴湖,钟祥市,1002.3,29.1,61.0,40.716,24.58722475239016
Q6220,2025-06-03 07:00:00,31.2944,112.4272,47.9,荆门市,磷矿,钟祥市,1001.4,27.3,68.0,45.29899999999996,24.678855262946954
Q6223,2025-06-03 07:00:00,31.1669,112.6503,53,荆门市,九里,钟祥市,1001.5,29.1,57.0,41.85449999999996,22.97494771944654
Q6224,2025-06-03 07:00:00,31.1594,112.5319,54.6,荆门市,文集,钟祥市,1001.5,27.6,71.0,42.684999999999974,26.224691858444462
Q6235,2025-06-03 07:00:00,31.4969,112.5197,56,荆门市,洪山寺,钟祥市,999.7,28.7,61.0,43.54099999999994,24.02350377167219
Q6236,2025-06-03 07:00:00,31.2022,112.4103,93,荆门市,北山,钟祥市,996.5,27.9,60.0,41.9305,22.553936912860426
Q6237,2025-06-03 07:00:00,31.0467,112.4686,43,荆门市,陈坡,钟祥市,1001.2,28.6,60.0,41.37699999999993,23.492803477106268
Q6260,2025-06-03 07:00:00,31.3961,112.4883,59,荆门市,钟祥杨集,钟祥市,1001.1,29.2,56.0,45.28199999999999,22.70290210456543
Q6263,2025-06-03 07:00:00,31.2106,112.6344,65,荆门市,明显陵,钟祥市,999.8,26.8,75.0,53.55550000000004,26.430970916033626
Q6264,2025-06-03 07:00:00,31.1667,112.5667,65.8,荆门市,郢中,钟祥市,999.7,27.6,61.0,50.1274999999999,22.531073286832566
Q6317,2025-06-03 07:00:00,31.1814,113.3008,77.2,荆门市,宋河,京山市,997.8,27.8,65.0,46.598500000000016,24.29107031951446
Q6319,2025-06-03 07:00:00,30.9697,113.2225,63,荆门市,永兴,京山市,999.0,28.4,65.0,50.575000000000045,25.15622951209602
Q6320,2025-06-03 07:00:00,30.8547,113.0992,49.6,荆门市,钱场,京山市,1001.3,28.7,58.0,39.22500000000001,22.842019979622737
Q6321,2025-06-03 07:00:00,30.8972,112.8411,34,荆门市,石龙,京山市,1002.4,28.4,62.0,40.41950000000001,23.99517276538389
Q6322,2025-06-03 07:00:00,30.7744,112.8278,33.9,荆门市,永漋,京山市,1003.1,27.9,60.0,35.71249999999999,22.553936912860426
Q6323,2025-06-03 07:00:00,31.2839,113.3547,73,荆门市,坪坝,京山市,997.7,29.4,61.0,41.40349999999999,25.017563140002924
Q6324,2025-06-03 07:00:00,30.8344,112.945,77,荆门市,屈家岭,市辖区,998.3,27.7,62.0,44.917500000000025,23.03484510263513
Q6333,2025-06-03 07:00:00,31.3436,113.1756,203.2,荆门市,三阳,京山市,983.7,27.9,57.0,37.714999999999975,21.426240067217403
Q6335,2025-06-03 07:00:00,31.2819,112.9369,174.2,荆门市,三台,京山市,986.3,28.8,56.0,44.62250000000002,22.182761283568365
Q6336,2025-06-03 07:00:00,31.2428,112.9794,208.9,荆门市,将军岭,京山市,983.0,28.9,54.0,45.10900000000001,21.5149604746131
Q6339,2025-06-03 07:00:00,30.9928,113.045,105,荆门市,空山洞,京山市,994.8,28.5,62.0,33.66599999999994,24.135178302583714
Q6343,2025-06-03 07:00:00,31.1531,113.2286,226.5,荆门市,四股泉,京山市,981.0,27.6,64.0,43.26350000000002,23.639158858316133
Q6344,2025-06-03 07:00:00,31.0558,113.4464,45,荆门市,马岭,京山市,1000.8,27.8,67.0,32.02299999999997,25.03848786780721
Q6349,2025-06-03 07:00:00,30.9269,113.0072,111,荆门市,中南山,京山市,994.5,27.6,66.0,43.29899999999996,24.377882572638516
Q6353,2025-06-03 07:00:00,31.1539,112.8736,115.4,荆门市,黄台,京山市,993.6,28.4,64.0,38.424000000000014,24.76921059652531
Q6358,2025-06-03 07:00:00,31.3367,113.0661,174,荆门市,绿林寨,京山市,987.8,29.6,42.0,27.386500000000026,17.425246271911607
Q6370,2025-06-03 07:00:00,30.9961,112.6831,38,荆门市,罗汉寺,市辖区,1002.5,29.7,59.0,39.82550000000002,24.619890962278664
Q6371,2025-06-03 07:00:00,30.9972,112.7556,57,荆门市,长滩办事处,市辖区,1000.7,28.6,65.0,53.59650000000004,25.45053710019846
Q6372,2025-06-03 07:00:00,30.9675,112.7822,89,荆门市,月宝山,市辖区,996.7,28.3,61.0,45.0305,23.471105045656458
Q6373,2025-06-03 07:00:00,30.9711,112.8208,105,荆门市,牙谷山,市辖区,995.0,27.6,66.0,40.08849999999997,24.377882572638516
Q6374,2025-06-03 07:00:00,30.8964,112.7422,38.5,荆门市,刘台,市辖区,1002.9,28.5,67.0,47.35899999999998,26.08156364956627
Q6375,2025-06-03 07:00:00,30.8661,112.8697,73.3,荆门市,种业基地,市辖区,999.0,27.8,64.0,41.19200000000003,23.91736154536808
Q6376,2025-06-03 07:00:00,30.7656,112.8836,33.1,荆门市,蔡垱,市辖区,1003.2,28.2,60.0,45.51450000000003,22.952214909881818
Q6401,2025-06-03 07:00:00,29.9694,111.5644,100.3,荆州市,洈水,松滋市,996.5,29.1,51.0,33.356499999999926,20.556532170031115
Q6402,2025-06-03 07:00:00,30.1794,111.9433,38.4,荆州市,沙道观,松滋市,1002.4,28.6,57.0,42.40000000000002,22.31816330325095
Q6403,2025-06-03 07:00:00,30.0286,111.8453,52.1,荆州市,纸厂河,松滋市,1001.8,28.7,56.0,37.819166666666675,22.05436411825644
Q6404,2025-06-03 07:00:00,30.1169,111.85,48.2,荆州市,南海,松滋市,1002.6,28.2,52.0,38.231,19.891919588564242
Q6406,2025-06-03 07:00:00,30.03,111.37,136,荆州市,卸甲坪,松滋市,992.5,29.0,54.0,37.31150000000006,21.640032950870175
Q6407,2025-06-03 07:00:00,30.0261,111.6894,43,荆州市,北干渠,松滋市,1000.5,29.0,52.0,37.274500000000096,20.838550248986095
Q6408,2025-06-03 07:00:00,30.0728,111.6294,164,荆州市,北河,松滋市,988.3,27.7,52.0,22.06100000000004,19.319547505435917
Q6409,2025-06-03 07:00:00,30.2792,111.6517,122,荆州市,陈店,松滋市,992.3,28.7,56.0,38.490500000000026,22.05436411825644
Q6411,2025-06-03 07:00:00,30.2714,112.0189,50.1,荆州市,涴市,松滋市,1002.4,27.3,58.0,36.12500000000002,21.049611841925337
Q6412,2025-06-03 07:00:00,29.9758,111.7756,69.2,荆州市,杨林市,松滋市,999.3,29.4,56.0,40.82549999999992,22.966943210494488
Q6414,2025-06-03 07:00:00,30.18,111.8686,46.1,荆州市,八宝,松滋市,1002.4,29.1,55.0,41.65400000000004,22.168809202974735
Q6415,2025-06-03 07:00:00,29.9686,111.6961,76.2,荆州市,万家,松滋市,999.8,29.5,56.0,38.77700000000002,23.099966354392507
Q6417,2025-06-03 07:00:00,30.0903,111.4008,626.8,荆州市,三堰淌,松滋市,937.8,24.7,52.0,27.33999999999996,16.178030928899137
Q6418,2025-06-03 07:00:00,30.0397,111.3681,220,荆州市,卸甲坪村,松滋市,981.3,29.1,42.0,26.234999999999967,16.92890884590798
Q6426,2025-06-03 07:00:00,30.1769,111.7736,69.5,荆州市,新江口,松滋市,999.3,28.2,51.0,35.437499999999986,19.509382673399543
Q6494,2025-06-03 07:00:00,29.9206,112.0969,44,荆州市,南平,公安县,1002.6,28.8,53.0,31.974500000000035,20.994399071948628
Q6495,2025-06-03 07:00:00,29.99,112.0072,48,荆州市,狮子口,公安县,1002.0,28.4,62.0,41.68950000000008,23.99517276538389
Q6496,2025-06-03 07:00:00,30.0592,112.3197,30,荆州市,杨家厂,公安县,1003.0,27.8,62.0,34.91449999999999,23.16994399707533
Q6497,2025-06-03 07:00:00,29.8575,112.0914,40,荆州市,孟家溪,公安县,1003.1,27.8,65.0,48.330999999999996,24.29107031951446
Q6498,2025-06-03 07:00:00,29.9631,112.3392,40,荆州市,麻豪口,公安县,1003.1,28.5,54.0,34.69100000000001,21.020961747411622
