Station_Id_C,Datetime,Lat,Lon,Alti,City,Station_Name,Cnty,PRS,TEM,RHU,PWV,VAP
57249,2025-06-03 09:00:00,32.3244,109.6889,448.2,十堰市,竹溪,竹溪县,956.4,27.5,52.0,37.59349999999998,19.094660963491904
57251,2025-06-03 09:00:00,33.0033,110.4083,321.2,十堰市,郧西,郧西县,970.3,26.8,61.0,27.6,21.497189678374017
57253,2025-06-03 09:00:00,32.84,110.8669,244.8,十堰市,郧阳,郧阳区,978.1,28.7,47.0,33.82724404761908,18.50991274210808
57256,2025-06-03 09:00:00,32.6553,110.7728,290.2,十堰市,十堰,张湾区,973.5,29.0,44.0,30.8,17.632619441449773
57257,2025-06-03 09:00:00,32.2256,110.2261,308.4,十堰市,竹山,竹山县,972.4,23.8,63.0,29.7,18.56966766584655
57259,2025-06-03 09:00:00,32.0511,110.7475,429.5,十堰市,房县,房县,958.8,27.2,50.0,28.8,18.04002046248398
57260,2025-06-03 09:00:00,32.5417,111.4531,248.4,十堰市,丹江口,丹江口市,977.8,28.2,53.0,32.81599999999998,20.27445650372894
57264,2025-06-03 09:00:00,32.4261,111.0153,1017.5,十堰市,武当山,丹江口市,896.4,22.0,72.0,40.378999999999934,19.02836528939959
57265,2025-06-03 09:00:00,32.4319,111.7319,132.1,襄阳市,老河口,老河口市,990.6,29.1,45.0,23.022499999999983,18.13811662061569
57268,2025-06-03 09:00:00,32.2718,111.6211,124.2,襄阳市,谷城,谷城县,992.0,29.7,51.0,30.5,21.281600662308673
57278,2025-06-03 09:00:00,32.0031,112.0765,166.1,襄阳市,襄阳,襄城区,987.4,28.5,46.0,25.8,17.90674519223953
57279,2025-06-03 09:00:00,32.1614,112.7767,136.5,襄阳市,枣阳,枣阳市,989.9,30.2,42.0,25.8,18.037583253982703
57351,2025-06-03 09:00:00,30.8333,111.0167,231,宜昌市,坛子岭,夷陵区,981.1,26.4,60.0,42.30499999999999,20.651787961572953
57352,2025-06-03 09:00:00,30.8092,111.0003,185.3,宜昌市,三斗坪,夷陵区,986.2,26.8,58.0,45.861499999999985,20.43995084173267
57353,2025-06-03 09:00:00,30.8378,111.0164,191.8,宜昌市,苏家坳,夷陵区,985.5,26.3,58.0,42.90549999999999,19.845785459209385
57354,2025-06-03 09:00:00,31.4558,110.2711,2948.1,省直辖县级行政区划,神农顶,神农架林区,713.6,9.2,49.0,8.721999999999994,5.698553864469871
57355,2025-06-03 09:00:00,31.0483,110.35,337.5,恩施土家族苗族自治州,巴东,巴东县,969.1,25.2,68.0,37.69050000000003,21.796961538230022
57358,2025-06-03 09:00:00,30.8303,110.9639,295.5,宜昌市,秭归,秭归县,973.5,26.0,60.0,38.89799999999998,20.1688807283479
57359,2025-06-03 09:00:00,31.3453,110.7417,336.8,宜昌市,兴山,兴山县,969.2,25.6,58.0,33.727500000000006,19.03935065181401
57361,2025-06-03 09:00:00,31.8791,111.2583,331.8,襄阳市,保康,保康县,969.5,27.7,54.0,29.2,20.06260702487576
57362,2025-06-03 09:00:00,31.7484,110.6602,939,省直辖县级行政区划,神农架,神农架林区,904.5,23.6,58.0,24.7,16.89106581668889
57363,2025-06-03 09:00:00,31.7995,111.8388,159.9,襄阳市,南漳,南漳县,988.5,28.6,46.0,27,18.01114933244814
57367,2025-06-03 09:00:00,31.0836,110.9406,1910,宜昌市,大老岭,夷陵区,808.1,15.7,39.0,14.695000000000004,6.951342899475221
57368,2025-06-03 09:00:00,31.053,111.6318,146.2,宜昌市,远安,远安县,990.2,28.3,56.0,31,21.547243976340358
57370,2025-06-03 09:00:00,31.7353,112.2189,71.6,襄阳市,宜城,宜城市,998.2,28.6,49.0,26.4,19.185789506303454
57371,2025-06-03 09:00:00,31.9356,113.3081,121.9,随州市,随县,随县,991.5,28.7,56.0,31.523000000000046,22.05436411825644
57377,2025-06-03 09:00:00,30.9931,112.2123,191.9,荆门市,荆门,掇刀区,984.7,27.4,50.0,29,18.25295980230801
57378,2025-06-03 09:00:00,31.1724,112.5812,66.6,荆门市,钟祥,钟祥市,993.5,26.8,70.0,33.7,24.66890618829805
57381,2025-06-03 09:00:00,31.6194,113.3386,110.5,随州市,随州,曾都区,993.3,29.1,51.0,25.2,20.556532170031115
57385,2025-06-03 09:00:00,31.625,113.8206,120.4,随州市,广水,广水市,992.3,28.3,61.0,29.9,23.471105045656458
57386,2025-06-03 09:00:00,31.2519,113.9997,51.6,孝感市,孝昌,孝昌县,999.4,27.5,65.0,41.954000000000036,23.86832620436488
57387,2025-06-03 09:00:00,30.9996,113.132,86.3,荆门市,京山,京山市,996.1,26.9,67.0,33.3,23.75107557035457
57388,2025-06-03 09:00:00,31.2642,113.6936,57.5,孝感市,安陆,安陆市,999.4,28.5,58.0,32.8,22.578070024997665
57389,2025-06-03 09:00:00,31.0269,113.7486,32.2,孝感市,云梦,云梦县,1002.1,27.5,63.0,44.246000000000066,23.1339161673075
57395,2025-06-03 09:00:00,31.5883,114.1675,120,孝感市,大悟,大悟县,991.5,27.7,64.0,37.27999999999997,23.777904622074974
57398,2025-06-03 09:00:00,31.2803,114.6206,76.4,黄冈市,红安,红安县,997.5,28.5,56.0,35.4,21.79951588620465
57399,2025-06-03 09:00:00,31.1308,114.9547,74.3,黄冈市,麻城,麻城市,997.3,27.6,45.0,24.566,16.62128357225353
57439,2025-06-03 09:00:00,30.2911,108.9297,1127.5,恩施土家族苗族自治州,利川,利川市,885.2,22.3,51.0,32.5,13.727227672784965
57445,2025-06-03 09:00:00,30.6071,109.7201,610.3,恩施土家族苗族自治州,建始,建始县,939.6,25.4,65.0,35.9,21.084960554176938
57447,2025-06-03 09:00:00,30.2861,109.4707,458.7,恩施土家族苗族自治州,恩施,恩施市,956.3,25.4,62.0,43.9,20.11180852859954
57451,2025-06-03 09:00:00,30.8131,110.2539,1813.5,恩施土家族苗族自治州,绿葱坡,巴东县,817.8,15.9,52.0,16.966000000000005,9.38784229805254
57453,2025-06-03 09:00:00,30.762,111.4172,191.9,宜昌市,夷陵,夷陵区,985.4,27.8,54.0,33.5,20.18027380390432
57458,2025-06-03 09:00:00,30.1511,111.0683,243.2,宜昌市,五峰,五峰土家族自治县,979.1,29.0,48.0,31.59349999999997,19.235584845217932
57460,2025-06-03 09:00:00,30.8215,111.7841,95.6,宜昌市,当阳,当阳市,995.9,28.4,55.0,31.5,21.286040356388938
57461,2025-06-03 09:00:00,30.7019,111.2975,136.4,宜昌市,三峡,西陵区,977.1,26.8,-999.0,31.3,-352.0605326015679
57462,2025-06-03 09:00:00,30.8592,111.0831,139.9,宜昌市,夷陵三峡,夷陵区,990.9,27.1,65.0,35.01400000000002,23.314677763372252
57464,2025-06-03 09:00:00,30.4717,111.1817,180.7,宜昌市,长阳,长阳土家族自治县,986.2,28.9,51.0,34.6,20.319684892690148
57465,2025-06-03 09:00:00,30.3622,111.4319,120.1,宜昌市,宜都,宜都市,992.7,28.9,47.0,32.48149999999994,18.725984116792883
57466,2025-06-03 09:00:00,30.462,111.7464,67.3,宜昌市,枝江,枝江市,998.9,28.7,48.0,34.7,18.90374067279123
57469,2025-06-03 09:00:00,30.1783,111.68,111.2,荆州市,松滋,松滋市,994.4,28.5,52.0,38.7,20.2424076086186
57475,2025-06-03 09:00:00,30.403,112.9014,34.5,省直辖县级行政区划,潜江,潜江市,1002.6,24.2,67.0,40.9,20.229444765926516
57476,2025-06-03 09:00:00,30.3505,112.1484,35.3,荆州市,荆州,荆州区,1002.6,28.4,60.0,42.1,23.221134934242475
57477,2025-06-03 09:00:00,30.0708,112.2159,40.1,荆州市,公安,公安县,1001.9,28.7,56.0,39.2,22.05436411825644
57481,2025-06-03 09:00:00,30.9561,113.5753,33.4,孝感市,应城,应城市,1002.4,27.9,63.0,33.1,23.681633758503448
57482,2025-06-03 09:00:00,30.9033,113.9461,26.4,孝感市,孝感,孝感市,1003.3,27.7,59.0,39.1,21.920255823475365
57483,2025-06-03 09:00:00,30.6697,113.135,35.4,省直辖县级行政区划,天门,天门市,1002.5,28.0,65.0,39.2,24.576521527802676
57484,2025-06-03 09:00:00,30.7359,112.5489,61.1,荆门市,沙洋,沙洋县,999.8,27.2,63.0,33.7,22.730425782729817
57485,2025-06-03 09:00:00,30.2953,113.4829,27.1,省直辖县级行政区划,仙桃,仙桃市,1003.6,27.8,60.0,38,22.422526448782573
57486,2025-06-03 09:00:00,30.6556,113.8431,25,孝感市,汉川,汉川市,1003.1,27.6,61.0,40.321,22.531073286832566
57489,2025-06-03 09:00:00,30.5236,114.0081,26.2,武汉市,蔡甸,蔡甸区,1003.6,27.7,55.0,35.2,20.43413678459568
57491,2025-06-03 09:00:00,30.871,114.3948,34.7,武汉市,黄陂,黄陂区,1002.3,27.9,57.0,34.7,21.426240067217403
57492,2025-06-03 09:00:00,30.8386,114.8386,44.7,武汉市,新洲,新洲区,1001.4,27.2,59.0,29.9,21.287224145731095
57493,2025-06-03 09:00:00,30.3429,114.3353,80.8,武汉市,江夏,江夏区,997.3,27.3,49.0,28.3,17.783292763005893
57494,2025-06-03 09:00:00,30.5978,114.0506,23.6,武汉市,武汉,东西湖区,1003.6,27.7,59.0,36.29049999999997,21.920255823475365
57495,2025-06-03 09:00:00,30.6675,115.0669,61.8,黄冈市,团风,团风县,999.1,28.2,48.0,23.124499999999983,18.361771927905455
57496,2025-06-03 09:00:00,30.2572,114.6119,35.3,鄂州市,鄂州,梁子湖区,1001.8,26.8,59.0,30.356500000000015,20.792363787279786
57498,2025-06-03 09:00:00,30.5147,114.9364,28.4,黄冈市,黄冈,黄州区,1003.0,27.5,60.0,33.2,22.032301111721427
57499,2025-06-03 09:00:00,30.0744,114.875,40.3,黄石市,大冶,大冶市,1001.3,28.8,43.0,26.965999999999994,17.03319169988285
57540,2025-06-03 09:00:00,29.6847,109.1436,779.9,恩施土家族苗族自治州,咸丰,咸丰县,921.5,23.9,75.0,37.8,22.240224645265105
57541,2025-06-03 09:00:00,29.995,109.4783,602.6,恩施土家族苗族自治州,宣恩,宣恩县,940.9,24.4,66.0,40.1,20.168062927174358
57543,2025-06-03 09:00:00,29.8839,110.025,541.2,恩施土家族苗族自治州,鹤峰,鹤峰县,946.7,25.3,58.0,38.4,18.702609080263098
57545,2025-06-03 09:00:00,29.5281,109.4211,506.4,恩施土家族苗族自治州,来凤,来凤县,950.7,25.9,66.0,42.1,22.054679452365757
57571,2025-06-03 09:00:00,29.6594,112.4122,41.2,荆州市,石首,石首市,1001.7,28.1,60.0,42.3,22.818778232029903
57573,2025-06-03 09:00:00,29.8753,112.9044,26.2,荆州市,监利,监利市,1002.9,28.3,55.0,33.46949999999996,21.162471762477136
57581,2025-06-03 09:00:00,29.8122,113.4422,28.4,荆州市,洪湖,洪湖市,1003.1,27.5,57.0,38.1,20.930686056135354
57582,2025-06-03 09:00:00,29.7242,113.8758,51.1,咸宁市,赤壁,赤壁市,1000.6,29.1,41.0,36.4,16.525839587672074
57583,2025-06-03 09:00:00,29.9259,113.9595,65.6,咸宁市,嘉鱼,嘉鱼县,999.1,27.6,50.0,34.8,18.46809285805948
57586,2025-06-03 09:00:00,29.5746,114.0339,138.9,咸宁市,崇阳国家基本气象站,崇阳县,990.6,28.2,54.0,37.6,20.656993418893638
57589,2025-06-03 09:00:00,29.274,113.8787,149.7,咸宁市,通城,通城县,989.1,27.6,49.0,39.3,18.09873100089829
57590,2025-06-03 09:00:00,29.8517,114.3672,102.8,咸宁市,咸宁,市辖区,994.9,27.8,55.0,35.2,20.553982578050697
57595,2025-06-03 09:00:00,29.6111,114.4578,103.6,咸宁市,通山,通山县,994.3,28.4,37.0,32.1,14.319699876116193
57596,2025-06-03 09:00:00,29.6347,114.2053,751.6,咸宁市,金沙本底站,崇阳县,923.4,22.9,52.0,21.185999999999993,14.516091092350628
58401,2025-06-03 09:00:00,30.7467,115.3956,127.1,黄冈市,罗田,罗田县,991.7,26.7,58.0,31.6,20.31988890608483
58402,2025-06-03 09:00:00,30.7295,115.6676,126.2,黄冈市,英山,英山县,991.6,28.2,52.0,32.3,19.891919588564242
58404,2025-06-03 09:00:00,30.4717,115.2175,69.9,黄冈市,浠水,浠水县,998.3,28.1,51.0,31.1,19.395961497225418
58407,2025-06-03 09:00:00,30.2385,115.0275,35.4,黄石市,黄石,黄石港区,1002.0,28.6,45.0,33.6,17.6196026078297
58408,2025-06-03 09:00:00,30.23,115.4358,75.7,黄冈市,蕲春,蕲春县,997.8,28.2,49.0,34.6,18.74430884307015
58409,2025-06-03 09:00:00,30.0978,115.9314,32,黄冈市,黄梅,黄梅县,1002.1,27.7,50.0,36.182499999999976,18.576487985996074
58500,2025-06-03 09:00:00,29.8961,115.2163,60.7,黄石市,阳新,阳新县,999.7,26.9,57.0,32.8,20.20613891806284
58501,2025-06-03 09:00:00,29.925,115.6264,28.1,黄冈市,武穴,武穴市,1003.2,27.2,51.0,31.6,18.40082087173366
Q0004,2025-06-03 09:00:00,30.2789,108.8711,1082.2,恩施土家族苗族自治州,沪渝K1464,利川市,887.4,22.4,51.0,21.520500000000006,13.811051534187806
Q0005,2025-06-03 09:00:00,30.2444,109.1197,1131.4,恩施土家族苗族自治州,沪渝K1439,利川市,883.4,19.2,89.0,39.13949999999999,19.789877293609354
Q0007,2025-06-03 09:00:00,30.2389,109.3664,706.7,恩施土家族苗族自治州,沪渝K1412,恩施市,927.5,23.8,71.0,39.72,20.927720702779443
Q0008,2025-06-03 09:00:00,30.2439,109.4128,545.1,恩施土家族苗族自治州,沪渝K1407,巴东县,944.0,24.6,67.0,38.70150000000002,20.720411304777187
Q0010,2025-06-03 09:00:00,30.4114,109.5864,729.9,恩施土家族苗族自治州,沪渝K1375,恩施市,924.5,23.2,70.0,39.48150000000005,19.899149073541047
Q0011,2025-06-03 09:00:00,30.455,109.6258,624.1,恩施土家族苗族自治州,沪渝K1369,恩施市,935.3,24.3,69.0,39.29650000000003,20.95872068473193
Q0013,2025-06-03 09:00:00,30.4628,109.7828,780.1,恩施土家族苗族自治州,沪渝K1351,恩施市,918.5,23.7,69.0,42.50150000000002,20.216054118995846
Q0014,2025-06-03 09:00:00,30.4997,109.8508,903.4,恩施土家族苗族自治州,沪渝K1343,恩施市,906.0,23.5,60.0,32.04950000000002,17.368411880462325
Q0015,2025-06-03 09:00:00,30.55,109.8914,879.8,恩施土家族苗族自治州,沪渝K1336,建始县,908.1,23.1,62.0,31.145500000000006,17.518627835492932
Q0017,2025-06-03 09:00:00,30.6506,110.0908,794.9,恩施土家族苗族自治州,沪渝K1313,巴东县,917.1,23.2,69.0,40.915000000000006,19.614875515347606
Q0019,2025-06-03 09:00:00,30.6308,110.1639,865.2,恩施土家族苗族自治州,沪渝K1305,巴东县,909.6,23.1,70.0,40.50599999999999,19.77909594329847
Q0021,2025-06-03 09:00:00,30.6119,110.3097,1104.2,恩施土家族苗族自治州,沪渝K1291,巴东县,885.0,20.3,64.0,25.04700000000003,15.236791078704732
Q0022,2025-06-03 09:00:00,30.6217,110.3864,923,恩施土家族苗族自治州,沪渝k1283,恩施市,924.7,23.3,48.0,27.64200000000003,13.727890337049873
Q0023,2025-06-03 09:00:00,30.6325,111.3253,62.7,宜昌市,秭归k48,市辖区,996.2,27.3,58.0,37.56749999999999,21.049611841925337
Q0026,2025-06-03 09:00:00,30.6247,110.6047,597.8,宜昌市,沪渝K1262,长阳土家族自治县,937.3,22.9,68.0,35.50999999999995,18.982580659227747
Q0028,2025-06-03 09:00:00,30.5711,111.4003,54.9,宜昌市,沪渝K1179,市辖区,997.7,28.3,54.0,36.238000000000035,20.777699548613917
Q0030,2025-06-03 09:00:00,30.5589,111.1281,241.9,宜昌市,沪渝K1208,长阳土家族自治县,980.0,27.7,63.0,43.40449999999998,23.406374862355054
Q0032,2025-06-03 09:00:00,30.3922,112.195,25.4,荆州市,沪渝K1097,荆州区,1002.2,28.6,44.0,27.826500000000024,17.228055883211262
Q0033,2025-06-03 09:00:00,30.3353,112.4733,25.4,荆州市,沪渝K1069,荆州区,1002.9,28.6,51.0,30.304500000000047,19.968882955540327
Q0034,2025-06-03 09:00:00,30.3383,112.5164,24.4,省直辖县级行政区划,沪渝K1065,潜江市,1002.5,28.0,52.0,33.07249999999997,19.66121722224214
Q0037,2025-06-03 09:00:00,30.4533,113.8225,17,武汉市,沪渝K933,蔡甸区,1003.1,27.8,58.0,34.149999999999984,21.67510890048982
Q0039,2025-06-03 09:00:00,30.3486,113.5853,15.2,省直辖县级行政区划,沪渝k959,仙桃市,1002.9,27.6,61.0,37.43950000000001,22.531073286832566
Q0040,2025-06-03 09:00:00,30.3631,113.3619,9,省直辖县级行政区划,沪渝K982,仙桃市,1003.5,27.6,62.0,40.168500000000016,22.900435143993754
Q0047,2025-06-03 09:00:00,30.2406,115.1297,19.8,黄冈市,黄黄785,浠水县,1003.8,28.0,43.0,31.225000000000023,16.25831424146946
Q0049,2025-06-03 09:00:00,30.1353,115.33,21.4,黄冈市,黄黄K761,蕲春县,1003.4,27.4,56.0,44.13750000000001,20.443314978584972
Q0050,2025-06-03 09:00:00,30.0289,115.4664,41.4,黄冈市,黄黄K742,武穴市,1001.6,28.3,52.0,29.543999999999993,20.008155120887473
Q0051,2025-06-03 09:00:00,30.0039,115.5917,38,黄冈市,黄黄K730,武穴市,1002.5,26.6,61.0,35.496000000000016,21.245294637076334
Q0052,2025-06-03 09:00:00,30.0161,115.6708,42.5,黄冈市,黄黄K722,武穴市,1001.1,26.9,54.0,31.19799999999998,19.142657922375324
Q0053,2025-06-03 09:00:00,30.0278,115.7514,22.2,黄冈市,黄黄K714,武穴市,1003.5,26.5,60.0,26.03799999999998,20.7740831184025
Q0054,2025-06-03 09:00:00,30.0278,115.8164,23.1,黄冈市,黄黄K708,黄梅县,1003.9,26.6,64.0,38.14849999999994,22.29014519299812
Q0055,2025-06-03 09:00:00,30.0333,115.8986,25.2,黄冈市,黄黄K700,黄梅县,1003.4,27.1,54.0,35.58149999999997,19.369116911109256
Q0056,2025-06-03 09:00:00,30.1047,116.0217,45.9,黄冈市,黄黄K685,黄梅县,1001.2,27.3,56.0,32.96600000000003,20.323763157721018
Q0058,2025-06-03 09:00:00,30.1703,114.9136,25,黄石市,大广K2491,市辖区,1001.9,28.3,36.0,27.227499999999967,13.851799699075944
Q0060,2025-06-03 09:00:00,30.0042,114.9003,50.6,黄石市,大广K2510,大冶市,998.8,28.4,54.0,34.83400000000003,20.89902144081823
Q0061,2025-06-03 09:00:00,29.9158,114.8833,57.7,黄石市,大广K2520,大冶市,999.1,28.0,54.0,36.01749999999997,20.41741788463607
Q0064,2025-06-03 09:00:00,29.6617,114.9464,23.5,黄石市,大广K2552,阳新县,1002.8,30.2,44.0,25.819500000000012,18.89651578988664
Q0065,2025-06-03 09:00:00,29.6053,114.9322,37.1,黄石市,大广K2560,阳新县,1000.2,29.4,44.0,27.049499999999995,18.04545537967424
Q0066,2025-06-03 09:00:00,29.4306,114.8339,281.9,咸宁市,大广K2583,通山县,972.4,26.3,54.0,35.318500000000014,18.47711059995357
Q0067,2025-06-03 09:00:00,29.3742,113.8803,81,咸宁市,杭瑞K731,崇阳县,995.0,28.5,50.0,35.01400000000001,19.463853469825576
Q0069,2025-06-03 09:00:00,29.5817,114.3203,81,咸宁市,杭瑞K679,通山县,992.2,28.2,44.0,34.305999999999976,16.831624267246667
Q0070,2025-06-03 09:00:00,29.6758,114.6372,141.1,咸宁市,杭瑞K646,通山县,988.9,28.4,42.0,31.389500000000034,16.254794453969733
Q0071,2025-06-03 09:00:00,29.7172,114.6692,128.1,咸宁市,杭瑞K640,通山县,990.6,29.1,45.0,35.941999999999965,18.13811662061569
Q0072,2025-06-03 09:00:00,29.7147,114.8767,167.3,黄石市,杭瑞K620,阳新县,987.1,26.4,51.0,34.317499999999974,17.55401976733701
Q0074,2025-06-03 09:00:00,29.7067,115.2367,54.2,黄石市,杭瑞K583,阳新县,999.1,28.3,49.0,30.698,18.853838479297814
Q0079,2025-06-03 09:00:00,33.08,110.3,444.3,十堰市,福银K1447,郧西县,956.3,25.6,71.0,35.217000000000006,23.306791315151635
Q0080,2025-06-03 09:00:00,32.95,110.5,395.1,十堰市,福银K1421,郧西县,961.3,26.7,55.0,33.02899999999999,19.268860169563204
Q0081,2025-06-03 09:00:00,32.86,110.65,275.8,十堰市,福银K1405,郧西县,972.8,28.2,48.0,29.117000000000008,18.361771927905455
Q0082,2025-06-03 09:00:00,32.82,110.7,205.1,十堰市,福银K1398,郧西县,980.8,28.5,50.0,36.53500000000001,19.463853469825576
Q0083,2025-06-03 09:00:00,32.51,111.14,162.4,十堰市,福银K1338,丹江口市,986.2,27.3,61.0,34.554,22.138384868231824
Q0087,2025-06-03 09:00:00,32.28,111.66,73.4,襄阳市,福银K1277,谷城县,996.2,29.1,50.0,40.05300000000001,20.153462911795213
Q0089,2025-06-03 09:00:00,32.19,112.1,76.5,襄阳市,福银K1234,市辖区,996.1,30.4,33.0,26.302499999999977,14.336006946970723
Q0093,2025-06-03 09:00:00,31.67,113.26,101,随州市,福银K1103,市辖区,993.8,29.3,50.0,32.9885,20.388026258076618
Q0094,2025-06-03 09:00:00,31.6,113.33,83,随州市,福银K1093,市辖区,996.2,29.1,52.0,33.43150000000005,20.95960142826702
Q0095,2025-06-03 09:00:00,31.48,113.43,110,随州市,福银K1076,市辖区,993.0,30.4,49.0,31.536499999999997,21.286798193986833
Q0096,2025-06-03 09:00:00,31.39,113.51,97.7,孝感市,福银K1064,安陆市,995.2,28.7,62.0,38.12699999999993,24.41733170235534
Q0100,2025-06-03 09:00:00,30.98,114.05,29.2,孝感市,福银K993,市辖区,1002.1,27.9,61.0,48.144500000000036,22.9298358614081
Q0103,2025-06-03 09:00:00,31.54,112.28,56.7,荆门市,襄荆K1620,钟祥市,998.6,28.3,5.0,6.126499999999992,1.9238610693161033
Q0104,2025-06-03 09:00:00,31.42,112.34,68.6,荆门市,襄荆K1634,钟祥市,999.1,27.9,56.0,38.87789999999993,21.050341118669735
Q0106,2025-06-03 09:00:00,30.99,112.27,51.3,荆门市,襄荆K1685,市辖区,998.9,28.6,54.0,30.47550000000001,21.143523129395643
Q0107,2025-06-03 09:00:00,30.82,112.24,75.1,荆门市,襄荆K1704,市辖区,997.0,26.9,63.0,33.11350000000004,22.333100909437878
Q0108,2025-06-03 09:00:00,30.7,112.22,50.4,荆门市,襄荆K1715交通气象站,沙洋县,1000.0,27.2,5.0,8.113999999999999,1.8040020462483983
Q0109,2025-06-03 09:00:00,30.45,112.21,42.3,荆门市,襄荆K1745,沙洋县,1001.9,28.1,59.0,43.03649999999996,22.43846526149607
Q0600,2025-06-03 09:00:00,29.8361,113.5272,26,荆州市,洪湖石码头,洪湖市,1002.6,28.7,53.0,30.51049999999999,20.872880326206985
Q0603,2025-06-03 09:00:00,29.7378,112.4081,20,荆州市,石首海事码头,石首市,1002.1,27.7,60.0,31.10949999999998,22.291785583195285
Q0604,2025-06-03 09:00:00,30.0744,112.215,11,荆州市,公安航道码头,公安县,1001.8,27.9,59.0,27.623500000000025,22.178037964312754
Q0605,2025-06-03 09:00:00,30.03,112.4025,50,荆州市,江陵航道码头,江陵县,1001.7,27.2,59.0,32.558999999999976,21.287224145731095
Q0606,2025-06-03 09:00:00,30.3206,112.2025,15,荆州市,杨林矶海事码头,市辖区,1001.8,26.9,66.0,49.727000000000004,23.396581905125394
Q0607,2025-06-03 09:00:00,30.6586,114.5494,40,武汉市,阳逻海事水上搜救中心,新洲区,1003.0,26.2,55.0,37.026000000000025,18.708328054819386
Q0608,2025-06-03 09:00:00,30.3672,114.1486,0,武汉市,金口航道码头,江夏区,1003.0,27.0,47.0,28.762499999999967,16.759500538994093
Q0609,2025-06-03 09:00:00,30.2064,113.9283,20,咸宁市,嘉鱼簰洲湾海事站房,嘉鱼县,1003.0,26.5,62.0,33.209,21.466552555682586
Q0611,2025-06-03 09:00:00,31.0047,110.6128,194.5,宜昌市,秭归泄滩小学,秭归县,983.6,25.7,68.0,36.0470000000001,22.454972373925283
Q0612,2025-06-03 09:00:00,30.5539,111.39,40,宜昌市,长江航道宜昌综合码头,宜都市,1000.6,26.7,60.0,38.5765,21.020574730432585
Q0613,2025-06-03 09:00:00,30.4106,111.5064,60,宜昌市,宜昌海事局孙家河执法队,宜都市,1001.1,26.2,60.0,33.787499999999966,20.409085150712055
Q0614,2025-06-03 09:00:00,30.3075,111.6236,40,宜昌市,松滋河口,宜都市,1001.0,27.7,51.0,24.678000000000008,18.948017745715994
Q0615,2025-06-03 09:00:00,30.3725,111.64,50,宜昌市,枝江姚港,枝江市,1001.5,26.7,58.0,34.38249999999997,20.31988890608483
Q0616,2025-06-03 09:00:00,30.4125,111.8875,40,宜昌市,枝江七星台,枝江市,1001.7,27.1,59.0,39.055999999999955,21.16255366213789
Q0617,2025-06-03 09:00:00,29.7708,113.0303,40,荆州市,监利何王庙,监利市,1002.1,28.1,54.0,23.70400000000001,20.536900408826913
Q0618,2025-06-03 09:00:00,29.6517,112.9492,30,荆州市,监利三洲,监利市,1002.2,28.0,4.0,2.8860000000000037,1.512401324787857
Q0619,2025-06-03 09:00:00,29.9542,113.8303,30,荆州市,洪湖龙口汽渡码头,洪湖市,1002.6,27.1,60.0,37.62499999999997,21.521241012343612
Q0701,2025-06-03 09:00:00,30.6869,114.5175,4,武汉市,水口白灯船,新洲区,1002.7,26.0,65.0,37.49549999999997,21.849620789043563
Q0702,2025-06-03 09:00:00,30.5583,114.6317,4,武汉市,牧鹅洲白灯船,新洲区,1002.7,27.3,42.0,27.819000000000006,15.242822368290764
Q0704,2025-06-03 09:00:00,30.3142,112.2003,8,荆州市,沙市河段航道整治一期工程提示标,沙市区,1001.1,25.3,70.0,43.39499999999999,22.572114407214084
Q0705,2025-06-03 09:00:00,30.0753,112.3128,7,荆州市,公安大桥进口白泵船,公安县,1001.1,27.3,60.0,31.491000000000003,21.77546052612966
Q0707,2025-06-03 09:00:00,29.7636,112.6675,6,荆州市,桃花洲中提示标,洪湖市,1001.2,26.7,58.0,32.580999999999996,20.31988890608483
Q0725,2025-06-03 09:00:00,30.6411,114.3525,4,武汉市,天兴洲航道整治建筑物上提示标,江岸区,1002.3,25.8,58.0,29.77600000000003,19.266781127228384
Q0729,2025-06-03 09:00:00,30.5308,114.8308,4,黄冈市,黄冈大桥#1红浮,市辖区,1002.4,26.8,53.0,30.182000000000006,18.677886113997097
Q0737,2025-06-03 09:00:00,30.1289,115.2844,3,黄冈市,李家洲#3红浮,市辖区,1002.6,26.4,54.0,37.15300000000005,18.58660916541566
Q1000,2025-06-03 09:00:00,30.5944,114.3017,28.8,武汉市,江滩,江岸区,1003.2,28.0,46.0,26.103500000000043,17.392615235060354
Q1001,2025-06-03 09:00:00,30.9978,114.8886,62,武汉市,潘塘,新洲区,998.3,28.2,50.0,25.88149999999998,19.126845758234847
Q1002,2025-06-03 09:00:00,30.9278,114.7925,28,武汉市,三店,新洲区,1003.0,27.8,51.0,32.12600000000004,19.05914748146519
Q1003,2025-06-03 09:00:00,30.8803,114.6789,24.6,武汉市,李集,新洲区,1003.4,27.5,64.0,43.23149999999999,23.50112118583619
Q1004,2025-06-03 09:00:00,30.8169,114.8717,27,武汉市,旧街,新洲区,1003.1,27.4,58.0,35.03799999999999,21.17343337067729
Q1005,2025-06-03 09:00:00,30.7997,114.8161,40,武汉市,辛冲,新洲区,1002.0,27.4,52.0,30.83650000000001,18.98307819440033
Q1006,2025-06-03 09:00:00,30.8086,114.73,37,武汉市,汪集,新洲区,1001.9,28.0,50.0,29.72558333333334,18.90501655984821
Q1007,2025-06-03 09:00:00,30.8736,114.6136,28.8,武汉市,仓埠,江岸区,1000.9,27.6,56.0,33.769000000000005,20.68426400102662
Q1008,2025-06-03 09:00:00,30.9403,114.7225,67,武汉市,凤凰,新洲区,999.7,27.1,57.0,38.57850000000007,20.445178961726434
Q1010,2025-06-03 09:00:00,30.5064,114.3839,40.8,武汉市,化工,洪山区,1002.1,27.3,39.0,21.315999999999985,14.15404934198428
Q1011,2025-06-03 09:00:00,30.7475,114.0272,26,武汉市,五一大队,东西湖区,1003.9,27.1,68.0,42.53200000000002,24.390739813989434
Q1013,2025-06-03 09:00:00,30.4836,114.3192,31,武汉市,湖北省农科院,洪山区,1003.2,27.7,57.0,33.435500000000026,21.177196304035522
Q1014,2025-06-03 09:00:00,30.5325,114.5006,41,武汉市,花山工作基地,市辖区,1001.3,27.2,44.0,28.439500000000045,15.875218006985904
Q1016,2025-06-03 09:00:00,30.5333,114.5058,29,武汉市,湖北省预备役师,洪山区,1002.4,28.4,43.0,28.411500000000004,16.64181336954044
Q1017,2025-06-03 09:00:00,30.6381,114.3803,22,武汉市,和平公园,青山区,1003.3,28.3,48.0,26.735100000000024,18.46906626543459
Q1018,2025-06-03 09:00:00,30.3322,114.0706,19,武汉市,纱帽,汉南区,1003.4,27.3,63.0,34.72350000000005,22.864233552436147
Q1019,2025-06-03 09:00:00,30.2669,113.8478,25,武汉市,湘口,汉南区,1003.5,27.5,66.0,40.66349999999998,24.23553122289357
Q1020,2025-06-03 09:00:00,30.3078,113.9783,27,武汉市,邓南,汉南区,1003.0,27.1,54.0,31.20349999999999,19.369116911109256
Q1021,2025-06-03 09:00:00,30.3461,113.9131,24,武汉市,东荆,汉南区,1003.5,27.3,63.0,37.38250000000001,22.864233552436147
Q1022,2025-06-03 09:00:00,30.6703,114.1803,32,武汉市,气象预警中心,东西湖区,1003.7,28.3,57.0,37.51449999999998,21.932016190203576
Q1023,2025-06-03 09:00:00,30.4614,114.2383,23.2,武汉市,建和分校,洪山区,1003.6,27.4,59.0,33.404500000000006,21.538492566723452
Q1024,2025-06-03 09:00:00,30.6242,114.1408,26,武汉市,实验小学,东西湖区,1003.8,29.1,46.0,31.262999999999987,18.541185878851596
Q1025,2025-06-03 09:00:00,30.6014,114.4875,25,武汉市,白玉公园,青山区,1003.7,28.5,53.0,30.224500000000003,20.63168467801511
Q1026,2025-06-03 09:00:00,30.455,114.1294,28,武汉市,沌阳,汉南区,1003.6,28.0,58.0,36.07099999999997,21.929819209423922
Q1027,2025-06-03 09:00:00,30.5183,114.3594,43.1,武汉市,华师,洪山区,1001.3,27.5,48.0,28.267499999999995,17.62584088937714
Q1028,2025-06-03 09:00:00,30.6731,114.2292,24,武汉市,常青路,东西湖区,1003.9,27.9,54.0,31.888499999999954,20.298543221574384
Q1029,2025-06-03 09:00:00,30.5644,114.4858,26.8,武汉市,光谷二十七小学,洪山区,1003.0,28.3,39.0,28.40449999999997,15.006116340665605
Q1030,2025-06-03 09:00:00,30.6772,114.2828,35,武汉市,材保所,东西湖区,1003.7,28.6,44.0,29.892500000000037,17.228055883211262
Q1031,2025-06-03 09:00:00,30.4789,114.4464,35,武汉市,湖北省第二师范,洪山区,1002.1,28.0,41.0,30.15600000000002,15.502113579075532
Q1032,2025-06-03 09:00:00,30.6644,114.3136,26,武汉市,百步亭社区,江岸区,1003.8,28.0,46.0,28.932999999999993,17.392615235060354
Q1033,2025-06-03 09:00:00,30.5133,114.3114,19,武汉市,南湖社区,武昌区,1003.6,27.2,60.0,32.05999999999999,21.648024554980775
Q1036,2025-06-03 09:00:00,30.5517,114.4369,23,武汉市,东湖落雁景区,市辖区,1003.6,27.2,52.0,28.9675,18.76162128098334
Q1038,2025-06-03 09:00:00,30.6708,114.41,25,武汉市,天兴洲,洪山区,1003.3,27.7,60.0,39.696000000000005,22.291785583195285
Q1039,2025-06-03 09:00:00,30.5031,114.4803,45.3,武汉市,光谷二十一小学,洪山区,1001.3,29.1,38.0,26.897499999999983,15.316631812964363
Q1040,2025-06-03 09:00:00,30.7594,114.6317,24,武汉市,五云,江岸区,1001.9,28.2,48.0,32.27149999999995,18.361771927905455
Q1041,2025-06-03 09:00:00,30.6386,114.5739,11.5,武汉市,鄢家湖,江岸区,1003.5,27.8,52.0,27.762924999999964,19.43285625561157
Q1042,2025-06-03 09:00:00,30.8764,114.4739,32.5,武汉市,席家岗,江岸区,1002.0,27.6,58.0,34.81099999999996,21.422987715348995
Q1043,2025-06-03 09:00:00,30.8822,114.5217,39.2,武汉市,六指中心福利院,江岸区,1001.9,27.6,58.0,34.73049999999996,21.422987715348995
Q1044,2025-06-03 09:00:00,30.8683,114.5803,42.3,武汉市,青华,江岸区,1001.7,27.4,55.0,29.01349999999997,20.07825578253881
Q1045,2025-06-03 09:00:00,30.7972,114.4647,31.3,武汉市,大咀,江岸区,1002.0,27.7,51.0,26.0511,18.948017745715994
Q1052,2025-06-03 09:00:00,30.5447,114.42,23.3,武汉市,武汉植物园,洪山区,1003.5,26.8,58.0,33.35050000000005,20.43995084173267
Q1054,2025-06-03 09:00:00,30.5814,114.3311,23,武汉市,湖大,武昌区,1003.5,28.4,46.0,27.650999999999986,17.802870116252567
Q1057,2025-06-03 09:00:00,30.6369,114.5061,33,武汉市,林业站,洪山区,1003.8,28.3,57.0,39.40750000000001,21.932016190203576
Q1061,2025-06-03 09:00:00,30.6411,114.4039,33.5,武汉市,青山,青山区,1002.8,28.7,44.0,27.815500000000007,17.32842895005863
Q1071,2025-06-03 09:00:00,30.51,114.4581,35,武汉市,士官学校,洪山区,1002.8,28.0,38.0,29.840500000000006,14.367812585484641
Q1072,2025-06-03 09:00:00,30.6664,114.335,27,武汉市,堤角公园,江岸区,1003.4,28.1,56.0,31.459999999999955,21.29752634989458
Q1073,2025-06-03 09:00:00,30.6272,114.2394,25,武汉市,湖北省移动公司,江汉区,1003.6,28.6,44.0,25.40649999999995,17.228055883211262
Q1081,2025-06-03 09:00:00,30.255,114.0589,22.1,武汉市,汉南,汉南区,1003.5,27.2,56.0,35.290499999999994,20.20482291798206
Q1082,2025-06-03 09:00:00,30.4769,114.1631,18.1,武汉市,沌口,汉南区,1003.3,27.3,62.0,39.31249999999997,22.501309210333982
Q1083,2025-06-03 09:00:00,30.4156,114.1306,21.6,武汉市,春笋,汉南区,1003.7,27.5,59.0,34.69800000000002,21.665096093192737
Q1084,2025-06-03 09:00:00,30.3267,114.0014,23.3,武汉市,恒大农业,汉南区,1003.5,27.7,59.0,35.99599999999997,21.920255823475365
Q1085,2025-06-03 09:00:00,30.2131,113.8472,22.6,武汉市,武湖湿地,汉南区,1003.7,26.8,59.0,32.81833333333341,20.792363787279786
Q1086,2025-06-03 09:00:00,30.22,113.8256,21.3,武汉市,喜鹊湖,汉南区,1003.8,27.5,60.0,37.130999999999965,22.032301111721427
Q1087,2025-06-03 09:00:00,30.4258,114.1092,33.7,武汉市,龙灵山,汉南区,1002.4,27.2,59.0,33.784,21.287224145731095
Q1088,2025-06-03 09:00:00,30.4586,114.0606,29,武汉市,武汉西,汉南区,1002.9,27.8,54.0,33.15400000000001,20.18027380390432
Q1101,2025-06-03 09:00:00,30.8781,114.9839,83,武汉市,道观河,新洲区,996.2,27.6,55.0,39.5820000000001,20.314902143865428
Q1102,2025-06-03 09:00:00,30.6969,114.5339,25,武汉市,阳逻,江岸区,1003.7,28.1,47.0,23.84049999999996,17.87470961509009
Q1103,2025-06-03 09:00:00,30.6675,114.7861,18.7,武汉市,涨渡湖,新洲区,1004.0,28.3,51.0,35.215500000000034,19.62338290702425
Q1104,2025-06-03 09:00:00,30.5964,114.6472,23,武汉市,双柳,新洲区,1003.5,28.0,43.0,31.04599999999998,16.25831424146946
Q1105,2025-06-03 09:00:00,30.8894,115.0589,344.5,武汉市,将军山,新洲区,967.7,25.9,61.0,38.085000000000065,20.38387040294411
Q1106,2025-06-03 09:00:00,30.9481,114.9694,73,武汉市,徐古,新洲区,998.1,27.5,50.0,29.377000000000017,18.360250926434524
Q1107,2025-06-03 09:00:00,30.8731,114.7681,25,武汉市,徐治湾,新洲区,1003.1,28.1,50.0,33.40900000000003,19.015648526691585
Q1108,2025-06-03 09:00:00,30.9156,114.6519,39.3,武汉市,方院,新洲区,1001.7,27.6,58.0,30.79450000000005,21.422987715348995
Q1109,2025-06-03 09:00:00,30.7858,114.5475,31.6,武汉市,杨裴,江岸区,1002.5,27.8,50.0,24.736599999999985,18.685438707318813
Q1111,2025-06-03 09:00:00,30.975,114.7111,51.1,武汉市,陈家田,新洲区,1000.2,26.9,63.0,34.660000000000046,22.333100909437878
Q1112,2025-06-03 09:00:00,30.8286,114.9725,196.4,武汉市,大雾山,新洲区,984.1,26.7,60.0,46.39750000000003,21.020574730432585
Q1113,2025-06-03 09:00:00,30.8742,114.8856,30.1,武汉市,王寨,新洲区,1002.9,28.1,57.0,32.888500000000015,21.677839320428408
Q1114,2025-06-03 09:00:00,30.9244,114.6972,55.4,武汉市,春光,新洲区,999.9,27.5,54.0,36.85350000000006,19.829071000549288
Q1115,2025-06-03 09:00:00,30.9389,114.9081,36,武汉市,易河,新洲区,1002.2,28.4,52.0,29.949500000000015,20.124983609676814
Q1116,2025-06-03 09:00:00,30.9575,114.87,60,武汉市,李岗,新洲区,999.4,28.1,51.0,28.82950000000001,19.395961497225418
Q1117,2025-06-03 09:00:00,30.9631,114.7978,28,武汉市,徐寨,新洲区,1003.0,27.7,58.0,33.297999999999966,21.548726063755442
Q1118,2025-06-03 09:00:00,30.6256,114.7536,22.2,武汉市,陈路,新洲区,1003.7,28.0,53.0,30.62150000000001,20.039317553439105
Q1119,2025-06-03 09:00:00,30.6903,114.705,26.5,武汉市,滨湖,新洲区,1003.2,28.2,47.0,36.51349999999998,17.97923501274076
Q1120,2025-06-03 09:00:00,30.5981,114.6917,22.5,武汉市,航天新城,新洲区,1003.6,27.9,50.0,35.05649999999996,18.79494742738369
Q1121,2025-06-03 09:00:00,30.7686,114.6692,20.6,武汉市,大泊,新洲区,1003.7,27.2,59.0,35.27750000000002,21.287224145731095
Q1122,2025-06-03 09:00:00,30.7528,114.7064,23.9,武汉市,冯铺,新洲区,1003.4,27.9,50.0,32.849000000000025,18.79494742738369
Q1123,2025-06-03 09:00:00,30.8286,114.6825,23.6,武汉市,人胜,新洲区,1003.5,27.1,56.0,34.839,20.08649161152071
Q1124,2025-06-03 09:00:00,30.7658,114.815,35.4,武汉市,杨铺,新洲区,1002.1,28.4,49.0,31.345833333333335,18.96392686296469
Q1125,2025-06-03 09:00:00,30.7722,114.8658,39.5,武汉市,朱岗,新洲区,1001.7,27.4,55.0,28.791999999999987,20.07825578253881
Q1126,2025-06-03 09:00:00,30.6581,114.6303,22,武汉市,毛集,新洲区,1002.2,28.1,46.0,33.19749999999998,17.49439664455626
Q1128,2025-06-03 09:00:00,30.7972,114.6519,13.8,武汉市,王瓦,新洲区,1003.6,27.3,57.0,33.679000000000045,20.686687499823176
Q1129,2025-06-03 09:00:00,30.73,114.7775,20.2,武汉市,四道沟,新洲区,1003.9,28.1,51.0,33.89300000000006,19.395961497225418
Q1130,2025-06-03 09:00:00,30.8692,115.0061,92.7,武汉市,道观河水库,新洲区,995.7,27.9,56.0,44.90650000000003,21.050341118669735
Q1131,2025-06-03 09:00:00,30.9228,115.0169,109.7,武汉市,大屋冲,新洲区,993.9,27.2,56.0,39.32600000000008,20.20482291798206
Q1132,2025-06-03 09:00:00,30.9228,114.7528,34,武汉市,凤凰镇中心小学,新洲区,1000.8,28.6,51.0,25.185000000000006,19.968882955540327
Q1133,2025-06-03 09:00:00,30.8536,114.9625,31,武汉市,旧街利河小学,新洲区,1001.3,27.4,59.0,30.673000000000023,21.538492566723452
Q1134,2025-06-03 09:00:00,30.6467,114.8336,15,武汉市,双柳汉昕小学,新洲区,1003.8,28.1,53.0,30.71799999999999,20.15658743829308
Q1135,2025-06-03 09:00:00,30.8819,114.8447,32,武汉市,刘六,新洲区,1001.5,27.6,54.0,28.5335,19.94554028670424
Q1136,2025-06-03 09:00:00,30.6756,114.7642,28.8,武汉市,涨渡湖湿地森林公园,新洲区,1004.0,28.2,52.0,31.996000000000013,19.891919588564242
Q1191,2025-06-03 09:00:00,30.8192,114.6042,35.7,武汉市,紫薇都市田园,江岸区,1002.1,28.8,41.0,28.51349999999997,16.240950225469692
Q1199,2025-06-03 09:00:00,30.8331,114.7997,26.4,武汉市,邾城,新洲区,1003.1,27.6,46.0,26.417500000000004,16.990645429414723
Q1201,2025-06-03 09:00:00,31.2047,114.3831,48.5,武汉市,姚家集,黄陂区,1000.7,27.9,66.0,45.54549999999992,24.80933060414647
Q1202,2025-06-03 09:00:00,30.9883,114.5211,88,武汉市,蔡家榨,黄陂区,996.2,27.8,61.0,43.67000000000004,22.796235222928953
Q1203,2025-06-03 09:00:00,30.9947,114.2333,37.5,武汉市,李家集,黄陂区,1000.6,27.2,66.0,40.59499999999997,23.812827010478856
Q1204,2025-06-03 09:00:00,30.8131,114.2119,35,武汉市,天河机场,黄陂区,1001.7,27.7,60.0,38.920999999999964,22.291785583195285
Q1207,2025-06-03 09:00:00,31.2856,114.3106,67,武汉市,蔡店,黄陂区,998.3,29.0,59.0,30.499500000000033,23.643739705580376
Q1208,2025-06-03 09:00:00,30.8853,114.2261,41,武汉市,祁家湾,黄陂区,1001.6,28.1,60.0,35.422499999999964,22.818778232029903
Q1209,2025-06-03 09:00:00,30.8003,114.2903,38,武汉市,横店,黄陂区,1000.9,27.9,55.0,31.463000000000033,20.67444217012206
Q1210,2025-06-03 09:00:00,30.7506,114.3008,30,武汉市,盘龙城,黄陂区,1001.7,27.8,55.0,29.78999999999996,20.553982578050697
Q1212,2025-06-03 09:00:00,31.0553,114.4678,49,武汉市,夏家寺水库,黄陂区,999.4,28.2,61.0,41.25199999999998,23.334751825046514
Q1213,2025-06-03 09:00:00,31.3047,114.2033,537,武汉市,刘家山,黄陂区,947.5,24.0,73.0,49.55400000000002,21.777756425172466
Q1214,2025-06-03 09:00:00,30.7583,114.4194,23,武汉市,三里桥,江岸区,1004.1,28.9,48.0,29.571899999999985,19.1244093107672
Q1215,2025-06-03 09:00:00,30.9933,114.3361,48,武汉市,罗汉寺,黄陂区,1000.7,28.0,60.0,36.25500000000004,22.68601987181785
Q1216,2025-06-03 09:00:00,31.1075,114.3617,49,武汉市,长轩岭,黄陂区,1000.9,27.6,61.0,40.68399999999999,22.531073286832566
Q1217,2025-06-03 09:00:00,30.7003,114.5036,21,武汉市,现代农展中心,江岸区,1003.8,28.0,49.0,24.02359999999997,18.52691622865125
Q1218,2025-06-03 09:00:00,31.2347,114.23,100.2,武汉市,源泉,黄陂区,993.1,27.6,63.0,50.97449999999996,23.269797001154945
Q1219,2025-06-03 09:00:00,31.0919,114.2014,105.3,武汉市,矿巴水库,黄陂区,995.7,27.2,63.0,43.94200000000003,22.730425782729817
Q1220,2025-06-03 09:00:00,30.7003,114.4181,29,武汉市,武湖,江岸区,1003.5,27.9,47.0,25.966000000000005,17.667250581740667
Q1221,2025-06-03 09:00:00,30.7122,114.3606,17.3,武汉市,滠口,黄陂区,1002.9,27.1,50.0,28.27500000000002,17.934367510286346
Q1222,2025-06-03 09:00:00,30.7164,114.4722,28,武汉市,农科院北区,江岸区,1003.6,28.7,45.0,26.040500000000012,17.722256880741778
Q1224,2025-06-03 09:00:00,31.2561,114.3842,50.2,武汉市,崇杰,黄陂区,1000.4,28.0,63.0,43.33949999999999,23.820320865408746
Q1225,2025-06-03 09:00:00,31.1831,114.3153,65.1,武汉市,梅店水库,黄陂区,998.5,28.1,64.0,30.492999999999974,24.34003011416523
Q1226,2025-06-03 09:00:00,31.2664,114.2336,106.9,武汉市,道士冲,黄陂区,993.5,28.5,63.0,41.05299999999998,24.524455371980228
Q1227,2025-06-03 09:00:00,31.2417,114.2836,87.3,武汉市,姚家老屋,黄陂区,995.8,27.7,66.0,41.885499999999986,24.520964141514817
Q1228,2025-06-03 09:00:00,30.8536,114.1789,22,武汉市,双墩,黄陂区,1001.9,27.7,65.0,34.89800000000003,24.149434381794897
Q1229,2025-06-03 09:00:00,30.9553,114.1625,21.6,武汉市,红旗,黄陂区,1001.9,27.0,67.0,43.897999999999996,23.891202896012857
Q1230,2025-06-03 09:00:00,31.1272,114.4814,46.7,武汉市,同兴集,黄陂区,999.0,28.5,60.0,39.24550000000002,23.356624163790688
Q1231,2025-06-03 09:00:00,31.1839,114.4325,61.2,武汉市,磨盘,黄陂区,997.4,27.3,62.0,42.72200000000004,22.501309210333982
Q1232,2025-06-03 09:00:00,31.1419,114.4219,73.8,武汉市,吊箭楼,黄陂区,995.9,26.9,58.0,37.8895,20.560632583292012
Q1233,2025-06-03 09:00:00,31.035,114.3906,29,武汉市,卧虎,黄陂区,1001.0,27.1,59.0,37.352499999999964,21.16255366213789
Q1234,2025-06-03 09:00:00,31.0972,114.315,48.5,武汉市,院基寺水库,黄陂区,998.8,27.7,61.0,43.12199999999995,22.663315342915208
Q1235,2025-06-03 09:00:00,31.0725,114.2422,86.4,武汉市,彭家冲,黄陂区,996.9,27.7,58.0,49.21550000000001,21.548726063755442
Q1236,2025-06-03 09:00:00,30.9511,114.4708,49,武汉市,红十月水库,黄陂区,998.8,27.8,62.0,44.16150000000006,23.16994399707533
Q1237,2025-06-03 09:00:00,31.0414,114.3053,60.4,武汉市,北新,黄陂区,997.4,27.1,64.0,38.814999999999934,22.95599041316652
Q1238,2025-06-03 09:00:00,31.3386,114.2825,96,武汉市,余家冲水库,黄陂区,993.0,30.0,61.0,39.977499999999935,25.898010201462203
Q1239,2025-06-03 09:00:00,31.0269,114.1628,34,武汉市,官家砦,黄陂区,1000.7,27.7,61.0,48.37100000000002,22.663315342915208
Q1243,2025-06-03 09:00:00,30.9133,114.4825,21,武汉市,定正,黄陂区,1001.6,27.7,60.0,39.985499999999966,22.291785583195285
Q1244,2025-06-03 09:00:00,31.1486,114.3,62.7,武汉市,黄陂石门,黄陂区,997.6,28.3,64.0,38.02549999999997,24.62542168724612
Q1245,2025-06-03 09:00:00,31.25,114.3386,27.9,武汉市,仁和,黄陂区,1000.3,27.8,65.0,46.85199999999999,24.29107031951446
Q1246,2025-06-03 09:00:00,31.1961,114.4222,55.1,武汉市,帽子村,黄陂区,997.9,27.4,64.0,37.79749999999998,23.363788546954254
Q1247,2025-06-03 09:00:00,30.9967,114.2653,53,武汉市,白庙集,黄陂区,1000.7,27.9,61.0,35.39949999999997,22.9298358614081
Q1248,2025-06-03 09:00:00,30.9969,114.4553,28.8,武汉市,白龙寺,黄陂区,1002.2,28.0,60.0,35.190499999999986,22.68601987181785
Q1250,2025-06-03 09:00:00,30.7614,114.1772,14.3,武汉市,童家湖,黄陂区,1003.2,27.8,62.0,34.24750000000002,23.16994399707533
Q1251,2025-06-03 09:00:00,30.9539,114.6003,55.1,武汉市,艾馆,黄陂区,997.9,27.4,58.0,44.54050000000001,21.17343337067729
Q1252,2025-06-03 09:00:00,30.8608,114.2969,43.9,武汉市,全华,黄陂区,999.5,27.3,66.0,41.27300000000007,23.953006578742627
Q1253,2025-06-03 09:00:00,30.9294,114.3856,35.8,武汉市,下店,黄陂区,1000.5,27.7,62.0,37.647000000000006,23.03484510263513
Q1254,2025-06-03 09:00:00,30.9661,114.2142,32.9,武汉市,黄陂郑店,黄陂区,1000.3,27.6,68.0,36.80949999999998,25.1166062869609
Q1255,2025-06-03 09:00:00,31.2994,114.4211,65.4,武汉市,茶庙,黄陂区,996.7,28.1,63.0,37.13950000000002,23.959717143631398
Q1270,2025-06-03 09:00:00,31.1797,114.2817,337.8,武汉市,木兰天池,黄陂区,969.7,24.8,72.0,43.53049999999999,22.53469193727565
Q1271,2025-06-03 09:00:00,31.1264,114.2086,122,武汉市,云雾山,黄陂区,992.4,26.5,65.0,43.6645,22.505256711602712
Q1301,2025-06-03 09:00:00,30.3508,114.4364,20.5,武汉市,老屋汤,江夏区,1003.6,27.1,55.0,29.048499999999994,19.727804261314983
Q1302,2025-06-03 09:00:00,30.1533,114.2303,42,武汉市,安山,江夏区,1001.4,26.9,60.0,34.82050000000005,21.269619913750358
Q1303,2025-06-03 09:00:00,30.3481,114.1275,27.6,武汉市,金口,江夏区,1003.2,27.8,48.0,25.581999999999976,17.93802115902606
Q1304,2025-06-03 09:00:00,30.285,114.2281,32.6,武汉市,郑店,江夏区,1003.0,27.3,60.0,37.6095,21.77546052612966
Q1305,2025-06-03 09:00:00,30.1131,114.1917,24,武汉市,法泗,江夏区,1003.3,27.8,50.0,28.838499999999986,18.685438707318813
Q1306,2025-06-03 09:00:00,30.3058,114.4239,38.2,武汉市,五里界,江夏区,1001.8,28.0,56.0,35.521,21.17361854703
Q1307,2025-06-03 09:00:00,30.0333,114.3808,40,武汉市,山坡,江夏区,1000.9,27.8,60.0,43.569999999999915,22.422526448782573
Q1308,2025-06-03 09:00:00,30.0231,114.4622,40.8,武汉市,湖泗,江夏区,1001.3,28.2,66.0,48.91700000000004,25.24743640087
Q1309,2025-06-03 09:00:00,30.1494,114.5,32.3,武汉市,舒安,江夏区,1001.8,27.6,56.0,33.862,20.68426400102662
Q1310,2025-06-03 09:00:00,30.2106,114.3286,35,武汉市,乌龙泉,江夏区,1001.9,27.4,59.0,40.538,21.538492566723452
Q1311,2025-06-03 09:00:00,30.4372,114.3781,19.7,武汉市,庙山,江夏区,1003.6,25.8,63.0,30.335500000000007,20.927710534748073
Q1313,2025-06-03 09:00:00,30.2603,114.4494,22.8,武汉市,梁子湖,江夏区,1003.7,27.7,51.0,27.432999999999975,18.948017745715994
Q1314,2025-06-03 09:00:00,30.3864,114.38,22,武汉市,庙山天玺湾,江夏区,1003.7,27.2,59.0,31.54350000000004,21.287224145731095
Q1316,2025-06-03 09:00:00,30.3872,114.3056,26,武汉市,中央大公园,江夏区,1003.6,27.5,58.0,30.44650000000005,21.297891074664044
Q1317,2025-06-03 09:00:00,30.3178,114.2592,28,武汉市,郑店海吉星,江夏区,1003.4,27.1,61.0,35.64349999999999,21.879928362549343
Q1318,2025-06-03 09:00:00,30.3278,114.3869,27,武汉市,五里界锦绣,江夏区,1001.9,27.7,54.0,33.2925,20.06260702487576
Q1319,2025-06-03 09:00:00,30.1294,114.4775,35,武汉市,舒安未来家园,江夏区,1003.2,27.6,63.0,39.85650000000001,23.269797001154945
Q1320,2025-06-03 09:00:00,30.005,114.5111,55,武汉市,湖泗祝祠,江夏区,1000.8,27.0,56.0,34.492999999999974,19.96876659965254
Q1321,2025-06-03 09:00:00,30.0417,114.5383,49,武汉市,舒安嗣孟,江夏区,1001.4,28.9,48.0,29.075500000000016,19.1244093107672
Q1322,2025-06-03 09:00:00,30.2406,114.3142,66,武汉市,乌龙泉茗泉谷,江夏区,1000.1,26.4,60.0,34.19700000000001,20.651787961572953
Q1323,2025-06-03 09:00:00,30.0956,114.3458,24,武汉市,山坡光星,江夏区,1003.7,27.2,61.0,39.309000000000005,22.008824964230456
Q1324,2025-06-03 09:00:00,30.2308,114.4347,24,武汉市,乌龙泉杨湖,江夏区,1003.8,27.5,52.0,30.253999999999998,19.094660963491904
Q1325,2025-06-03 09:00:00,30.2164,114.0742,24,武汉市,金口南岸,江夏区,1003.9,27.0,57.0,34.80100000000007,20.325351717503473
Q1326,2025-06-03 09:00:00,30.2019,114.1539,21,武汉市,金水花篮棚,江夏区,1004.0,27.0,61.0,35.587500000000006,21.751692188907228
Q1327,2025-06-03 09:00:00,30.2031,114.1856,23,武汉市,法泗花莲湖,江夏区,1003.9,27.2,57.0,27.743000000000038,20.565623327231737
Q1328,2025-06-03 09:00:00,30.3664,114.3228,23,武汉市,东湖路学校,江夏区,1003.6,27.7,54.0,31.947499999999994,20.06260702487576
Q1329,2025-06-03 09:00:00,30.2903,114.0978,21.1,武汉市,金口长江,江夏区,1003.6,26.7,63.0,38.07649999999997,22.071603466954215
Q1330,2025-06-03 09:00:00,30.2444,114.1503,23.7,武汉市,马蹄口,江夏区,1003.6,27.0,60.0,33.33050000000002,21.395107071056287
Q1331,2025-06-03 09:00:00,30.2861,114.1775,43.3,武汉市,三门口,江夏区,1001.2,25.7,71.0,38.02199999999993,23.44563291983375
Q1332,2025-06-03 09:00:00,30.1914,114.4686,20.9,武汉市,塘口,江夏区,1003.7,27.1,65.0,46.68350000000004,23.314677763372252
Q1333,2025-06-03 09:00:00,30.1481,114.36,34.1,武汉市,三合,江夏区,1002.3,27.1,59.0,32.879999999999995,21.16255366213789
Q1334,2025-06-03 09:00:00,30.1872,114.3167,41,武汉市,乌龙泉五星,江夏区,1001.5,26.4,61.0,32.255500000000005,20.99598442759917
Q1335,2025-06-03 09:00:00,30.0183,114.25,21.7,武汉市,邓家洲,江夏区,1003.5,26.9,60.0,41.05050000000006,21.269619913750358
Q1336,2025-06-03 09:00:00,30.0481,114.3033,35.5,武汉市,前途,江夏区,1002.0,27.0,60.0,37.7635,21.395107071056287
Q1337,2025-06-03 09:00:00,30.2183,114.2303,28.3,武汉市,涂洲,江夏区,1003.0,27.3,55.0,32.46449999999993,19.960838815618857
Q1338,2025-06-03 09:00:00,30.1039,114.2444,31.2,武汉市,合心,江夏区,1002.6,27.4,55.0,32.34899999999999,20.07825578253881
Q1339,2025-06-03 09:00:00,30.1778,114.3586,32.5,武汉市,沿湖,江夏区,1002.5,26.9,63.0,42.98049999999999,22.333100909437878
Q1340,2025-06-03 09:00:00,30.2194,114.3758,21.5,武汉市,长岭,江夏区,1003.7,27.1,62.0,41.20449999999997,22.238615712755067
Q1341,2025-06-03 09:00:00,30.1742,114.5003,39.8,武汉市,祝庙,江夏区,1001.5,27.8,54.0,32.381000000000014,20.18027380390432
Q1342,2025-06-03 09:00:00,30.0381,114.4119,39.1,武汉市,陈六,江夏区,1001.6,27.3,63.0,41.76199999999998,22.864233552436147
Q1343,2025-06-03 09:00:00,30.3275,114.1272,27.9,武汉市,金口花园,江夏区,1003.1,26.8,56.0,33.63250000000002,19.735124950638443
Q1344,2025-06-03 09:00:00,30.1744,114.2619,26.9,武汉市,安山青春,江夏区,1003.1,26.8,57.0,31.97199999999998,20.087537896185555
Q1345,2025-06-03 09:00:00,30.1472,114.3175,41.3,武汉市,安山英雄,江夏区,1001.5,27.4,58.0,37.29150000000002,21.17343337067729
Q1346,2025-06-03 09:00:00,30.0914,114.3069,40.7,武汉市,周李家,江夏区,1001.5,26.8,59.0,33.216499999999996,20.792363787279786
Q1347,2025-06-03 09:00:00,30.2844,114.3825,35.2,武汉市,狮子山,江夏区,1001.9,27.0,65.0,40.82649999999991,23.178032660310983
Q1348,2025-06-03 09:00:00,30.3039,114.1303,26,武汉市,凉亭,江夏区,1003.6,27.2,58.0,28.948500000000017,20.926423736481414
Q1349,2025-06-03 09:00:00,30.3728,114.1886,24.9,武汉市,金港,江夏区,1003.4,27.0,56.0,32.76199999999996,19.96876659965254
Q1350,2025-06-03 09:00:00,30.0536,114.2386,22.2,武汉市,山坡东方红,江夏区,1003.5,26.7,62.0,40.42349999999999,21.72126055478034
Q1351,2025-06-03 09:00:00,30.1067,114.4064,42.6,武汉市,新生,江夏区,1001.3,27.6,63.0,35.02850000000003,23.269797001154945
Q1352,2025-06-03 09:00:00,30.0669,114.4333,38.5,武汉市,官堤,江夏区,1001.7,28.6,52.0,34.08900000000003,20.360429680158767
Q1353,2025-06-03 09:00:00,30.3608,114.2928,262,武汉市,八分山,江夏区,976.4,25.0,67.0,39.644500000000015,21.221777222454808
Q1354,2025-06-03 09:00:00,30.4092,114.3656,20.7,武汉市,普生园,江夏区,1002.5,27.9,43.0,31.62349999999997,16.16365478754997
Q1401,2025-06-03 09:00:00,30.7736,114.0089,20.9,武汉市,东山,东西湖区,1003.8,28.1,64.0,40.280499999999975,24.34003011416523
Q1402,2025-06-03 09:00:00,30.7692,114.1272,33.6,武汉市,柏泉,东西湖区,1002.8,27.9,67.0,35.779999999999994,25.185229552694143
Q1403,2025-06-03 09:00:00,30.7053,114.0806,21,武汉市,郁金香公园,东西湖区,1004.1,27.7,62.0,33.890875,23.03484510263513
Q1404,2025-06-03 09:00:00,30.6506,114.0136,13,武汉市,走马岭,东西湖区,1003.6,27.9,59.0,36.540999999999954,22.178037964312754
Q1405,2025-06-03 09:00:00,30.7461,113.9286,31.3,武汉市,辛安渡,东西湖区,1003.6,27.4,68.0,44.18316666666665,24.8240253311389
Q1406,2025-06-03 09:00:00,30.6808,114.1228,23,武汉市,径河,东西湖区,1003.4,27.9,59.0,34.91249999999996,22.178037964312754
Q1407,2025-06-03 09:00:00,30.6642,114.2636,16,武汉市,将军路,东西湖区,1003.4,27.1,56.0,32.51349999999999,20.08649161152071
Q1408,2025-06-03 09:00:00,30.7228,114.145,25,武汉市,杜公湖,东西湖区,1003.7,27.9,60.0,38.837500000000055,22.553936912860426
Q1410,2025-06-03 09:00:00,30.6897,113.9931,22,武汉市,新沟,东西湖区,1003.9,27.3,61.0,41.576499999999996,22.138384868231824
Q1411,2025-06-03 09:00:00,30.6919,114.1892,32,武汉市,塔尔头,东西湖区,1003.7,28.0,55.0,35.841,20.795518215833035
Q1412,2025-06-03 09:00:00,30.6422,114.1814,23,武汉市,金银湖,东西湖区,1003.7,28.2,52.0,35.60150000000006,19.891919588564242
Q1413,2025-06-03 09:00:00,30.7642,113.9464,32,武汉市,红星合作社,东西湖区,1003.7,27.1,67.0,44.62850000000003,24.032052463783703
Q1501,2025-06-03 09:00:00,30.3908,113.7656,21,武汉市,成功闸,蔡甸区,1003.4,27.2,63.0,38.971499999999985,22.730425782729817
Q1502,2025-06-03 09:00:00,30.5081,114.0531,30,武汉市,大集,蔡甸区,1002.8,28.0,56.0,34.88499999999997,21.17361854703
Q1503,2025-06-03 09:00:00,30.5236,113.8964,41.3,武汉市,索河,蔡甸区,1002.0,27.2,57.0,37.035499999999914,20.565623327231737
Q1504,2025-06-03 09:00:00,30.3917,113.9786,35,武汉市,桐湖农场,蔡甸区,1003.6,27.7,61.0,40.829000000000015,22.663315342915208
Q1506,2025-06-03 09:00:00,30.3169,113.7728,27,武汉市,消泗,蔡甸区,1003.9,27.4,62.0,39.61499999999997,22.63367015486193
Q1507,2025-06-03 09:00:00,30.4617,113.9281,48.6,武汉市,永安,蔡甸区,1001.1,27.0,62.0,39.05200000000006,22.108277306758165
Q1509,2025-06-03 09:00:00,30.4297,114.0436,31.3,武汉市,奓山,蔡甸区,1002.5,27.7,58.0,38.27799999999995,21.548726063755442
Q1510,2025-06-03 09:00:00,30.4525,113.8792,26.5,武汉市,侏儒,蔡甸区,1003.6,27.4,62.0,42.07899999999995,22.63367015486193
Q1512,2025-06-03 09:00:00,30.3242,113.8619,25,武汉市,沉湖湿地,蔡甸区,1003.3,27.4,61.0,39.657999999999944,22.268610958815774
Q1513,2025-06-03 09:00:00,30.4078,114.0333,37.2,武汉市,千子山,蔡甸区,1001.9,27.3,54.0,28.532999999999987,19.597914473516695
Q1514,2025-06-03 09:00:00,30.4839,113.9544,122,武汉市,九真山,蔡甸区,992.6,25.5,73.0,53.38299999999998,23.821308178358795
Q1515,2025-06-03 09:00:00,30.4467,114.0142,27.3,武汉市,绿茵园,蔡甸区,1003.1,27.3,61.0,33.707000000000015,22.138384868231824
Q1516,2025-06-03 09:00:00,30.4086,113.8017,21.5,武汉市,时光农场,蔡甸区,1003.9,27.8,63.0,37.72649999999993,23.543652771221705
Q1517,2025-06-03 09:00:00,30.4275,113.9525,22.7,武汉市,农耕园,蔡甸区,1003.8,28.1,62.0,45.0284999999999,23.579404173097565
Q1518,2025-06-03 09:00:00,30.4956,114.0656,32.4,武汉市,花博汇,蔡甸区,1003.9,28.2,55.0,37.40149999999997,21.039530334058334
Q1519,2025-06-03 09:00:00,30.5394,113.9619,32,武汉市,鸽翅岭,蔡甸区,1002.7,28.1,60.0,39.86599999999999,22.818778232029903
Q1520,2025-06-03 09:00:00,30.4989,113.9781,22.3,武汉市,景秀大地,蔡甸区,1003.8,27.6,62.0,36.6895,22.900435143993754
Q1521,2025-06-03 09:00:00,30.4289,113.7733,23.2,武汉市,七沟,蔡甸区,1003.7,27.1,65.0,38.117149999999995,23.314677763372252
Q1522,2025-06-03 09:00:00,30.5133,113.8858,27.1,武汉市,香草花田,蔡甸区,1003.2,28.0,59.0,37.26850000000002,22.30791954062089
Q1523,2025-06-03 09:00:00,30.54,113.9247,22.2,武汉市,金龙水寨,蔡甸区,1003.8,27.2,61.0,39.99900000000001,22.008824964230456
Q1524,2025-06-03 09:00:00,30.6244,113.9264,24.8,武汉市,谢八家,蔡甸区,1003.4,27.8,63.0,36.04700000000002,23.543652771221705
Q1525,2025-06-03 09:00:00,30.5567,113.9353,23.3,武汉市,蔡甸野生动物王国,蔡甸区,1003.7,27.7,61.0,41.25900000000004,22.663315342915208
Q1526,2025-06-03 09:00:00,30.5292,114.0256,21.5,武汉市,长江大学,蔡甸区,1003.8,27.6,61.0,42.78,22.531073286832566
Q1527,2025-06-03 09:00:00,30.6311,113.9797,26.1,武汉市,蔡甸汉江堤防,蔡甸区,1003.3,28.3,58.0,37.82799999999998,22.316788404066795
Q1528,2025-06-03 09:00:00,30.5306,114.0786,24.3,武汉市,后官湖湿地公园,蔡甸区,1003.4,27.7,62.0,33.83600000000004,23.03484510263513
Q1529,2025-06-03 09:00:00,30.3156,113.8164,23.3,武汉市,张家大湖,蔡甸区,1003.8,27.4,65.0,44.12799999999996,23.728847743000415
Q1599,2025-06-03 09:00:00,30.5664,114.0289,17.8,武汉市,孙家畈,蔡甸区,1003.4,28.3,60.0,35.83950000000005,23.086332831793236
Q1701,2025-06-03 09:00:00,30.4017,114.4189,30,武汉市,藏龙岛,江夏区,1003.0,26.2,63.0,36.81099999999999,21.42953940824766
Q1702,2025-06-03 09:00:00,30.5039,114.4608,40,武汉市,东湖高新射击场,洪山区,1002.1,28.2,37.0,23.806499999999982,14.153865861093786
Q1703,2025-06-03 09:00:00,30.5972,114.3886,30,武汉市,武汉欢乐谷,洪山区,1003.7,28.6,45.0,31.414499999999993,17.6196026078297
Q1704,2025-06-03 09:00:00,30.57,114.39,30,武汉市,东湖湖心亭,武昌区,1003.5,27.2,56.0,31.617000000000015,20.20482291798206
Q1706,2025-06-03 09:00:00,30.6508,114.3919,30,武汉市,青山沙排中心,青山区,1003.3,27.6,47.0,29.00950000000003,17.36000728657591
Q1707,2025-06-03 09:00:00,30.5,114.5006,50,武汉市,驿山高尔夫,洪山区,999.5,26.9,47.0,24.661000000000023,16.661202265771117
Q1708,2025-06-03 09:00:00,30.5094,114.4117,40,武汉市,华科,武昌区,1002.1,28.0,32.0,21.39249999999998,12.099210598302856
Q1709,2025-06-03 09:00:00,30.4739,114.4547,40,武汉市,省奥体中心,市辖区,1001.0,28.0,41.0,29.980000000000004,15.502113579075532
Q1710,2025-06-03 09:00:00,30.5489,114.3281,30,武汉市,洪山体育馆,武昌区,1002.0,28.3,47.0,29.863499999999945,18.08429405157137
Q1711,2025-06-03 09:00:00,30.5219,114.3725,30,武汉市,武汉体育学院,洪山区,1003.2,28.2,34.0,18.66850000000002,13.006255115599698
Q1712,2025-06-03 09:00:00,30.5383,114.3511,30,武汉市,武大,武昌区,1003.2,28.0,31.0,13.833999999999993,11.72111026710589
Q1713,2025-06-03 09:00:00,30.4508,114.4231,30,武汉市,武汉软件职院,市辖区,1002.4,27.8,40.0,25.9135,14.948350965855052
Q1714,2025-06-03 09:00:00,30.5058,114.325,30,武汉市,武汉理工大学,洪山区,1003.6,28.4,43.0,28.873999999999977,16.64181336954044
Q1715,2025-06-03 09:00:00,30.4414,114.3086,20,武汉市,武汉城市职院,洪山区,1003.8,27.4,57.0,29.521500000000046,20.80837417463113
Q1716,2025-06-03 09:00:00,30.5061,114.1683,30,武汉市,武汉体育中心,汉南区,1003.7,28.1,51.0,35.01150000000001,19.395961497225418
Q1717,2025-06-03 09:00:00,30.4664,114.08,30,武汉市,武汉商学院,汉南区,1003.7,27.4,50.0,35.07849999999994,18.25295980230801
Q1718,2025-06-03 09:00:00,30.5208,114.1497,30,武汉市,江汉大学,汉南区,1003.7,27.4,58.0,32.16600000000002,21.17343337067729
Q1720,2025-06-03 09:00:00,30.6472,114.2831,30,武汉市,全民健身中心,江岸区,1004.0,28.8,37.0,18.066499999999984,14.656467276643381
Q1721,2025-06-03 09:00:00,30.6028,114.2636,30,武汉市,汉口文体中心,江汉区,1003.9,28.0,48.0,34.49449999999999,18.148815897454284
Q1722,2025-06-03 09:00:00,30.5017,114.2308,30,武汉市,汉阳沙排中心,汉阳区,1003.1,27.1,60.0,35.77399999999998,21.521241012343612
Q1723,2025-06-03 09:00:00,30.3978,114.1156,40,武汉市,军山,汉南区,1001.6,27.2,57.0,36.511999999999944,20.565623327231737
Q1724,2025-06-03 09:00:00,30.4764,113.9647,60,武汉市,蔡甸国防园,蔡甸区,1000.6,27.5,57.0,35.631499999999996,20.930686056135354
Q1725,2025-06-03 09:00:00,31.1183,114.4642,50,武汉市,海工大木兰校区,黄陂区,1000.2,27.3,62.0,38.18060833333336,22.501309210333982
Q1726,2025-06-03 09:00:00,30.6378,114.1269,20,武汉市,体育中心,东西湖区,1003.0,28.0,52.0,31.772500000000022,19.66121722224214
Q1727,2025-06-03 09:00:00,30.5425,114.3689,30,武汉市,东湖帆船基地,武昌区,1003.8,27.3,52.0,26.28750000000001,18.872065789312373
Q1728,2025-06-03 09:00:00,30.4408,114.2756,20,武汉市,雷神山,江夏区,1003.7,27.3,62.0,46.22699999999997,22.501309210333982
Q1729,2025-06-03 09:00:00,30.1603,114.1839,47,武汉市,桂子米业,江夏区,1001.3,27.0,62.0,35.737999999999936,22.108277306758165
Q1730,2025-06-03 09:00:00,30.1494,114.4292,40,武汉市,天子山教育基地,江夏区,1002.1,27.0,71.0,37.38550000000001,25.31754336741661
Q1745,2025-06-03 09:00:00,30.5631,114.07,22.1,武汉市,中法生态城,蔡甸区,1003.3,27.9,59.0,33.863999999999976,22.178037964312754
Q1752,2025-06-03 09:00:00,30.6517,114.2239,35,武汉市,马池路,东西湖区,1003.7,28.3,46.0,29.28949999999999,17.69952183770815
Q1753,2025-06-03 09:00:00,30.4872,114.4561,50,武汉市,高新大道,市辖区,1000.2,26.9,52.0,36.704499999999975,18.43367059191698
Q1754,2025-06-03 09:00:00,30.6575,114.4003,60,武汉市,天兴洲大桥,洪山区,998.5,28.4,40.0,22.140500000000024,15.48075662282832
Q1755,2025-06-03 09:00:00,30.5811,114.2161,35,武汉市,知音桥,硚口区,1002.5,28.5,47.0,24.65699999999998,18.29602226163604
Q1756,2025-06-03 09:00:00,30.5656,114.2783,15,武汉市,晴川桥,硚口区,1001.8,27.9,47.0,26.46150000000002,17.667250581740667
Q1759,2025-06-03 09:00:00,30.6036,114.3217,20,武汉市,长江二桥,江岸区,1000.0,27.3,42.0,29.71400000000006,15.242822368290764
Q1760,2025-06-03 09:00:00,30.6294,114.3394,25,武汉市,二七长江大桥,江岸区,999.5,27.5,39.0,17.444499999999998,14.320995722618928
Q1761,2025-06-03 09:00:00,30.5069,114.2625,30,武汉市,杨泗港长江大桥,汉阳区,998.9,26.4,55.0,32.55650000000005,18.930805631441874
Q1762,2025-06-03 09:00:00,30.5339,114.2764,40,武汉市,鹦鹉洲大桥,汉阳区,999.8,26.4,54.0,34.5285,18.58660916541566
Q1763,2025-06-03 09:00:00,30.5872,114.1797,25,武汉市,古田桥,硚口区,1001.8,27.5,50.0,37.41350000000003,18.360250926434524
Q1764,2025-06-03 09:00:00,30.5644,114.2483,35,武汉市,月湖桥,硚口区,1002.2,27.6,49.0,26.210500000000003,18.09873100089829
Q1765,2025-06-03 09:00:00,30.5286,114.3831,11,武汉市,八一路延长线,市辖区,1002.6,28.6,42.0,23.26500000000002,16.444962433974386
Q1766,2025-06-03 09:00:00,30.6058,114.43,20,武汉市,青化立交,洪山区,1002.2,28.6,41.0,31.249999999999964,16.053415709355946
Q1767,2025-06-03 09:00:00,30.6017,114.41,22,武汉市,欢乐大道,市辖区,1002.5,27.9,43.0,31.62349999999997,16.16365478754997
Q1768,2025-06-03 09:00:00,30.6386,114.2514,26,武汉市,姑嫂树立交,东西湖区,1002.0,28.3,42.0,29.791999999999963,16.160432982255266
Q1769,2025-06-03 09:00:00,30.5097,114.3594,18,武汉市,楚康路出口,洪山区,1002.0,27.9,39.0,28.49600000000001,14.660058993359277
Q1770,2025-06-03 09:00:00,30.6083,114.2083,22,武汉市,长丰大道,硚口区,1002.5,28.2,45.0,26.69799999999999,17.214161182411363
Q1771,2025-06-03 09:00:00,30.4992,114.4108,27,武汉市,雄楚大道光谷大道入口,洪山区,1000.0,28.3,32.0,18.20750000000002,12.31271084362306
Q1772,2025-06-03 09:00:00,30.505,114.2844,22,武汉市,白沙洲大道高架,洪山区,1002.6,28.3,53.0,29.395000000000028,20.392927334750695
Q1773,2025-06-03 09:00:00,30.4556,114.3156,6,武汉市,野芷湖立交线,洪山区,1003.7,27.3,62.0,46.22699999999997,22.501309210333982
Q1774,2025-06-03 09:00:00,30.46,114.3883,7,武汉市,庙山立交,江夏区,1002.0,27.9,47.0,27.637500000000045,17.667250581740667
Q1775,2025-06-03 09:00:00,30.5186,114.1814,17,武汉市,汪家咀立交,汉阳区,1002.0,28.6,52.0,33.55299999999999,20.360429680158767
Q1776,2025-06-03 09:00:00,30.5147,114.2403,21,武汉市,四新北路,汉阳区,1002.5,27.8,55.0,31.03850000000001,20.553982578050697
Q1778,2025-06-03 09:00:00,30.5103,114.4556,8,武汉市,老武黄立交,市辖区,1001.2,28.2,41.0,31.893000000000065,15.684013521752574
Q1779,2025-06-03 09:00:00,30.4628,114.2886,13,武汉市,青菱立交,洪山区,1002.8,27.0,60.0,36.499499999999976,21.395107071056287
Q1780,2025-06-03 09:00:00,30.4244,114.3781,25,武汉市,汤逊湖大桥,江夏区,1003.8,28.1,46.0,28.621499999999997,17.49439664455626
Q2004,2025-06-03 09:00:00,32.6525,110.7253,336.4,十堰市,红卫,张湾区,967.8,28.3,43.0,28.49200000000001,16.545205196118484
Q2022,2025-06-03 09:00:00,32.4628,110.7172,643.8,十堰市,小川,茅箭区,935.5,25.3,62.0,35.544000000000004,19.99244418924676
Q2023,2025-06-03 09:00:00,32.6861,110.5586,186.4,十堰市,黄龙,张湾区,983.8,29.1,53.0,36.31300000000001,21.362670686502927
Q2031,2025-06-03 09:00:00,32.4253,111.0228,851,十堰市,紫霄宫,丹江口市,913.3,23.4,81.0,37.997500000000024,23.30621310652306
Q2032,2025-06-03 09:00:00,32.4308,111.0567,588,十堰市,八仙观,丹江口市,943.4,25.3,66.0,36.07099999999999,21.282279298230428
Q2033,2025-06-03 09:00:00,32.4489,111.0708,558,十堰市,太子坡,丹江口市,944.8,25.1,71.0,44.20350000000005,22.62331850483405
Q2034,2025-06-03 09:00:00,32.4978,111.0942,396,十堰市,元和观,丹江口市,961.1,27.9,61.0,39.48600000000008,22.9298358614081
Q2050,2025-06-03 09:00:00,32.6017,110.7742,310,十堰市,火车站小学,茅箭区,971.5,29.0,48.0,32.3475,19.235584845217932
Q2204,2025-06-03 09:00:00,32.7708,111.1592,253.1,十堰市,习家店,丹江口市,977.2,28.2,52.0,39.699499999999986,19.891919588564242
Q2205,2025-06-03 09:00:00,32.7553,111.3811,297,十堰市,石鼓,丹江口市,972.6,28.3,50.0,27.82650000000003,19.238610693161032
Q2206,2025-06-03 09:00:00,32.4447,111.2453,186,十堰市,丁家营,丹江口市,985.1,28.7,54.0,33.502000000000024,21.266708256890137
Q2236,2025-06-03 09:00:00,32.5219,111.0364,179.1,十堰市,蒿口新村,丹江口市,985.4,28.9,59.0,40.248499999999986,23.50708644448468
Q2261,2025-06-03 09:00:00,32.3306,111.1797,503.1,十堰市,马鞍山,丹江口市,950.4,27.1,60.0,33.86049999999993,21.521241012343612
Q2266,2025-06-03 09:00:00,32.5486,111.5125,133.4,十堰市,大坝街道,丹江口市,990.7,29.2,47.0,27.263999999999957,19.054221409188838
Q2309,2025-06-03 09:00:00,32.7992,110.8847,212.2,十堰市,茶店,郧阳区,981.8,28.1,57.0,36.96900000000002,21.677839320428408
Q2324,2025-06-03 09:00:00,32.8525,111.0044,221,十堰市,安阳,郧阳区,980.0,28.4,55.0,38.94050000000001,21.286040356388938
Q2326,2025-06-03 09:00:00,32.8278,110.3708,193.5,十堰市,五峰,郧阳区,984.1,27.9,55.0,36.66599999999999,20.67444217012206
Q2334,2025-06-03 09:00:00,33.0756,110.735,834.7,十堰市,塘上,郧阳区,914.6,25.0,45.0,23.52999999999999,14.253432462842781
Q2350,2025-06-03 09:00:00,32.8653,110.6186,244.8,十堰市,韩家沟,郧阳区,979.0,27.8,58.0,36.72150000000004,21.67510890048982
Q2353,2025-06-03 09:00:00,32.5125,110.4669,537.4,十堰市,毛河,郧阳区,946.7,25.4,61.0,36.54,19.787424520073742
Q2401,2025-06-03 09:00:00,33.0742,110.0211,273.4,十堰市,上津,郧西县,975.3,27.7,55.0,39.411499999999954,20.43413678459568
Q2402,2025-06-03 09:00:00,33.0053,110.2311,374.2,十堰市,马安,郧西县,964.4,25.4,73.0,45.696500000000036,23.68003262238333
Q2403,2025-06-03 09:00:00,33.0589,110.3233,364.3,十堰市,土门,郧西县,965.2,26.4,61.0,34.42050000000003,20.99598442759917
Q2405,2025-06-03 09:00:00,32.9978,110.0711,264.9,十堰市,六郎,郧西县,973.3,27.1,59.0,40.43999999999998,21.16255366213789
Q2409,2025-06-03 09:00:00,33.1683,110.5619,838.1,十堰市,三官,郧西县,913.9,24.2,61.0,32.939499999999946,18.417852697336084
Q2411,2025-06-03 09:00:00,33.2025,109.9003,794,十堰市,槐树,郧西县,919.4,24.7,57.0,34.20149999999998,17.733610825908666
Q2423,2025-06-03 09:00:00,32.9303,110.5283,273,十堰市,河夹,郧西县,972.8,28.4,47.0,34.619999999999955,18.189889031823274
Q2424,2025-06-03 09:00:00,33.1942,109.575,890.6,十堰市,湖北口,郧西县,909.1,25.3,51.0,33.264000000000024,16.445397639541692
Q2433,2025-06-03 09:00:00,33.1864,109.75,640,十堰市,包耳场,郧西县,935.5,25.4,52.0,33.09099999999997,16.86796844334155
Q2502,2025-06-03 09:00:00,32.2775,110.6972,669.3,十堰市,土城,房县,932.6,26.1,64.0,33.33949999999994,21.64125014113739
Q2503,2025-06-03 09:00:00,32.1378,111.0931,843.6,十堰市,沙河,房县,914.2,24.4,58.0,30.351999999999993,17.72344923903201
Q2504,2025-06-03 09:00:00,32.2108,110.9142,711.4,十堰市,卧牛观,房县,927.8,26.2,50.0,24.169500000000042,17.007570958926713
Q2505,2025-06-03 09:00:00,32.0058,110.4417,624.2,十堰市,门古寺,房县,938.0,25.0,68.0,52.613000000000014,21.538520166073543
Q2507,2025-06-03 09:00:00,32.0336,110.6253,495.7,十堰市,军店,房县,951.3,25.4,59.0,33.896999999999984,19.13865650302214
Q2509,2025-06-03 09:00:00,32.0064,110.28,795.4,十堰市,中坝,房县,919.0,23.4,68.0,58.50899999999996,19.565709768439117
Q2524,2025-06-03 09:00:00,31.9419,110.9697,415,十堰市,三里坪,房县,960.1,26.4,65.0,36.72299999999994,22.372770291704036
Q2528,2025-06-03 09:00:00,32.0997,110.7728,464.5,十堰市,白鹤,房县,954.8,26.7,55.0,35.00900000000001,19.268860169563204
Q2530,2025-06-03 09:00:00,32.1044,110.5331,563.7,十堰市,汪家河,房县,944.1,26.6,59.0,34.76500000000001,20.548727599795143
Q2532,2025-06-03 09:00:00,32.3347,110.3903,265,十堰市,对寺河,房县,977.6,27.5,58.0,36.52713333333334,21.297891074664044
Q2541,2025-06-03 09:00:00,31.8828,110.5647,991.9,十堰市,三座庵,房县,900.2,22.9,75.0,39.715999999999994,20.936669844736482
Q2546,2025-06-03 09:00:00,31.9833,110.7353,737,十堰市,南潭,房县,925.6,23.6,77.0,42.51450000000004,22.424345998018012
Q2548,2025-06-03 09:00:00,32.2303,110.7133,592.3,十堰市,白鸡,房县,940.7,25.7,66.0,33.016999999999946,21.7945320099863
Q2559,2025-06-03 09:00:00,31.8842,110.7753,1359,十堰市,东蒿,房县,861.6,20.2,76.0,37.986,17.982122515717165
Q2605,2025-06-03 09:00:00,31.7169,110.0508,523.7,十堰市,柳林,竹山县,948.8,24.1,66.0,43.73949999999998,19.808182504671816
Q2623,2025-06-03 09:00:00,32.4331,109.82,580.3,十堰市,秦古,竹山县,942.3,26.1,62.0,40.65499999999997,20.964961074226846
Q2624,2025-06-03 09:00:00,32.3533,109.9286,513.9,十堰市,擂鼓,竹山县,949.4,26.5,55.0,38.48550000000002,19.042909525202294
Q2626,2025-06-03 09:00:00,32.2786,110.0842,508.8,十堰市,溢水,竹山县,949.9,25.8,63.0,39.597999999999985,20.927710534748073
Q2628,2025-06-03 09:00:00,32.1117,110.2306,361,十堰市,深河,竹山县,966.5,26.1,67.0,40.139999999999986,22.655683741503207
Q2655,2025-06-03 09:00:00,32.23,110.1844,273.8,十堰市,潘口,竹山县,975.7,27.1,60.0,42.413999999999994,21.521241012343612
Q2676,2025-06-03 09:00:00,32.2256,110.2261,307,十堰市,北大街,竹山县,972.1,27.4,55.0,35.46150000000001,20.07825578253881
Q2701,2025-06-03 09:00:00,32.3569,109.6453,563.6,十堰市,龙坝,竹溪县,943.8,27.0,54.0,40.96449999999998,19.255596363950662
Q2721,2025-06-03 09:00:00,32.0428,109.6986,849.5,十堰市,泉溪,竹溪县,914.0,22.8,70.0,57.027499999999975,19.422735202437458
Q2745,2025-06-03 09:00:00,32.1683,109.5989,655.4,十堰市,界牌沟,竹溪县,935.3,24.0,75.0,54.68000000000002,22.374407286136094
Q2748,2025-06-03 09:00:00,31.9983,109.7814,498.9,十堰市,天宝,竹溪县,950.0,23.6,81.0,44.99600000000001,23.589247088824145
Q2757,2025-06-03 09:00:00,31.8119,109.7686,1063.6,十堰市,高子河,竹溪县,892.3,20.7,83.0,57.18850000000004,20.254242787815762
Q2903,2025-06-03 09:00:00,31.5953,110.8861,716.7,省直辖县级行政区划,新华,神农架林区,927.5,24.8,56.0,29.654500000000002,17.526982617881064
Q2906,2025-06-03 09:00:00,31.5622,110.5533,1398.1,省直辖县级行政区划,徐家庄,神农架林区,857.5,18.6,76.0,25.94149999999999,16.277336008013293
Q2910,2025-06-03 09:00:00,31.4828,110.3786,1245,省直辖县级行政区划,木鱼,神农架林区,871.5,20.7,67.0,23.59150000000001,16.34981044317658
Q2912,2025-06-03 09:00:00,31.6119,110.3383,2597.4,省直辖县级行政区划,神农架机场,神农架林区,744.5,11.4,47.0,8.664499999999999,6.331228643128505
Q2916,2025-06-03 09:00:00,31.4089,110.1781,1026.6,省直辖县级行政区划,板桥,神农架林区,895.7,20.8,77.0,37.27549999999995,18.906218267814232
Q2923,2025-06-03 09:00:00,31.5508,110.3911,2285,省直辖县级行政区划,牛场坪,神农架林区,772.6,14.0,47.0,11.542499999999997,7.5077100315345575
Q2925,2025-06-03 09:00:00,31.4083,110.5553,699.8,省直辖县级行政区划,九冲,神农架林区,929.6,22.3,75.0,36.544999999999995,20.187099518801418
Q2933,2025-06-03 09:00:00,31.4958,109.9953,1752,省直辖县级行政区划,大九湖,神农架林区,823.8,16.7,61.0,23.738999999999997,11.588845597103015
Q2940,2025-06-03 09:00:00,31.3992,110.475,819.5,省直辖县级行政区划,红花,神农架林区,916.8,21.5,74.0,32.034000000000056,18.967988313858616
Q2950,2025-06-03 09:00:00,31.7328,110.8061,498,省直辖县级行政区划,阳日,神农架林区,951.0,25.5,65.0,36.46750000000003,21.210753857442764
Q2957,2025-06-03 09:00:00,31.5144,110.3881,1569,省直辖县级行政区划,青天袍,神农架林区,843.0,19.3,61.0,25.032999999999998,13.648646762680292
Q3005,2025-06-03 09:00:00,31.9889,112.0322,107.3,襄阳市,隆中,襄城区,993.9,27.1,67.0,45.73900000000003,24.032052463783703
Q3008,2025-06-03 09:00:00,32.0283,112.1664,68.6,襄阳市,襄阳老站,襄城区,998.3,29.2,42.0,30.405500000000025,17.02717657842407
Q3012,2025-06-03 09:00:00,32.1517,112.2992,70.1,襄阳市,刘集小学,襄州区,997.8,29.0,55.0,37.4925,22.040774301812217
Q3100,2025-06-03 09:00:00,32.0631,112.2203,69.7,襄阳市,东津,襄州区,997.8,29.1,52.0,37.516499999999986,20.95960142826702
Q3101,2025-06-03 09:00:00,32.2967,112.3483,79,襄阳市,朱集,襄州区,997.2,28.5,48.0,34.95449999999999,18.685299331032553
Q3103,2025-06-03 09:00:00,31.9919,112.3706,93,襄阳市,峪山,襄州区,996.2,29.3,46.0,32.87999999999997,18.75698415743049
Q3104,2025-06-03 09:00:00,32.2089,111.9589,86,襄阳市,龙王,襄州区,994.9,30.3,42.0,33.988,18.141444367716442
Q3106,2025-06-03 09:00:00,31.9858,112.4556,84.6,襄阳市,黄龙,襄州区,993.9,29.4,48.0,28.66849999999999,19.68595132328099
Q3107,2025-06-03 09:00:00,32.3633,111.9611,110.7,襄阳市,石桥,襄州区,993.4,30.2,39.0,31.62500000000001,16.749184450126794
Q3108,2025-06-03 09:00:00,32.2664,112.4508,114.6,襄阳市,程河,襄州区,993.8,29.8,38.0,27.866499999999995,15.948518870440635
Q3109,2025-06-03 09:00:00,32.1878,112.1847,108.3,襄阳市,伙牌,襄州区,993.6,30.1,41.0,42.35649999999994,17.507235732693847
Q3112,2025-06-03 09:00:00,32.0886,112.1903,65.4,襄阳市,张湾,襄州区,998.2,29.6,43.0,31.80549999999996,17.8401330879095
Q3113,2025-06-03 09:00:00,32.3253,112.1328,142.2,襄阳市,黄集,襄州区,990.0,30.1,33.0,26.734500000000022,14.091189736070659
Q3202,2025-06-03 09:00:00,31.9703,112.75,167.5,襄阳市,枣阳吴店,枣阳市,987.0,28.0,56.0,34.20700000000009,21.17361854703
Q3203,2025-06-03 09:00:00,32.2017,112.5589,131,襄阳市,七方,枣阳市,990.8,29.5,37.0,21.370999999999995,15.262477769866475
Q3206,2025-06-03 09:00:00,32.3414,112.9942,241.1,襄阳市,枣阳新市,枣阳市,978.3,30.9,26.0,22.66599999999999,11.623015825283096
Q3207,2025-06-03 09:00:00,32.12,112.8781,156,襄阳市,刘升榆树,枣阳市,987.4,30.2,36.0,20.318999999999985,15.460785646270887
Q3212,2025-06-03 09:00:00,32.0417,112.5906,72,襄阳市,琚湾,枣阳市,995.9,28.5,54.0,38.748000000000005,21.020961747411622
Q3217,2025-06-03 09:00:00,32.3253,112.8719,177.3,襄阳市,姚棚水库,枣阳市,985.5,31.4,28.0,23.163499999999978,12.879218460374975
Q3218,2025-06-03 09:00:00,31.8503,112.8028,140,襄阳市,唐店,枣阳市,989.7,28.7,60.0,37.01399999999997,23.629675840989037
Q3222,2025-06-03 09:00:00,31.9303,112.5761,156,襄阳市,耿集,枣阳市,987.9,28.1,54.0,32.36350000000007,20.536900408826913
Q3237,2025-06-03 09:00:00,31.9519,112.9217,115,襄阳市,王城,枣阳市,992.5,28.3,61.0,36.82799999999995,23.471105045656458
Q3240,2025-06-03 09:00:00,32.1411,112.7553,125.5,襄阳市,北城,枣阳市,991.5,30.1,40.0,31.987000000000016,17.080229983115952
Q3305,2025-06-03 09:00:00,32.4536,111.7536,153.1,襄阳市,老河口半店,老河口市,987.9,29.2,48.0,26.28749999999998,19.459630375341792
Q3309,2025-06-03 09:00:00,32.3367,111.7022,90,襄阳市,方营,老河口市,995.9,29.8,59.0,43.25500000000001,24.762174035684144
Q3311,2025-06-03 09:00:00,32.3472,111.6742,80.3,襄阳市,老河口黄营,老河口市,996.2,29.2,61.0,46.62850000000004,24.729946935330194
Q3314,2025-06-03 09:00:00,32.4319,111.8458,148.3,襄阳市,农垦示范园,老河口市,989.2,29.9,41.0,23.22300000000001,17.30698560199444
Q3315,2025-06-03 09:00:00,32.5408,111.6622,163.3,襄阳市,老河口黑虎山水库,老河口市,987.0,30.4,43.0,26.882999999999996,18.68025147635579
Q3317,2025-06-03 09:00:00,32.5203,111.7786,145.2,襄阳市,古城水库,老河口市,989.1,30.0,38.0,23.16950000000003,16.133186682878094
Q3318,2025-06-03 09:00:00,32.4217,111.6878,84.4,襄阳市,老河口西关,老河口市,995.0,28.5,62.0,41.68250000000011,24.135178302583714
Q3321,2025-06-03 09:00:00,32.38,111.67,90,襄阳市,老河口老站,老河口市,995.6,29.7,43.0,29.761000000000045,17.943310362338686
Q3326,2025-06-03 09:00:00,32.2931,111.7247,89,襄阳市,白鹤岗,老河口市,996.0,28.4,52.0,38.12799999999998,20.124983609676814
Q3401,2025-06-03 09:00:00,32.2931,111.3314,180,襄阳市,五山,谷城县,986.2,28.9,61.0,38.17450000000004,24.303936832433315
Q3404,2025-06-03 09:00:00,32.1678,111.4981,146.4,襄阳市,谷城南河,谷城县,989.2,29.8,49.0,33.1145,20.565195385568188
Q3405,2025-06-03 09:00:00,31.9917,111.4303,518,襄阳市,赵湾,谷城县,949.1,26.3,56.0,33.5825,19.16144802958148
Q3409,2025-06-03 09:00:00,32.1725,111.4061,701.7,襄阳市,薤山,谷城县,929.0,25.5,66.0,33.06449999999993,21.53707314755727
Q3413,2025-06-03 09:00:00,32.0483,111.8314,158,襄阳市,茨河,谷城县,988.0,28.6,50.0,40.301500000000004,19.57733623092189
Q3420,2025-06-03 09:00:00,32.1342,111.3078,247.7,襄阳市,紫金,谷城县,975.5,29.2,46.0,33.265999999999984,18.648812443035887
Q3501,2025-06-03 09:00:00,31.9906,111.1233,275,襄阳市,寺坪,保康县,975.5,27.5,61.0,41.36250000000001,22.399506130250117
Q3516,2025-06-03 09:00:00,31.5581,111.3953,660,襄阳市,两峪,保康县,932.8,26.3,52.0,29.75700000000001,17.792773170325656
Q3517,2025-06-03 09:00:00,31.6419,111.1967,796,襄阳市,歇马毛家岭,保康县,918.0,25.6,51.0,30.13200000000002,16.741497986939905
Q3520,2025-06-03 09:00:00,31.4017,111.2936,997,襄阳市,保康天宝寨,保康县,898.4,24.2,51.0,27.6485,15.398532583018692
Q3525,2025-06-03 09:00:00,31.4942,111.3539,292,襄阳市,马良产业园,保康县,973.8,28.0,69.0,52.39599999999994,26.08892285259053
Q3545,2025-06-03 09:00:00,31.8447,110.8022,1576,襄阳市,尧治河,保康县,840.4,19.7,53.0,20.503999999999987,12.157428341451583
Q3555,2025-06-03 09:00:00,31.68,111.0128,1064,襄阳市,团结,保康县,889.0,22.8,58.0,26.76700000000002,16.09312345344818
Q3606,2025-06-03 09:00:00,31.6647,111.9922,120,襄阳市,武镇,南漳县,992.9,27.7,68.0,45.66450000000003,25.264023660954663
Q3608,2025-06-03 09:00:00,31.3292,111.8253,183,襄阳市,东巩,南漳县,982.0,26.9,64.0,39.615,22.68759457466705
Q3617,2025-06-03 09:00:00,31.6231,111.6778,820,襄阳市,薛坪,南漳县,917.2,24.0,65.0,35.97900000000005,19.39115298131795
Q3618,2025-06-03 09:00:00,31.7775,111.5617,254,襄阳市,长坪,南漳县,979.4,25.4,75.0,51.321,24.328800639434924
Q3623,2025-06-03 09:00:00,31.5489,111.8342,343.2,襄阳市,南漳大坪,南漳县,967.8,26.1,67.0,40.97000000000007,22.655683741503207
Q3632,2025-06-03 09:00:00,31.9058,111.6194,271.6,襄阳市,赵店,南漳县,975.5,28.3,58.0,30.809999999999988,22.316788404066795
Q3641,2025-06-03 09:00:00,31.4556,111.6847,342,襄阳市,漫云,南漳县,967.5,26.8,57.0,36.70150000000005,20.087537896185555
Q3748,2025-06-03 09:00:00,31.6356,112.5942,141,襄阳市,高楼,宜城市,990.2,27.6,57.0,26.902500000000014,21.053625858187807
Q3750,2025-06-03 09:00:00,31.5681,112.2661,55,襄阳市,孔湾,宜城市,999.9,28.3,60.0,41.000999999999976,23.086332831793236
Q3751,2025-06-03 09:00:00,31.7467,112.4303,89,襄阳市,二库,宜城市,995.6,28.6,53.0,33.1235,20.751976404777203
Q3752,2025-06-03 09:00:00,31.4622,111.9878,177.5,襄阳市,小南河,宜城市,986.3,26.3,74.0,48.574000000000034,25.320484896232664
Q3760,2025-06-03 09:00:00,31.4853,112.0169,159,襄阳市,刘猴,宜城市,988.9,27.2,66.0,48.86900000000006,23.812827010478856
Q3770,2025-06-03 09:00:00,31.7736,112.0389,94,襄阳市,谭湾,宜城市,994.9,29.2,44.0,28.50999999999999,17.837994510729978
Q3782,2025-06-03 09:00:00,31.8692,112.2653,86,襄阳市,联合,宜城市,995.9,28.9,52.0,34.85550000000003,20.718110086664467
Q3792,2025-06-03 09:00:00,31.5683,112.455,62,襄阳市,流水,宜城市,999.8,26.9,69.0,43.28649999999997,24.46006290081291
Q3802,2025-06-03 09:00:00,32.0808,113.5014,145.6,随州市,殷店,随县,988.7,28.9,56.0,35.45649999999996,22.311810862561735
Q3803,2025-06-03 09:00:00,31.6611,112.9072,154.4,随州市,洪山,随县,988.5,28.5,55.0,37.856499999999976,21.410238816808135
Q3804,2025-06-03 09:00:00,31.5336,113.2278,120,随州市,柳林,随县,991.9,29.5,52.0,32.64950000000001,21.449968757650183
Q3805,2025-06-03 09:00:00,32.0003,113.105,127.7,随州市,唐镇,随县,991.5,29.6,52.0,33.94550000000003,21.574114431890564
Q3807,2025-06-03 09:00:00,31.8839,113.3125,92,随州市,厉山,随县,995.7,29.2,51.0,33.48049999999995,20.675857273800652
Q3809,2025-06-03 09:00:00,32.3436,113.6333,153.8,随州市,淮河,随县,988.0,29.3,53.0,35.357500000000016,21.611307833561217
Q3812,2025-06-03 09:00:00,31.8386,113.5169,115,随州市,万店,曾都区,992.2,31.1,50.0,36.22949999999997,22.608684693271936
Q3815,2025-06-03 09:00:00,31.8106,113.0514,115.3,随州市,澴潭,随县,992.7,29.9,56.0,39.685499999999976,23.63880960272412
Q3820,2025-06-03 09:00:00,32.1531,113.0822,215.4,随州市,吴山,随县,981.4,29.1,39.0,24.8575,15.719701071200266
Q3823,2025-06-03 09:00:00,31.7278,113.2831,64.1,随州市,南郊,曾都区,998.3,30.4,52.0,43.83700000000001,22.590071552802353
Q3829,2025-06-03 09:00:00,31.61,113.4317,85,随州市,大堰坡,曾都区,996.6,28.9,58.0,42.96050000000002,23.108661250510362
Q3830,2025-06-03 09:00:00,31.53,112.9711,228.2,随州市,长岗,随县,980.1,28.3,55.0,38.09649999999997,21.162471762477136
Q3831,2025-06-03 09:00:00,31.7164,113.3869,96.2,随州市,雷达站,曾都区,994.8,30.0,50.0,39.57399999999996,21.22787721431328
Q3832,2025-06-03 09:00:00,31.4911,113.5678,65.8,随州市,府河,曾都区,998.1,29.5,55.0,36.688000000000045,22.687466955206926
Q3836,2025-06-03 09:00:00,32.3561,113.1931,215.4,随州市,新城,随县,981.3,29.4,41.0,27.58400000000004,16.815083421969174
Q3844,2025-06-03 09:00:00,31.5131,113.0106,274.3,随州市,东庄畈,随县,975.0,28.1,61.0,38.585999999999984,23.199091202563736
Q3845,2025-06-03 09:00:00,31.6922,113.3744,78.4,随州市,城南新区,曾都区,996.6,30.7,52.0,39.3645,22.981680246432216
Q3847,2025-06-03 09:00:00,31.4867,112.9781,1042,随州市,金顶,随县,892.7,22.1,29.0,12.644499999999987,7.711109454796508
Q3852,2025-06-03 09:00:00,31.9353,113.3081,122.2,随州市,王家河,随县,991.8,28.6,59.0,41.801500000000004,23.101256752487828
Q3853,2025-06-03 09:00:00,31.4347,113.2972,175.7,随州市,银杏谷,曾都区,985.4,29.2,59.0,34.859500000000004,23.919129003024285
Q3854,2025-06-03 09:00:00,31.4703,112.9844,467.3,随州市,自在谷,随县,954.0,24.3,59.0,25.334499999999963,17.921224933321508
Q3855,2025-06-03 09:00:00,31.4778,112.9647,981.1,随州市,状元台,随县,899.5,21.5,43.0,16.028499999999983,11.021939155350276
Q3856,2025-06-03 09:00:00,31.7839,113.3958,105.4,随州市,北郊,曾都区,993.7,30.4,49.0,33.37749999999997,21.286798193986833
Q3857,2025-06-03 09:00:00,31.7206,113.3617,64.5,随州市,西城,曾都区,998.2,28.8,57.0,39.36749999999999,22.578882020774937
Q3901,2025-06-03 09:00:00,31.7872,113.6322,109.6,随州市,余店,广水市,993.1,29.8,54.0,35.2365,22.663684710626168
Q3902,2025-06-03 09:00:00,31.4711,113.5781,47.3,随州市,长岭,广水市,1000.1,29.9,52.0,39.05400000000002,21.95032320252954
Q3909,2025-06-03 09:00:00,31.7264,113.8322,120,随州市,蔡河,广水市,992.3,29.1,62.0,44.910000000000025,24.990294010626062
Q3911,2025-06-03 09:00:00,31.4608,113.9217,46.4,随州市,太平,广水市,998.5,29.1,64.0,48.57599999999992,25.796432527097874
Q3913,2025-06-03 09:00:00,31.7358,114.0353,100,随州市,武胜关,广水市,993.3,28.3,62.0,35.028000000000056,23.85587725951968
Q3918,2025-06-03 09:00:00,31.62,113.82,93.3,随州市,应山,广水市,995.0,29.3,54.0,41.15099999999995,22.019068358722752
Q3924,2025-06-03 09:00:00,32.0019,113.7164,203.6,随州市,尹家湾,广水市,982.4,28.5,57.0,40.211000000000006,22.188792955601155
Q4000,2025-06-03 09:00:00,30.7433,111.2694,67.8,宜昌市,葛洲坝,西陵区,998.7,27.2,68.0,39.677000000000035,24.534427828978217
Q4001,2025-06-03 09:00:00,30.6589,111.3303,56.3,宜昌市,王家河公园,伍家岗区,1000.4,28.1,58.0,43.356499999999926,22.058152290962237
Q4002,2025-06-03 09:00:00,30.7186,111.3436,160,宜昌市,窑湾,西陵区,987.0,27.4,59.0,45.06299999999996,21.538492566723452
Q4003,2025-06-03 09:00:00,30.5061,111.4444,42.6,宜昌市,猇亭,猇亭区,1000.9,28.6,50.0,33.011999999999986,19.57733623092189
Q4005,2025-06-03 09:00:00,30.6931,111.0022,615,宜昌市,土城,点军区,938.4,24.7,74.0,41.98349999999998,23.02258247574108
Q4015,2025-06-03 09:00:00,30.7067,111.2972,116.6,宜昌市,白龙岗公园,西陵区,991.7,28.2,54.0,35.90550000000004,20.656993418893638
Q4019,2025-06-03 09:00:00,30.6183,111.3422,87,宜昌市,艾家小学,点军区,996.5,27.9,54.0,36.38799999999998,20.298543221574384
Q4022,2025-06-03 09:00:00,30.5697,111.3964,78.5,宜昌市,猇亭古战场,猇亭区,997.5,28.8,55.0,43.991499999999924,21.786640546361784
Q4023,2025-06-03 09:00:00,30.6519,111.205,100,宜昌市,长岭,点军区,995.0,28.0,64.0,37.154500000000034,24.19842119660571
Q4025,2025-06-03 09:00:00,30.7389,111.2333,98.8,宜昌市,鸣翠谷,点军区,995.2,26.5,78.0,50.15299999999996,27.006308053923252
Q4026,2025-06-03 09:00:00,30.7417,111.3144,86.3,宜昌市,沙河公园,西陵区,996.7,28.2,62.0,32.18000000000007,23.71728874021121
Q4032,2025-06-03 09:00:00,30.7086,111.2361,78.9,宜昌市,宜昌一中,点军区,997.4,28.5,57.0,43.30699999999993,22.188792955601155
Q4033,2025-06-03 09:00:00,30.6853,111.3367,84.3,宜昌市,水井湾,伍家岗区,996.9,26.5,71.0,39.79700000000004,24.58266502344296
Q4034,2025-06-03 09:00:00,30.6161,111.4,62.5,宜昌市,龙盘湖,伍家岗区,999.3,27.7,65.0,37.22650000000004,24.149434381794897
Q4035,2025-06-03 09:00:00,30.6478,111.3658,88.6,宜昌市,碧桂园公园,伍家岗区,996.4,28.2,58.0,43.70799999999994,22.187141079552422
Q4036,2025-06-03 09:00:00,30.6967,111.3817,113,宜昌市,夷陵中学,夷陵区,993.7,27.0,65.0,40.310000000000045,23.178032660310983
Q4037,2025-06-03 09:00:00,30.7214,111.1625,389.1,宜昌市,李家咀,点军区,963.1,26.5,69.0,51.468499999999985,23.890195586162875
Q4105,2025-06-03 09:00:00,30.8789,110.9697,215,宜昌市,太平溪,夷陵区,982.6,26.5,65.0,47.285499999999985,22.505256711602712
Q4109,2025-06-03 09:00:00,31.2667,111.15,1162,宜昌市,樟村坪林场,夷陵区,882.6,20.6,73.0,38.45749999999995,17.704461824967744
Q4111,2025-06-03 09:00:00,30.6117,111.5211,109.2,宜昌市,鸦鹊岭,夷陵区,994.2,28.0,53.0,29.169500000000003,20.039317553439105
Q4112,2025-06-03 09:00:00,30.9667,110.9878,990,宜昌市,王家垭,夷陵区,899.6,22.8,60.0,28.88550000000002,16.648058744946393
Q4113,2025-06-03 09:00:00,30.9228,110.9672,855,宜昌市,古村坪,夷陵区,913.1,22.8,52.0,27.94800000000003,14.428317578953543
Q4115,2025-06-03 09:00:00,30.96,111.5114,1251.8,宜昌市,百里荒,夷陵区,871.7,19.4,67.0,27.5225,15.084786468561248
Q4120,2025-06-03 09:00:00,31.1456,111.0747,1068.2,宜昌市,秀水,夷陵区,890.7,22.2,58.0,27.939500000000017,15.516535343509299
Q4127,2025-06-03 09:00:00,31.0511,111.4406,402,宜昌市,十字沟,夷陵区,962.0,26.5,63.0,32.250499999999995,21.812787274322627
Q4131,2025-06-03 09:00:00,31.0117,111.3114,945,宜昌市,二户坪,夷陵区,905.1,22.4,55.0,22.31600000000001,14.894271262359398
Q4140,2025-06-03 09:00:00,30.9325,111.3158,169.1,宜昌市,三峡大瀑布,夷陵区,985.2,25.0,84.0,54.401499999999906,26.606407263973193
Q4146,2025-06-03 09:00:00,30.9192,111.0428,403,宜昌市,沙坪,夷陵区,961.7,25.5,70.0,44.94049999999996,22.84235030801528
Q4148,2025-06-03 09:00:00,31.0078,110.9369,705.9,宜昌市,黄金河,夷陵区,929.0,23.6,71.0,40.08800000000005,20.676994361808816
Q4150,2025-06-03 09:00:00,31.4353,111.2158,1098.9,宜昌市,古村,夷陵区,887.7,23.0,60.0,26.540000000000028,16.85115241826714
Q4153,2025-06-03 09:00:00,31.2117,111.2406,1073.1,宜昌市,马卧泥,夷陵区,890.6,22.6,58.0,27.947999999999976,15.898875916963656
Q4154,2025-06-03 09:00:00,30.7428,111.5075,108.8,宜昌市,青龙,夷陵区,994.1,28.1,53.0,29.527,20.15658743829308
Q4201,2025-06-03 09:00:00,30.3053,110.4817,705.3,宜昌市,傅家堰,五峰土家族自治县,927.8,24.1,67.0,36.63749999999999,20.108306482015326
Q4202,2025-06-03 09:00:00,30.1778,110.8722,1004.1,宜昌市,长乐坪,五峰土家族自治县,898.0,22.7,47.0,26.247500000000013,12.962066235403572
Q4203,2025-06-03 09:00:00,30.0528,110.4344,1139.2,宜昌市,湾潭,五峰土家族自治县,881.7,22.2,45.0,19.96199999999998,12.038691214791697
Q4204,2025-06-03 09:00:00,30.1022,111.2453,591.9,宜昌市,仁和坪,五峰土家族自治县,941.1,25.2,48.0,27.003499999999985,15.386090497574129
Q4205,2025-06-03 09:00:00,30.2381,110.3611,1830.5,宜昌市,牛庄,五峰土家族自治县,815.5,16.6,52.0,15.689500000000008,9.816409080999739
Q4206,2025-06-03 09:00:00,30.2056,110.445,506.8,宜昌市,采花,五峰土家族自治县,950.4,25.2,73.0,45.42299999999998,23.399679298393988
Q4207,2025-06-03 09:00:00,30.1831,111.075,255.1,宜昌市,渔关,五峰土家族自治县,977.5,28.9,45.0,32.32350000000003,17.92913372884425
Q4208,2025-06-03 09:00:00,30.0797,110.9669,853.1,宜昌市,清水湾,五峰土家族自治县,912.6,24.3,45.0,25.241,13.668730881346912
Q4209,2025-06-03 09:00:00,30.0789,110.6214,952.7,宜昌市,后河,五峰土家族自治县,903.0,19.5,77.0,37.83825000000001,17.444464323545134
Q4210,2025-06-03 09:00:00,30.2494,110.6283,564.8,宜昌市,水浕司,五峰土家族自治县,944.0,25.5,66.0,38.55600000000002,21.53707314755727
Q4213,2025-06-03 09:00:00,30.14,110.5681,2213.7,宜昌市,北风垭,五峰土家族自治县,779.2,13.2,55.0,15.547499999999987,8.339822265260072
Q4214,2025-06-03 09:00:00,30.2553,111.02,737.6,宜昌市,涨水坪,五峰土家族自治县,925.9,25.2,43.0,26.22550000000003,13.783372737410158
Q4215,2025-06-03 09:00:00,30.2011,110.9022,1031,宜昌市,三教庙,五峰土家族自治县,894.3,22.8,44.0,25.655999999999963,12.208576412960689
Q4218,2025-06-03 09:00:00,30.3589,110.4706,1157.3,宜昌市,大龙坪,五峰土家族自治县,882.2,22.7,31.0,15.428999999999998,8.549447942500228
Q4238,2025-06-03 09:00:00,30.1997,110.4069,1174.1,宜昌市,万里,五峰土家族自治县,880.3,21.6,57.0,21.201999999999963,14.70023585312696
Q4249,2025-06-03 09:00:00,30.2219,110.8947,1259,宜昌市,柴埠溪,五峰土家族自治县,872.4,20.0,52.0,25.525999999999964,12.152125041713505
Q4252,2025-06-03 09:00:00,30.2056,110.665,619.4,宜昌市,万马池,五峰土家族自治县,938.2,26.3,60.0,28.569499999999998,20.530122888837294
Q4309,2025-06-03 09:00:00,30.5808,111.6733,125.7,宜昌市,胡家畈,枝江市,991.6,27.8,54.0,34.46649999999991,20.18027380390432
Q4321,2025-06-03 09:00:00,30.3967,111.5886,68,宜昌市,雅畈,枝江市,998.6,28.3,52.0,33.716499999999975,20.008155120887473
Q4323,2025-06-03 09:00:00,30.43,111.7592,44.5,宜昌市,马家店,枝江市,1001.4,29.3,46.0,30.53850000000001,18.75698415743049
Q4325,2025-06-03 09:00:00,30.4386,111.4522,55.9,宜昌市,万福垴,枝江市,1000.0,28.9,48.0,30.402999999999977,19.1244093107672
Q4326,2025-06-03 09:00:00,30.3369,111.5311,57,宜昌市,田家河,枝江市,999.9,30.1,43.0,29.013499999999958,18.361247231849642
Q4327,2025-06-03 09:00:00,30.4011,111.6131,87.7,宜昌市,姚家港工业园,枝江市,996.5,28.4,48.0,20.296499999999977,18.57690794739398
Q4401,2025-06-03 09:00:00,30.63,110.5428,506,宜昌市,社坪,长阳土家族自治县,949.7,25.6,65.0,37.58950000000003,21.337203316688118
Q4403,2025-06-03 09:00:00,30.4286,110.4992,380,宜昌市,渔峡口,长阳土家族自治县,965.2,26.6,62.0,38.89150000000002,21.59357815571693
Q4404,2025-06-03 09:00:00,30.6069,111.0583,167,宜昌市,高家堰,长阳土家族自治县,987.5,25.9,79.0,47.016499999999986,26.39878298086204
Q4406,2025-06-03 09:00:00,30.3353,111.0731,631,宜昌市,大堰,长阳土家族自治县,936.8,25.8,46.0,27.010000000000005,15.280550549181134
Q4411,2025-06-03 09:00:00,30.3692,110.9569,473,宜昌市,横山,长阳土家族自治县,953.7,26.9,61.0,39.585000000000015,21.624113578979532
Q4415,2025-06-03 09:00:00,30.4944,110.7997,1546.9,宜昌市,火烧坪,长阳土家族自治县,843.2,18.3,40.0,12.627499999999987,8.407368039660279
Q4425,2025-06-03 09:00:00,30.6219,110.4972,490,宜昌市,榔坪,长阳土家族自治县,953.6,25.2,75.0,38.75100000000006,24.040766402459575
Q4437,2025-06-03 09:00:00,30.6211,110.8139,1055,宜昌市,中岭,长阳土家族自治县,892.6,22.3,61.0,30.493000000000023,16.41884094195849
Q4441,2025-06-03 09:00:00,30.5814,111.0614,680,宜昌市,龙池山,长阳土家族自治县,931.2,24.6,64.0,29.01249999999998,19.792631694115524
Q4443,2025-06-03 09:00:00,30.4703,111.1336,190.3,宜昌市,清江画廊,长阳土家族自治县,985.0,27.8,52.0,29.018500000000007,19.43285625561157
Q4446,2025-06-03 09:00:00,30.3936,111.1128,220,宜昌市,三洞水,长阳土家族自治县,983.1,28.4,55.0,40.60849999999999,21.286040356388938
Q4447,2025-06-03 09:00:00,30.4117,110.97,290,宜昌市,都镇湾,长阳土家族自治县,975.3,28.1,55.0,32.45099999999997,20.917213379360746
Q4453,2025-06-03 09:00:00,30.3731,110.7244,283.3,宜昌市,崩尖子,长阳土家族自治县,974.9,25.8,79.0,58.90350000000009,26.242684638811074
Q4510,2025-06-03 09:00:00,30.1967,111.4717,199.8,宜昌市,九道河,宜都市,984.1,28.1,49.0,24.933500000000013,18.635335556157756
Q4519,2025-06-03 09:00:00,30.3839,111.4547,74.1,宜昌市,陆城,宜都市,998.1,29.6,36.0,26.331500000000016,14.935925375924235
Q4604,2025-06-03 09:00:00,30.5725,111.9686,74,宜昌市,草埠湖,当阳市,1000.0,28.3,57.0,40.54399999999999,21.932016190203576
Q4606,2025-06-03 09:00:00,30.7075,111.675,158.6,宜昌市,王店,当阳市,988.2,27.3,59.0,40.04700000000004,21.4125361840275
Q4610,2025-06-03 09:00:00,31.0844,111.9219,102.3,宜昌市,红旗岗,当阳市,992.5,27.5,65.0,46.49100000000001,23.86832620436488
Q4611,2025-06-03 09:00:00,30.9275,111.9269,58,宜昌市,淯溪光明,当阳市,1000.1,27.9,68.0,53.34000000000005,25.56112850124182
Q4612,2025-06-03 09:00:00,30.9167,111.685,96,宜昌市,向家草坝,当阳市,995.6,28.1,65.0,49.70400000000001,24.720343084699063
Q4614,2025-06-03 09:00:00,30.8369,111.7611,70,宜昌市,长坂雄风,当阳市,998.5,28.7,56.0,40.08549999999999,22.05436411825644
Q4701,2025-06-03 09:00:00,31.1906,111.4081,553.8,宜昌市,嫘祖,远安县,945.1,26.2,50.0,27.645500000000013,17.007570958926713
Q4708,2025-06-03 09:00:00,31.1481,111.6794,179.8,宜昌市,茅坪场,远安县,985.6,27.6,63.0,41.469999999999985,23.269797001154945
Q4709,2025-06-03 09:00:00,31.2208,111.5594,152.4,宜昌市,洋坪,远安县,989.7,28.4,58.0,39.75800000000002,22.447097103101058
Q4710,2025-06-03 09:00:00,31.1881,111.7553,391.9,宜昌市,晓坪水库,远安县,962.6,25.2,70.0,40.30949999999998,22.438048642295602
Q4718,2025-06-03 09:00:00,31.2361,111.5361,186,宜昌市,芭芒店,远安县,983.6,27.4,60.0,32.531500000000044,21.90355176276961
Q4729,2025-06-03 09:00:00,30.9167,111.5608,723.5,宜昌市,龙凤,远安县,924.1,23.0,68.0,36.332499999999996,19.09797274070276
Q4801,2025-06-03 09:00:00,31.2092,110.53,992.5,宜昌市,高桥,兴山县,898.6,20.2,69.0,27.929500000000015,16.32587438926953
Q4802,2025-06-03 09:00:00,31.2261,110.7697,286,宜昌市,昭君,兴山县,975.0,25.0,70.0,36.69400000000002,22.17200605331099
Q4804,2025-06-03 09:00:00,31.1192,110.7786,266,宜昌市,峡口,兴山县,978.3,25.5,66.0,35.53950000000002,21.53707314755727
Q4806,2025-06-03 09:00:00,31.5008,111.0083,1281,宜昌市,榛子,兴山县,869.0,20.8,63.0,23.259000000000015,15.468724037302554
Q4808,2025-06-03 09:00:00,31.1778,111.0017,644.1,宜昌市,南对河,兴山县,935.9,22.8,82.0,46.965,22.752346951426734
Q4818,2025-06-03 09:00:00,31.5183,110.8078,498.7,宜昌市,观音河,兴山县,954.0,24.5,61.0,30.52050000000002,18.752221167394865
Q4837,2025-06-03 09:00:00,31.4728,110.9975,1301.6,宜昌市,和平,兴山县,867.9,21.6,51.0,23.744000000000014,13.152842605429386
Q4901,2025-06-03 09:00:00,31.0306,110.6972,190.3,宜昌市,彭家坡,秭归县,984.5,25.6,69.0,51.647999999999975,22.65026198233046
Q4902,2025-06-03 09:00:00,30.9564,110.7569,351,宜昌市,郭家坝,秭归县,968.5,24.7,73.0,42.948999999999934,22.711466496339174
Q4903,2025-06-03 09:00:00,30.8722,110.5756,620.5,宜昌市,两河口,秭归县,938.3,23.4,76.0,38.86899999999998,21.867557976490772
Q4905,2025-06-03 09:00:00,30.7458,110.7553,421.8,宜昌市,杨林桥,秭归县,960.4,25.3,70.0,40.24249999999999,22.572114407214084
Q4909,2025-06-03 09:00:00,30.9614,110.6022,420,宜昌市,沙镇溪,秭归县,960.3,24.6,71.0,40.14700000000004,21.95745078565941
Q4911,2025-06-03 09:00:00,30.8442,110.7836,499,宜昌市,九畹溪,秭归县,951.9,24.6,66.0,40.23300000000004,20.411151434556633
Q4918,2025-06-03 09:00:00,30.8361,110.9464,547.7,宜昌市,金缸城,秭归县,945.7,23.8,76.0,41.99349999999998,22.4015038508625
Q4920,2025-06-03 09:00:00,30.9039,110.7792,918,宜昌市,烟墩堡,秭归县,906.6,21.0,73.0,31.8145,18.14607819847148
Q4921,2025-06-03 09:00:00,30.7814,110.7939,271.1,宜昌市,芝兰,秭归县,976.5,26.8,66.0,40.334999999999965,23.259254406109594
Q4932,2025-06-03 09:00:00,30.9803,110.8039,1385,宜昌市,九岭头,秭归县,859.3,18.1,80.0,35.79250000000004,16.604782823805905
Q4941,2025-06-03 09:00:00,30.9881,110.4783,753,宜昌市,高潮,秭归县,925.6,22.3,74.0,37.553000000000004,19.917938191884065
Q4945,2025-06-03 09:00:00,30.7944,110.4961,1330,宜昌市,七甲,秭归县,864.9,19.5,61.0,25.9095,13.819640568003287
Q4950,2025-06-03 09:00:00,30.8117,110.3497,985,宜昌市,雁落坪,秭归县,899.4,21.5,78.0,41.534,19.993284979472598
Q4957,2025-06-03 09:00:00,30.6814,110.7139,1085,宜昌市,三台寺,秭归县,890.4,21.9,50.0,25.253999999999998,13.133700389378133
Q4962,2025-06-03 09:00:00,30.9811,110.7606,209.2,宜昌市,吴家沟,秭归县,981.5,25.0,69.0,52.473333333333365,21.855263109692263
Q5102,2025-06-03 09:00:00,30.4808,109.5828,638.9,恩施土家族苗族自治州,白杨坪,恩施市,936.3,24.1,79.0,42.73149999999996,23.709794210137474
Q5106,2025-06-03 09:00:00,30.2978,109.6278,1054.7,恩施土家族苗族自治州,三岔,恩施市,893.0,21.5,75.0,37.81250000000006,19.22431248026211
Q5109,2025-06-03 09:00:00,30.1222,109.3956,599.8,恩施土家族苗族自治州,芭蕉,恩施市,940.6,24.9,61.0,36.45250000000003,19.20630583546978
Q5116,2025-06-03 09:00:00,30.0906,109.1692,881,恩施土家族苗族自治州,金龙坝,恩施市,911.6,23.7,72.0,42.337500000000055,21.095012993734798
Q5122,2025-06-03 09:00:00,30.3303,109.4231,1113,恩施土家族苗族自治州,望城坡,恩施市,886.9,21.7,67.0,32.8715,17.38529791359648
Q5133,2025-06-03 09:00:00,30.3539,109.6558,1312.4,恩施土家族苗族自治州,小卫家山,恩施市,867.4,20.1,66.0,30.866499999999974,15.519691307778066
Q5135,2025-06-03 09:00:00,30.3583,109.8217,1567,恩施土家族苗族自治州,神堂,恩施市,841.9,18.3,64.0,25.84349999999999,13.451788863456445
Q5150,2025-06-03 09:00:00,30.4167,109.1628,1615,恩施土家族苗族自治州,大峡谷顶,恩施市,834.8,17.0,60.0,20.096000000000057,11.618016350908853
Q5153,2025-06-03 09:00:00,30.3733,109.3019,946,恩施土家族苗族自治州,马者滑坡点,恩施市,905.1,23.1,60.0,36.03300000000003,16.953510808541548
Q5206,2025-06-03 09:00:00,30.3353,109.1053,1025.3,恩施土家族苗族自治州,宜影古镇,利川市,896.7,22.6,55.0,30.31799999999998,15.076520266086227
Q5207,2025-06-03 09:00:00,30.2233,109.0339,1088.3,恩施土家族苗族自治州,元堡,利川市,887.6,22.5,50.0,21.671499999999984,13.6228663271917
Q5208,2025-06-03 09:00:00,30.0775,108.8592,1469.7,恩施土家族苗族自治州,黄泥塘,利川市,855.9,19.6,57.0,19.986500000000014,12.993982049005886
Q5209,2025-06-03 09:00:00,29.9294,108.7097,474,恩施土家族苗族自治州,龙桥,利川市,953.8,23.8,84.0,44.14150000000002,24.759556887795394
Q5210,2025-06-03 09:00:00,30.2089,108.7014,1479.9,恩施土家族苗族自治州,福宝山,利川市,849.1,18.6,69.0,27.47499999999996,14.77810769148575
Q5211,2025-06-03 09:00:00,30.4353,108.5392,676,恩施土家族苗族自治州,建南,利川市,932.7,23.5,76.0,38.827499999999965,21.999988381918946
Q5214,2025-06-03 09:00:00,30.43,108.7925,1129,恩施土家族苗族自治州,南坪,利川市,885.0,20.8,76.0,34.612999999999964,18.660682965634827
Q5222,2025-06-03 09:00:00,30.2664,108.805,1092.5,恩施土家族苗族自治州,凉雾,利川市,887.4,22.8,60.0,23.368999999999993,16.648058744946393
Q5226,2025-06-03 09:00:00,30.3353,109.1494,986.8,恩施土家族苗族自治州,利川团堡,利川市,899.1,22.3,69.0,31.603500000000004,18.572131557297304
Q5241,2025-06-03 09:00:00,30.0786,108.6025,1074,恩施土家族苗族自治州,小河,利川市,891.5,22.6,52.0,22.443700000000035,14.254164615208797
Q5249,2025-06-03 09:00:00,30.4533,108.6578,1558.5,恩施土家族苗族自治州,铁峰,利川市,841.6,16.7,84.0,27.686999999999994,15.958410330436937
Q5250,2025-06-03 09:00:00,30.4922,108.7469,1406,恩施土家族苗族自治州,药材,利川市,855.3,17.8,94.0,36.270999999999965,19.145650239027187
Q5301,2025-06-03 09:00:00,29.9539,109.0781,788.1,恩施土家族苗族自治州,黄金洞,咸丰县,919.5,21.9,79.0,44.53549999999995,20.751246615217447
Q5307,2025-06-03 09:00:00,29.6125,108.9175,468,恩施土家族苗族自治州,朝阳寺,咸丰县,954.7,25.7,67.0,40.05400000000006,22.12475219195579
Q5309,2025-06-03 09:00:00,29.3997,108.9803,1268.8,恩施土家族苗族自治州,坪坝营,咸丰县,870.9,18.7,77.0,25.571999999999974,16.59508685617087
Q5310,2025-06-03 09:00:00,29.7658,108.8233,723.6,恩施土家族苗族自治州,茅坝,咸丰县,927.2,23.6,78.0,42.17549999999993,22.715571270719543
Q5326,2025-06-03 09:00:00,29.8839,108.9089,832,恩施土家族苗族自治州,李子溪,咸丰县,916.4,21.9,83.0,37.94999999999992,21.8019426463677
Q5327,2025-06-03 09:00:00,29.9194,108.9083,847,恩施土家族苗族自治州,中心场,咸丰县,914.6,20.6,88.0,49.08850000000003,21.342364939687148
Q5330,2025-06-03 09:00:00,29.8736,108.8114,869,恩施土家族苗族自治州,八家台,咸丰县,909.9,22.6,72.0,33.092500000000065,19.736535621058334
Q5338,2025-06-03 09:00:00,29.8175,109.0397,872.4,恩施土家族苗族自治州,柏杨坪,咸丰县,909.1,22.8,66.0,30.568000000000037,18.312864619441033
Q5409,2025-06-03 09:00:00,29.4669,109.4019,458,恩施土家族苗族自治州,翔凤,来凤县,955.8,26.7,62.0,40.14799999999995,21.72126055478034
Q5421,2025-06-03 09:00:00,29.3261,109.2883,602,恩施土家族苗族自治州,兴隆坳,来凤县,938.1,24.6,72.0,41.26399999999998,22.266710655879965
Q5422,2025-06-03 09:00:00,29.4094,109.3228,512,恩施土家族苗族自治州,沙坝水库,来凤县,949.4,25.5,68.0,38.17200000000002,22.18971172778628
Q5508,2025-06-03 09:00:00,29.6986,109.5653,589,恩施土家族苗族自治州,沙道,宣恩县,941.2,25.0,72.0,41.18050000000001,22.805491940548453
Q5509,2025-06-03 09:00:00,30.0575,109.8269,1681,恩施土家族苗族自治州,椿木营,宣恩县,830.1,17.7,55.0,22.053499999999996,11.131844263242582
Q5515,2025-06-03 09:00:00,30.1294,109.6347,664.8,恩施土家族苗族自治州,中间河,宣恩县,933.4,23.6,76.0,44.38799999999999,22.13312072531648
Q5516,2025-06-03 09:00:00,30.0081,109.5883,490.9,恩施土家族苗族自治州,长潭北,宣恩县,952.1,25.0,75.0,46.87250000000002,23.755720771404636
Q5517,2025-06-03 09:00:00,29.96,109.3461,1134.7,恩施土家族苗族自治州,荆竹坪,宣恩县,884.5,20.7,72.0,34.059000000000005,17.569945550876323
Q5530,2025-06-03 09:00:00,29.9867,109.3608,743.4,恩施土家族苗族自治州,洗草坝,宣恩县,925.3,21.6,84.0,43.78849999999999,21.663505467766047
Q5532,2025-06-03 09:00:00,29.8356,109.6717,655.8,恩施土家族苗族自治州,金盆村,宣恩县,934.4,23.5,78.0,47.93000000000001,22.578935444601026
Q5539,2025-06-03 09:00:00,29.9019,109.26,1180.2,恩施土家族苗族自治州,竹园,宣恩县,880.3,20.2,73.0,32.09799999999997,17.27230189009675
Q5543,2025-06-03 09:00:00,29.6717,109.6153,582.9,恩施土家族苗族自治州,彭家寨,宣恩县,941.3,24.5,80.0,46.83250000000002,24.593076940845727
Q5601,2025-06-03 09:00:00,29.7383,110.3472,467,恩施土家族苗族自治州,江坪河,鹤峰县,953.8,23.8,74.0,41.26449999999996,21.811990591629275
Q5603,2025-06-03 09:00:00,30.0658,110.2706,1382,恩施土家族苗族自治州,蛤蟆颈,鹤峰县,857.6,20.0,62.0,20.87850000000001,14.489072165119946
Q5605,2025-06-03 09:00:00,30.0139,110.2697,1300,恩施土家族苗族自治州,清湖,鹤峰县,865.6,20.3,61.0,20.635999999999996,14.522566496890448
Q5610,2025-06-03 09:00:00,29.8969,110.3406,1142,恩施土家族苗族自治州,五里,鹤峰县,884.2,21.8,50.0,24.278499999999976,13.053687825687941
Q5620,2025-06-03 09:00:00,29.8628,109.8564,1175,恩施土家族苗族自治州,堰塘,鹤峰县,880.2,19.7,84.0,37.525000000000006,19.268376993998736
Q5621,2025-06-03 09:00:00,30.0564,110.0675,1011.3,恩施土家族苗族自治州,云蒙,鹤峰县,896.6,18.7,91.0,39.40599999999994,19.612375375474663
Q5626,2025-06-03 09:00:00,30.1083,110.1294,1215.7,恩施土家族苗族自治州,龚家垭,鹤峰县,876.1,20.4,78.0,34.01849999999996,18.684964814946234
Q5628,2025-06-03 09:00:00,29.7681,110.5636,509,恩施土家族苗族自治州,马家,鹤峰县,948.1,24.9,71.0,40.23500000000005,22.354880562595973
Q5629,2025-06-03 09:00:00,29.8014,110.6133,673.7,恩施土家族苗族自治州,细杉,鹤峰县,931.9,22.7,80.0,42.49050000000002,22.06309146451672
Q5630,2025-06-03 09:00:00,29.7203,110.2667,912.3,恩施土家族苗族自治州,堰垭,鹤峰县,907.1,22.6,74.0,35.63350000000001,20.284772721643286
Q5632,2025-06-03 09:00:00,29.9206,110.4636,1194,恩施土家族苗族自治州,上六峰,鹤峰县,878.0,19.7,76.0,38.09275000000001,17.43329347076076
Q5633,2025-06-03 09:00:00,29.9917,110.4858,1137,恩施土家族苗族自治州,中坪,鹤峰县,881.5,19.7,71.0,28.117500000000003,16.286366268737027
Q5634,2025-06-03 09:00:00,29.9133,110.2561,606.5,恩施土家族苗族自治州,水泉,鹤峰县,938.9,24.4,73.0,39.50550000000006,22.307099904298912
Q5706,2025-06-03 09:00:00,31.1572,110.4386,741,恩施土家族苗族自治州,溪丘湾,巴东县,924.8,22.0,83.0,39.72950000000002,21.93547665305786
Q5707,2025-06-03 09:00:00,30.6875,110.1708,1411,恩施土家族苗族自治州,大支坪,巴东县,856.5,19.7,64.0,24.057500000000008,14.680668185903798
Q5708,2025-06-03 09:00:00,30.8936,110.3064,1166,恩施土家族苗族自治州,朱砂土,巴东县,879.4,20.6,76.0,33.83050000000004,18.432042447911627
Q5709,2025-06-03 09:00:00,30.6925,110.2486,1570.6,恩施土家族苗族自治州,玉米塘,巴东县,839.0,18.1,57.0,24.096999999999994,11.830907761961704
Q5710,2025-06-03 09:00:00,31.2233,110.2003,942.7,恩施土家族苗族自治州,茅山岭,巴东县,902.4,19.9,100.0,47.157249999999905,23.225046174156986
Q5712,2025-06-03 09:00:00,30.9331,110.2219,1150.3,恩施土家族苗族自治州,税家,巴东县,882.9,20.5,71.0,31.142000000000003,17.113472445957797
Q5720,2025-06-03 09:00:00,31.1225,110.4797,735,恩施土家族苗族自治州,高家坡,巴东县,925.9,22.4,80.0,35.17200000000004,21.664394563431856
Q5730,2025-06-03 09:00:00,30.7125,110.4111,1234,恩施土家族苗族自治州,麻沙坪,巴东县,873.0,20.6,61.0,22.85350000000001,14.794139333192227
Q5732,2025-06-03 09:00:00,30.6672,110.2142,1261.9,恩施土家族苗族自治州,庙坪,巴东县,870.4,20.3,66.0,28.19900000000002,15.712940799914255
Q5736,2025-06-03 09:00:00,30.4069,110.1308,950,恩施土家族苗族自治州,倒卜龙,巴东县,902.5,23.5,47.0,28.78400000000004,13.605255973028822
Q5751,2025-06-03 09:00:00,30.8117,110.2419,1663,恩施土家族苗族自治州,绿葱坡滑雪场,巴东县,830.7,17.0,55.0,20.013999999999992,10.64984832166645
Q5802,2025-06-03 09:00:00,30.8097,109.8839,1364.3,恩施土家族苗族自治州,茅田,建始县,860.8,18.0,78.0,31.984499999999976,16.088155588934757
Q5804,2025-06-03 09:00:00,30.5989,110.0597,1239.1,恩施土家族苗族自治州,高坪,建始县,870.8,20.4,62.0,23.974,14.852151519572647
Q5819,2025-06-03 09:00:00,30.8222,109.9811,1731.3,恩施土家族苗族自治州,封竹,建始县,824.8,16.3,54.0,14.725000000000028,10.001086914036478
Q5823,2025-06-03 09:00:00,30.6128,110.0208,777.3,恩施土家族苗族自治州,石垭子,建始县,920.5,24.5,67.0,47.348499999999994,20.596701937958294
Q5824,2025-06-03 09:00:00,30.5825,109.9603,917,恩施土家族苗族自治州,落水洞,建始县,905.0,23.7,65.0,36.6815,19.04410895267725
Q5827,2025-06-03 09:00:00,30.5347,109.9972,1227.8,恩施土家族苗族自治州,冷竹,建始县,873.8,21.2,57.0,23.60750000000001,14.344079078839382
Q5829,2025-06-03 09:00:00,30.3572,110.0744,754.5,恩施土家族苗族自治州,粟谷坝,建始县,922.0,24.1,72.0,47.82150000000001,21.608926368732888
Q5831,2025-06-03 09:00:00,30.2125,109.9622,1551,恩施土家族苗族自治州,竹园坝,建始县,842.6,18.9,62.0,26.606500000000036,13.530455377395334
Q5836,2025-06-03 09:00:00,30.6983,110.0806,896.7,恩施土家族苗族自治州,野三河景区,建始县,909.5,21.6,79.0,41.614999999999974,20.374011094684736
Q6080,2025-06-03 09:00:00,30.975,112.2028,108.5,荆门市,掇刀,掇刀区,993.4,28.3,52.0,39.99249999999993,20.008155120887473
Q6082,2025-06-03 09:00:00,30.9114,112.2447,85,荆门市,麻城,掇刀区,996.5,28.6,58.0,36.557500000000054,22.709710027869388
Q6083,2025-06-03 09:00:00,30.7958,112.2522,82,荆门市,樊桥,掇刀区,997.3,27.4,68.0,25.931000000000036,24.8240253311389
Q6084,2025-06-03 09:00:00,30.9525,112.1789,106,荆门市,凤凰,掇刀区,994.2,27.4,69.0,35.307000000000045,25.189084527185052
Q6085,2025-06-03 09:00:00,30.8675,112.0964,97.5,荆门市,龙泉,掇刀区,995.3,27.1,70.0,26.962000000000057,25.10811451440088
Q6086,2025-06-03 09:00:00,31.0422,112.1217,190,荆门市,仙女,掇刀区,984.9,27.0,59.0,36.226499999999994,21.03852195320535
Q6111,2025-06-03 09:00:00,30.5242,112.3883,31.2,荆门市,后港,沙洋县,1002.9,28.2,68.0,47.89249999999996,26.012510231199396
Q6113,2025-06-03 09:00:00,30.7592,112.46,65,荆门市,高阳,沙洋县,998.9,27.3,69.0,46.1845,25.041779605049108
Q6114,2025-06-03 09:00:00,30.7297,112.2397,67,荆门市,五里,沙洋县,998.9,27.7,65.0,26.655000000000026,24.149434381794897
Q6115,2025-06-03 09:00:00,30.6244,112.1758,56.2,荆门市,十里,沙洋县,1000.0,28.0,66.0,48.76800000000006,24.95462185899964
Q6117,2025-06-03 09:00:00,30.5508,112.275,36.5,荆门市,拾回桥,沙洋县,1002.5,28.0,61.0,48.44500000000003,23.06412020301482
Q6118,2025-06-03 09:00:00,30.7172,112.3717,71,荆门市,曾集,沙洋县,998.4,27.4,62.0,34.36999999999999,22.63367015486193
Q6122,2025-06-03 09:00:00,30.8122,112.2886,104,荆门市,雷集,掇刀区,994.4,27.0,68.0,33.358000000000054,24.247788013863797
Q6125,2025-06-03 09:00:00,30.8186,112.4253,60.1,荆门市,双堰,沙洋县,999.6,27.9,69.0,43.90599999999997,25.93702744978949
Q6128,2025-06-03 09:00:00,30.4275,112.3442,40,荆门市,港口,沙洋县,1002.1,28.6,64.0,50.04550000000003,25.05899037558002
Q6129,2025-06-03 09:00:00,30.8017,112.6122,40,荆门市,姚集,沙洋县,1001.6,27.7,66.0,40.74249999999996,24.520964141514817
Q6160,2025-06-03 09:00:00,31.2861,112.1533,98,荆门市,石桥驿,东宝区,995.0,27.6,60.0,36.607499999999966,22.161711429671374
Q6162,2025-06-03 09:00:00,31.3903,112.0286,129,荆门市,仙居,东宝区,991.5,27.2,68.0,34.963999999999984,24.534427828978217
Q6163,2025-06-03 09:00:00,31.1444,111.935,134,荆门市,马河,东宝区,991.3,26.2,68.0,44.36199999999998,23.130296504140336
Q6164,2025-06-03 09:00:00,31.2678,111.9847,231.2,荆门市,栗溪,东宝区,980.2,27.0,60.0,37.39599999999998,21.395107071056287
Q6167,2025-06-03 09:00:00,31.0697,111.925,129,荆门市,观音寺,东宝区,991.5,27.6,67.0,39.07949999999997,24.747244429799704
Q6168,2025-06-03 09:00:00,31.0633,112.2033,110,荆门市,东宝,东宝区,993.8,28.1,48.0,34.096500000000034,18.255022585623923
Q6169,2025-06-03 09:00:00,31.2031,112.1422,112.5,荆门市,岩垱,东宝区,993.5,27.4,65.0,39.14499999999999,23.728847743000415
Q6170,2025-06-03 09:00:00,31.3072,112.1028,121,荆门市,象河,东宝区,992.3,25.7,72.0,50.57900000000002,23.775853101803236
Q6171,2025-06-03 09:00:00,31.0814,112.1022,246.3,荆门市,安河,东宝区,978.7,27.5,61.0,38.69649999999996,22.399506130250117
Q6172,2025-06-03 09:00:00,31.12,112.1464,355.3,荆门市,圣境山,东宝区,966.5,25.3,57.0,21.484500000000025,18.380150303017185
Q6173,2025-06-03 09:00:00,31.1497,112.2619,70.8,荆门市,东宝八角,东宝区,997.7,27.8,58.0,32.69849999999997,21.67510890048982
Q6174,2025-06-03 09:00:00,31.1786,112.0386,179.5,荆门市,文丰,东宝区,985.8,26.1,68.0,43.97249999999998,22.99382827495848
Q6175,2025-06-03 09:00:00,31.135,111.9811,156.5,荆门市,琵琶洲,东宝区,988.4,27.0,69.0,41.15899999999995,24.60437313171473
Q6176,2025-06-03 09:00:00,31.2347,111.9575,270.2,荆门市,铁坪,东宝区,975.9,26.4,63.0,42.353999999999985,21.684377359651602
Q6210,2025-06-03 09:00:00,31.4994,112.5936,124.4,荆门市,长寿,钟祥市,991.9,26.6,70.0,34.19650000000001,24.379846304841692
Q6213,2025-06-03 09:00:00,31.4353,112.8739,207.8,荆门市,客店,钟祥市,982.4,28.1,52.0,28.5315,19.77627446775925
Q6217,2025-06-03 09:00:00,31.5064,112.72,136.9,荆门市,张集,钟祥市,990.3,27.8,54.0,34.35,20.18027380390432
Q6218,2025-06-03 09:00:00,31.2917,112.6356,56,荆门市,洋梓,钟祥市,1000.6,27.3,65.0,40.68449999999997,23.59008223664047
Q6219,2025-06-03 09:00:00,30.9944,112.5881,40,荆门市,柴湖,钟祥市,1001.5,28.0,68.0,45.17899999999999,25.710822521393574
Q6220,2025-06-03 09:00:00,31.2944,112.4272,47.9,荆门市,磷矿,钟祥市,1000.6,26.1,73.0,48.141999999999996,24.684550942234836
Q6223,2025-06-03 09:00:00,31.1669,112.6503,53,荆门市,九里,钟祥市,1000.7,27.8,64.0,46.884999999999955,23.91736154536808
Q6224,2025-06-03 09:00:00,31.1594,112.5319,54.6,荆门市,文集,钟祥市,1000.8,26.3,76.0,52.97850000000005,26.004822325860577
Q6235,2025-06-03 09:00:00,31.4969,112.5197,56,荆门市,洪山寺,钟祥市,998.9,28.0,64.0,46.99499999999996,24.19842119660571
Q6236,2025-06-03 09:00:00,31.2022,112.4103,93,荆门市,北山,钟祥市,995.8,26.8,71.0,52.689000000000014,25.021319133845168
Q6237,2025-06-03 09:00:00,31.0467,112.4686,43,荆门市,陈坡,钟祥市,1000.4,28.0,61.0,38.20250000000001,23.06412020301482
Q6260,2025-06-03 09:00:00,31.3961,112.4883,59,荆门市,钟祥杨集,钟祥市,1000.3,27.9,65.0,46.13099999999998,24.433431655598795
Q6263,2025-06-03 09:00:00,31.2106,112.6344,65,荆门市,明显陵,钟祥市,999.0,25.4,84.0,57.233000000000004,27.248256716167116
Q6264,2025-06-03 09:00:00,31.1667,112.5667,65.8,荆门市,郢中,钟祥市,999.0,27.2,60.0,42.997499999999974,21.648024554980775
Q6317,2025-06-03 09:00:00,31.1814,113.3008,77.2,荆门市,宋河,京山市,997.0,27.7,72.0,50.070999999999934,26.750142699834345
Q6319,2025-06-03 09:00:00,30.9697,113.2225,63,荆门市,永兴,京山市,998.2,27.4,69.0,50.01399999999989,25.189084527185052
Q6320,2025-06-03 09:00:00,30.8547,113.0992,49.6,荆门市,钱场,京山市,1000.5,27.7,61.0,32.52900000000001,22.663315342915208
Q6321,2025-06-03 09:00:00,30.8972,112.8411,34,荆门市,石龙,京山市,1001.4,27.7,66.0,47.02899999999997,24.520964141514817
Q6322,2025-06-03 09:00:00,30.7744,112.8278,33.9,荆门市,永漋,京山市,1002.2,27.8,64.0,40.46450000000002,23.91736154536808
Q6323,2025-06-03 09:00:00,31.2839,113.3547,73,荆门市,坪坝,京山市,996.9,28.4,67.0,42.26750000000002,25.930267343237432
Q6324,2025-06-03 09:00:00,30.8344,112.945,77,荆门市,屈家岭,市辖区,997.4,27.2,71.0,47.22249999999995,25.616829056727255
Q6333,2025-06-03 09:00:00,31.3436,113.1756,203.2,荆门市,三阳,京山市,982.8,28.4,55.0,36.92499999999996,21.286040356388938
Q6335,2025-06-03 09:00:00,31.2819,112.9369,174.2,荆门市,三台,京山市,985.4,27.6,70.0,48.28150000000007,25.855330001283267
Q6336,2025-06-03 09:00:00,31.2428,112.9794,208.9,荆门市,将军岭,京山市,982.1,27.1,58.0,37.10200000000001,20.803866311932158
Q6339,2025-06-03 09:00:00,30.9928,113.045,105,荆门市,空山洞,京山市,993.9,27.0,68.0,33.23899999999996,24.247788013863797
Q6343,2025-06-03 09:00:00,31.1531,113.2286,226.5,荆门市,四股泉,京山市,980.2,26.9,72.0,44.30199999999995,25.52354389650043
Q6344,2025-06-03 09:00:00,31.0558,113.4464,45,荆门市,马岭,京山市,999.9,27.5,71.0,41.39350000000001,26.071556315537023
Q6349,2025-06-03 09:00:00,30.9269,113.0072,111,荆门市,中南山,京山市,993.6,26.6,69.0,36.38549999999996,24.031562786201096
Q6353,2025-06-03 09:00:00,31.1539,112.8736,115.4,荆门市,黄台,京山市,992.8,27.7,66.0,45.157500000000034,24.520964141514817
Q6358,2025-06-03 09:00:00,31.3367,113.0661,174,荆门市,绿林寨,京山市,986.8,28.9,50.0,35.28149999999996,19.921259698715833
Q6370,2025-06-03 09:00:00,30.9961,112.6831,38,荆门市,罗汉寺,市辖区,1001.5,28.5,66.0,44.916,25.69228658016976
Q6371,2025-06-03 09:00:00,30.9972,112.7556,57,荆门市,长滩办事处,市辖区,999.8,27.6,70.0,53.72100000000004,25.855330001283267
Q6372,2025-06-03 09:00:00,30.9675,112.7822,89,荆门市,月宝山,市辖区,995.8,26.8,72.0,48.46700000000001,25.373732079392283
Q6373,2025-06-03 09:00:00,30.9711,112.8208,105,荆门市,牙谷山,市辖区,994.1,26.9,72.0,45.854999999999954,25.52354389650043
Q6374,2025-06-03 09:00:00,30.8964,112.7422,38.5,荆门市,刘台,市辖区,1001.9,27.8,68.0,39.61,25.412196641953592
Q6375,2025-06-03 09:00:00,30.8661,112.8697,73.3,荆门市,种业基地,市辖区,998.0,27.3,67.0,48.09750000000001,24.31593092084479
Q6376,2025-06-03 09:00:00,30.7656,112.8836,33.1,荆门市,蔡垱,市辖区,1002.2,27.7,63.0,37.4319999999999,23.406374862355054
Q6401,2025-06-03 09:00:00,29.9694,111.5644,100.3,荆州市,洈水,松滋市,996.0,28.9,43.0,29.323499999999996,17.132283340895615
Q6402,2025-06-03 09:00:00,30.1794,111.9433,38.4,荆州市,沙道观,松滋市,1001.8,29.1,49.0,39.30550000000006,19.75039365355931
Q6403,2025-06-03 09:00:00,30.0286,111.8453,52.1,荆州市,纸厂河,松滋市,1001.3,28.3,53.0,42.55699999999999,20.392927334750695
Q6404,2025-06-03 09:00:00,30.1169,111.85,48.2,荆州市,南海,松滋市,1002.1,28.3,52.0,38.73149999999995,20.008155120887473
Q6406,2025-06-03 09:00:00,30.03,111.37,136,荆州市,卸甲坪,松滋市,992.2,29.3,41.0,24.4425,16.718181531622825
Q6407,2025-06-03 09:00:00,30.0261,111.6894,43,荆州市,北干渠,松滋市,1000.0,29.3,48.0,35.9085,19.572505207753554
Q6408,2025-06-03 09:00:00,30.0728,111.6294,164,荆州市,北河,松滋市,987.8,28.0,47.0,24.918000000000003,17.77071556625732
Q6409,2025-06-03 09:00:00,30.2792,111.6517,122,荆州市,陈店,松滋市,991.8,29.4,47.0,26.466000000000022,19.2758273373793
Q6411,2025-06-03 09:00:00,30.2714,112.0189,50.1,荆州市,涴市,松滋市,1001.9,28.3,57.0,37.96350000000003,21.932016190203576
Q6412,2025-06-03 09:00:00,29.9758,111.7756,69.2,荆州市,杨林市,松滋市,998.8,29.1,50.0,29.61049999999996,20.153462911795213
Q6414,2025-06-03 09:00:00,30.18,111.8686,46.1,荆州市,八宝,松滋市,1001.9,29.5,47.0,33.615500000000026,19.38747176172228
Q6415,2025-06-03 09:00:00,29.9686,111.6961,76.2,荆州市,万家,松滋市,999.3,29.2,51.0,41.32450000000007,20.675857273800652
Q6417,2025-06-03 09:00:00,30.0903,111.4008,626.8,荆州市,三堰淌,松滋市,937.5,24.6,48.0,19.724500000000027,14.844473770586642
Q6418,2025-06-03 09:00:00,30.0397,111.3681,220,荆州市,卸甲坪村,松滋市,981.1,29.1,39.0,22.26049999999998,15.719701071200266
Q6426,2025-06-03 09:00:00,30.1769,111.7736,69.5,荆州市,新江口,松滋市,998.8,29.0,47.0,32.27199999999998,18.834843494275894
Q6494,2025-06-03 09:00:00,29.9206,112.0969,44,荆州市,南平,公安县,1002.0,29.4,54.0,32.490499999999976,22.146695238691112
Q6495,2025-06-03 09:00:00,29.99,112.0072,48,荆州市,狮子口,公安县,1001.4,28.2,59.0,37.7825,22.56967799471712
Q6496,2025-06-03 09:00:00,30.0592,112.3197,30,荆州市,杨家厂,公安县,1002.4,28.5,59.0,35.24649999999999,22.967347094394178
Q6497,2025-06-03 09:00:00,29.8575,112.0914,40,荆州市,孟家溪,公安县,1002.6,28.5,67.0,48.6165,26.08156364956627
Q6498,2025-06-03 09:00:00,29.9631,112.3392,40,荆州市,麻豪口,公安县,1002.4,29.4,54.0,40.15949999999993,22.146695238691112
Q6499,2025-06-03 09:00:00,29.99,112.1083,37,荆州市,夹竹园,公安县,1002.4,28.7,59.0,39.97850000000002,23.23584791030589
Q6500,2025-06-03 09:00:00,29.7447,112.0739,36.9,荆州市,甘厂,公安县,1002.5,28.1,61.0,27.305000000000028,23.199091202563736
