Station_Id_C,Datetime,Lat,Lon,Alti,City,Station_Name,Cnty,PRS,TEM,RHU,PWV,VAP
57544,2025-06-03 08:00:00,29.4583,109.4433,485.4,湘西土家族苗族自治州,龙山,龙山县,953.1,26.0,58,42.2,19.496584704069637
57554,2025-06-03 08:00:00,29.4011,110.1622,318.8,张家界市,桑植,桑植县,970.8,27.0,63,42.7,22.464862424609105
57558,2025-06-03 08:00:00,29.1183,110.4172,218.5,张家界市,张家界,永定区,981.8,28.6,52,44,20.360429680158767
57562,2025-06-03 08:00:00,29.5833,111.3633,119,常德市,石门,石门县,993.1,28.6,56,39.4,21.92661657863252
57564,2025-06-03 08:00:00,29.4317,111.0892,168.7,张家界市,慈利,慈利县,986.4,28.9,58,38.4,23.108661250510362
57565,2025-06-03 08:00:00,29.6669,111.7253,40.2,常德市,澧县,澧县,1002.1,28.4,60,40,23.221134934242475
57566,2025-06-03 08:00:00,29.4692,111.67,86,常德市,临澧,临澧县,996.4,27.6,59.0,36.71245607712648,21.792349572510187
57574,2025-06-03 08:00:00,29.3517,112.4317,40.3,益阳市,南县,南县,1001.8,28.3,53.0,29.64093413652006,20.392927334750695
57575,2025-06-03 08:00:00,29.525,112.5567,49.4,岳阳市,华容,华容县,1001.0,27.7,53,40.4,19.691077265155837
57577,2025-06-03 08:00:00,29.4103,112.205,42.2,常德市,安乡,安乡县,1002.6,27.9,57,42.1,21.426240067217403
57584,2025-06-03 08:00:00,29.3808,113.088,52.7,岳阳市,岳阳,岳阳楼区,1000.7,27.0,61,38.6,21.751692188907228
57585,2025-06-03 08:00:00,29.4814,113.4478,64,岳阳市,临湘,临湘市,999.5,27.7,51,37.5,18.948017745715994
57587,2025-06-03 08:00:00,29.1914,113.1092,48.4,岳阳市,洞庭湖,岳阳县,1000.7,26.9,63.0,30.824849845090508,22.333100909437878
57640,2025-06-03 08:00:00,28.5364,109.4625,532.8,湘西土家族苗族自治州,花垣,花垣县,947.4,25.6,62.0,40.828960020576105,20.352409317456356
57642,2025-06-03 08:00:00,28.6808,109.6481,438.1,湘西土家族苗族自治州,保靖,保靖县,957.8,27.0,54.0,38.69787297253612,19.255596363950662
57643,2025-06-03 08:00:00,29.0083,109.8383,272.6,湘西土家族苗族自治州,永顺,永顺县,976.0,27.9,60,44.3,22.553936912860426
57646,2025-06-03 08:00:00,28.6222,109.9469,318,湘西土家族苗族自治州,古丈,古丈县,970.6,29.7,45,44.8,18.77788293733118
57649,2025-06-03 08:00:00,28.2381,109.6825,253.6,湘西土家族苗族自治州,吉首,吉首市,977.6,28.8,46,40.2,18.221553911502586
57655,2025-06-03 08:00:00,28.4633,110.4031,151.6,怀化市,沅陵县,沅陵县,989.0,29.6,46,46.6,19.08479353590319
57657,2025-06-03 08:00:00,28.21,110.2286,216.4,湘西土家族苗族自治州,泸溪,泸溪县,981.7,28.2,47.0,32.23977589746468,17.97923501274076
57658,2025-06-03 08:00:00,28.0069,110.1928,155.3,怀化市,辰溪,辰溪县,988.7,28.8,54,49.1,21.390519809155208
57661,2025-06-03 08:00:00,28.9133,111.4797,51.1,常德市,桃源,桃源县,1001.0,29.5,52,45.5,21.449968757650183
57662,2025-06-03 08:00:00,29.1164,111.6767,151.4,常德市,常德,武陵区,989.2,29.4,54,45.4,22.146695238691112
57663,2025-06-03 08:00:00,28.9203,111.9583,36.2,常德市,汉寿,汉寿县,1002.5,28.9,55,43.1,21.913385668587416
57666,2025-06-03 08:00:00,28.5159,112.1366,139.4,益阳市,桃江,桃江县,990.4,28.8,47,39.6,18.617674648709162
57669,2025-06-03 08:00:00,28.3847,111.2203,129.8,益阳市,安化,安化县,983.7,28.7,53,50.3,20.872880326206985
57671,2025-06-03 08:00:00,28.84,112.3722,43.7,益阳市,沅江,沅江市,1001.6,28.6,57,41,22.31816330325095
57673,2025-06-03 08:00:00,28.7283,112.9253,63,岳阳市,湘阴,湘阴县,998.9,26.9,61.0,36.132253739345856,21.624113578979532
57674,2025-06-03 08:00:00,28.5722,112.3783,49.6,益阳市,赫山,赫山区,992.7,28.0,52,43.6,19.66121722224214
57678,2025-06-03 08:00:00,28.2514,112.5433,60.9,长沙市,宁乡,宁乡市,997.4,28.0,52,46.7,19.66121722224214
57679,2025-06-03 08:00:00,28.2117,113.1972,103.6,长沙市,长沙黄花,长沙县,994.0,27.8,58,52.7,21.67510890048982
57680,2025-06-03 08:00:00,28.8565,113.1071,82,岳阳市,汨罗,汨罗市,997.1,28.2,50,40.3,19.126845758234847
57682,2025-06-03 08:00:00,28.7117,113.5717,106.9,岳阳市,平江,平江县,993.4,29.7,46,42.8,19.195169224827435
57687,2025-06-03 08:00:00,28.1086,112.7864,119,长沙市,长沙,岳麓区,992.3,27.4,54.0,37.142458839904386,19.713196586492653
57688,2025-06-03 08:00:00,28.1561,113.6308,102.6,长沙市,浏阳,浏阳市,993.9,28.4,55,55,21.286040356388938
57740,2025-06-03 08:00:00,27.9528,109.5953,353,湘西土家族苗族自治州,凤凰,凤凰县,966.9,28.2,51,46,19.509382673399543
57743,2025-06-03 08:00:00,27.8586,109.8139,176.8,怀化市,麻阳国家基本观测站,麻阳苗族自治县,983.8,28.9,51,44.1,20.319684892690148
57744,2025-06-03 08:00:00,27.3682,109.1635,353,怀化市,新晃,新晃侗族自治县,966.8,28.3,46,46.4,17.69952183770815
57745,2025-06-03 08:00:00,27.455,109.6811,272.9,怀化市,芷江,芷江侗族自治县,975.6,28.2,50,44.7,19.126845758234847
57749,2025-06-03 08:00:00,27.6069,110.0306,286.9,怀化市,怀化,鹤城区,973.6,28.3,51.0,33.11888948071524,19.62338290702425
57752,2025-06-03 08:00:00,27.9125,110.6008,207.4,怀化市,溆浦,溆浦县,982.6,29.2,42,43.4,17.02717657842407
57754,2025-06-03 08:00:00,27.2117,109.8353,252,怀化市,洪江,洪江市,977.6,28.1,54.0,40.297440844997666,20.536900408826913
57758,2025-06-03 08:00:00,27.0253,110.6067,342.2,邵阳市,洞口,洞口县,967.5,27.8,48,44.7,17.93802115902606
57760,2025-06-03 08:00:00,27.6964,111.4367,249.2,娄底市,冷水江,冷水江市,977.4,28.7,51.0,31.694702378993483,20.08522446484068
57761,2025-06-03 08:00:00,27.7467,111.2939,215.4,娄底市,新化,新化县,981.4,29.7,40,47.2,16.691451499849943
57762,2025-06-03 08:00:00,27.6961,111.7033,167.2,娄底市,涟源,涟源市,977.5,28.5,47,49.8,18.29602226163604
57763,2025-06-03 08:00:00,27.6911,112.0019,155.5,娄底市,娄底,娄底市,982.6,28.4,48,47.2,18.57690794739398
57765,2025-06-03 08:00:00,27.325,110.4072,1386.6,怀化市,雪峰山,洪江市,856.4,20.6,76.0,27.81328000875404,18.432042447911627
57766,2025-06-03 08:00:00,27.185,111.4536,311,邵阳市,邵阳,大祥区,970.8,27.5,46.0,27.504286692012474,16.89143085231976
57767,2025-06-03 08:00:00,27.1133,111.0325,310.8,邵阳市,隆回,隆回县,970.9,28.3,45,46.8,17.31474962384493
57768,2025-06-03 08:00:00,27.3411,111.4464,294.1,邵阳市,新邵,新邵县,972.3,28.3,45,45.1,17.31474962384493
57769,2025-06-03 08:00:00,27.2375,111.7361,253.9,邵阳市,邵东,邵东市,971.6,26.6,55,49.9,19.15559352523276
57771,2025-06-03 08:00:00,27.8867,112.5925,127.6,湘潭市,韶山,韶山市,991.5,28.0,54.0,28.976470469433398,20.41741788463607
57772,2025-06-03 08:00:00,27.751,112.5059,86.9,湘潭市,湘乡,湘乡市,996.0,28.1,48,50.8,18.255022585623923
57773,2025-06-03 08:00:00,27.8756,112.8275,63.8,湘潭市,湘潭观测站,雨湖区,998.5,28.4,49.0,37.92953592396745,18.96392686296469
57774,2025-06-03 08:00:00,27.4486,112.1733,103.1,娄底市,双峰,双峰县,988.3,27.7,50,54,18.576487985996074
57776,2025-06-03 08:00:00,27.2961,112.6936,1265.9,衡阳市,南岳,南岳区,869.3,17.2,97.0,52.464641655926854,19.02196975827245
57777,2025-06-03 08:00:00,27.2581,112.8372,159.1,衡阳市,衡山,衡山县,987.7,25.7,66.0,45.72853796102929,21.7945320099863
57778,2025-06-03 08:00:00,27.0525,112.9847,112.4,衡阳市,衡东,衡东县,993.4,25.3,77,54.8,24.829325847935497
57779,2025-06-03 08:00:00,27.0556,113.3528,115.2,株洲市,攸县,攸县,992.7,25.3,77,53.6,24.829325847935497
57780,2025-06-03 08:00:00,27.8689,113.1736,74.6,株洲市,株洲,荷塘区,997.1,27.9,54.0,33.85904037510631,20.298543221574384
57781,2025-06-03 08:00:00,27.6406,113.5069,75.9,株洲市,醴陵,醴陵市,997.5,26.4,63,55.6,21.684377359651602
57841,2025-06-03 08:00:00,26.5619,109.6736,322.5,怀化市,靖州,靖州苗族侗族自治县,969.6,27.9,52,48.5,19.546745324479037
57842,2025-06-03 08:00:00,26.8767,109.7208,287.8,怀化市,会同,会同县,974.0,28.5,48,48.4,18.685299331032553
57845,2025-06-03 08:00:00,26.1589,109.7778,400.2,怀化市,通道,通道侗族自治县,960.7,28.3,44,47.5,16.92997740998171
57846,2025-06-03 08:00:00,26.5867,110.1419,382.7,邵阳市,绥宁,绥宁县,962.6,28.5,35,44.5,13.624697428877901
57851,2025-06-03 08:00:00,26.4418,110.8528,348.4,邵阳市,新宁,新宁县,966.7,27.7,54,47,20.06260702487576
57853,2025-06-03 08:00:00,26.7386,110.6371,340.1,邵阳市,武冈,武冈市,967.7,27.4,47,47.5,17.15778221416953
57857,2025-06-03 08:00:00,26.3726,110.311,479.1,邵阳市,城步,城步苗族自治县,952.2,27.7,42,44.3,15.604249908236701
57860,2025-06-03 08:00:00,27.0022,111.2884,288.5,邵阳市,邵阳县,邵阳县,965.7,26.8,52,50.7,18.32547316844998
57865,2025-06-03 08:00:00,26.4956,111.6161,192.8,永州市,冷水滩,冷水滩区,983.7,27.9,50.0,38.78059940214781,18.79494742738369
57866,2025-06-03 08:00:00,26.226,111.6167,173.4,永州市,永州,零陵区,986.1,26.7,60,51.3,21.020574730432585
57867,2025-06-03 08:00:00,26.4025,111.2892,174.9,永州市,东安,东安县,985.8,28.1,53,50.8,20.15658743829308
57868,2025-06-03 08:00:00,26.5494,111.8622,163.3,永州市,祁阳,祁阳市,986.9,27.8,52.0,31.417475539009065,19.43285625561157
57870,2025-06-03 08:00:00,26.7633,112.0825,218.9,衡阳市,祁东,祁东县,980.6,26.7,64,52.9,22.42194637912809
57871,2025-06-03 08:00:00,26.9742,112.3669,90.8,衡阳市,衡阳县,衡阳县,995.1,28.5,54.0,40.83536495112751,21.020961747411622
57872,2025-06-03 08:00:00,26.9775,112.5942,122.1,衡阳市,衡阳,石鼓区,992.2,25.5,62,55.9,20.23179598709925
57874,2025-06-03 08:00:00,26.4092,112.3939,119,衡阳市,常宁,常宁市,992.5,26.3,62,55.3,21.214460318465207
57875,2025-06-03 08:00:00,26.755,112.6914,137,衡阳市,衡南,衡南县,990.0,26.6,66.0,48.208882596230104,22.986712230279313
57876,2025-06-03 08:00:00,26.4278,112.8292,138,衡阳市,耒阳,耒阳市,990.4,25.0,68,55.2,21.538520166073543
57881,2025-06-03 08:00:00,26.7139,113.2586,104.8,郴州市,安仁,安仁县,984.0,24.5,74,58.6,22.74859617028229
57882,2025-06-03 08:00:00,26.7892,113.545,133.2,株洲市,茶陵,茶陵县,989.7,25.5,71.0,33.77221382018261,23.16866959812979
57886,2025-06-03 08:00:00,26.4778,113.7922,273.2,株洲市,炎陵,炎陵县,974.9,24.6,57,54.6,17.627812602571638
57887,2025-06-03 08:00:00,26.1192,113.1144,169.4,郴州市,永兴,永兴县,986.5,25.1,70,56.8,22.304680216033567
57889,2025-06-03 08:00:00,26.0797,113.9447,834.1,郴州市,桂东,桂东县,912.8,22.0,73.0,36.25924976512849,19.29264814064125
57962,2025-06-03 08:00:00,25.9617,111.6544,206.7,永州市,双牌,双牌县,982.2,26.1,60,51.9,20.288672007316304
57965,2025-06-03 08:00:00,25.5339,111.5958,192.7,永州市,道县,道县,983.4,26.3,59,52,20.18795417402334
57966,2025-06-03 08:00:00,25.5947,111.9594,243.1,永州市,宁远,宁远县,977.6,27.1,59,52.2,21.16255366213789
57969,2025-06-03 08:00:00,25.2758,111.3106,259.4,永州市,江永,江永县,974.6,26.9,62.0,46.64557995076443,21.978607244208703
57971,2025-06-03 08:00:00,25.9117,112.2067,227.4,永州市,新田,新田县,980.2,26.3,61,51.9,20.872291603651252
57972,2025-06-03 08:00:00,25.7356,112.9772,368.6,郴州市,郴州,北湖区,964.0,23.3,72.0,31.7772306855073,20.59183550557481
57973,2025-06-03 08:00:00,25.7494,112.7247,329.8,郴州市,桂阳,桂阳县,968.8,23.8,70,51.4,20.632964073162828
57974,2025-06-03 08:00:00,25.5814,112.3653,214.5,郴州市,嘉禾,嘉禾县,981.0,25.9,61.0,42.2129656657426,20.38387040294411
57975,2025-06-03 08:00:00,25.4006,112.1678,345.9,永州市,蓝山,蓝山县,966.3,25.0,71.0,46.35545088176065,22.488748996929726
57976,2025-06-03 08:00:00,25.4058,112.9406,225.2,郴州市,宜章,宜章县,979.4,25.9,63,54.6,21.05219402271277
57978,2025-06-03 08:00:00,25.2731,112.5461,295.7,郴州市,临武,临武县,971.6,25.7,67,51.4,22.12475219195579
57981,2025-06-03 08:00:00,25.9744,113.2169,142.2,郴州市,资兴,资兴市,989.4,25.0,76,57.2,24.072463715023368
57985,2025-06-03 08:00:00,25.5558,113.6881,648.2,郴州市,汝城,汝城县,932.8,21.9,83,52.6,21.8019426463677
59063,2025-06-03 08:00:00,25.1819,111.5703,265.7,永州市,江华,江华瑶族自治县,974.7,26.8,57.0,35.86743235403394,20.087537896185555
CDAX,2025-06-03 08:00:00,29.41,112.2047,15.95,常德市,深柳镇,安乡县,1010.8031,24.7957,999999,43.4678,
CDHP,2025-06-03 08:00:00,29.9381,110.7792,224.54,常德市,东山峰管理区,石门县,986.8047,23.4419,999999,43.0651,
CDHS,2025-06-03 08:00:00,28.92,111.9583,15.82,常德市,龙阳街道,汉寿县,1010.7995,24.8489,999999,39.7581,
CDLL,2025-06-03 08:00:00,29.4619,111.7386,37.82,常德市,烽火乡,临澧县,1008.1476,24.6478,999999,42.3329,
CDLX,2025-06-03 08:00:00,29.6564,111.7517,31.69,常德市,澧阳街道,澧县,1010.209,24.736,999999,41.9386,
CDSM,2025-06-03 08:00:00,29.5833,111.3631,97.51,常德市,楚江街道,石门县,1001.2459,24.2634,999999,41.8989,
CDSQ,2025-06-03 08:00:00,29.1164,111.6764,130.04,常德市,柳叶湖街道,柳叶湖旅游度假区,997.5854,24.1159,999999,45.387,
CDTY,2025-06-03 08:00:00,28.9133,111.4797,29.45,常德市,漳江街道,桃源县,1009.1487,24.7611,999999,42.8526,
CSDY,2025-06-03 08:00:00,28.0314,113.6667,135.48,长沙市,大瑶镇,浏阳市,997.7147,24.2398,999999,55.8453,
CSHH,2025-06-03 08:00:00,28.2114,113.1969,88.32,长沙市,黄花镇,长沙县,1002.8991,24.5009,999999,54.7481,
CSKC,2025-06-03 08:00:00,28.1825,112.9964,66.33,长沙市,左家塘街道,雨花区,1005.3063,24.6338,999999,53.2222,
CSLY,2025-06-03 08:00:00,28.1561,113.6306,89.16,长沙市,淮川街道,浏阳市,1003.0108,24.5129,999999,54.0808,
CSNX,2025-06-03 08:00:00,28.1425,112.2319,94.42,长沙市,横市镇,宁乡市,1001.8159,24.4498,999999,48.5412,
CSXZ,2025-06-03 08:00:00,28.1014,111.9017,432.31,长沙市,巷子口镇,宁乡市,963.5761,22.3545,999999,41.1415,
CSYH,2025-06-03 08:00:00,28.2939,113.8503,120.74,长沙市,永和镇,浏阳市,999.4979,24.3081,999999,54.4435,
CZAR,2025-06-03 08:00:00,26.7136,113.2586,91.8,郴州市,永乐江镇,安仁县,1002.5845,24.6458,999999,54.6955,
CZBL,2025-06-03 08:00:00,26.3425,113.2789,185.29,郴州市,柏林镇,永兴县,991.9658,24.1084,999999,54.5017,
CZGY,2025-06-03 08:00:00,25.7494,112.7244,316.5,郴州市,鹿峰街道,桂阳县,976.9523,23.3458,999999,51.4334,
CZJH,2025-06-03 08:00:00,25.5519,112.3736,203.17,郴州市,珠泉镇,嘉禾县,989.3607,24.0489,999999,54.4602,
CZLT,2025-06-03 08:00:00,26.0797,112.4703,270.37,郴州市,莲塘镇,桂阳县,982.0014,23.5896,999999,52.4067,
CZLW,2025-06-03 08:00:00,25.2731,112.5461,282.88,郴州市,武水镇,临武县,980.7372,23.6057,999999,52.7014,
CZRC,2025-06-03 08:00:00,25.5144,113.6819,639.65,郴州市,卢阳镇,汝城县,941.6809,21.387,999999,51.0509,
CZYX,2025-06-03 08:00:00,26.1189,113.1144,156.86,郴州市,便江街道,永兴县,995.1554,24.3064,999999,54.8353,
CZYZ,2025-06-03 08:00:00,25.4058,112.9406,213.64,郴州市,玉溪镇,宜章县,988.7314,24.0316,999999,54.6548,
CZZX,2025-06-03 08:00:00,25.9744,113.2167,130.28,郴州市,唐洞街道,资兴市,998.2868,24.4925,999999,56.6296,
GQZX,2025-06-03 08:00:00,28.4664,113.3325,63.76,长沙市,高桥镇,长沙县,1005.7641,24.6277,999999,46.9388,
HHCX,2025-06-03 08:00:00,28.0069,110.1928,133.26,怀化市,辰阳镇,辰溪县,996.9979,24.2035,999999,50.3543,
HHGZ,2025-06-03 08:00:00,28.5353,110.9139,219.4,怀化市,官庄镇,沅陵县,987.3396,23.6209,999999,43.2763,
HHHJ,2025-06-03 08:00:00,27.1053,109.9964,181.65,怀化市,桂花园乡,洪江区,980.9788,23.4253,999999,54.5337,
HHHT,2025-06-03 08:00:00,26.8767,109.7206,265.29,怀化市,林城镇,会同县,981.8203,23.4949,999999,49.0122,
HHJZ,2025-06-03 08:00:00,26.5617,109.6733,299.9,怀化市,渠阳镇,靖州苗族侗族自治县,977.9151,23.3129,999999,48.814,
HHSA,2025-06-03 08:00:00,28.1744,110.7831,239.99,怀化市,深子湖镇,溆浦县,989.7658,23.7956,999999,50.6145,
HHSQ,2025-06-03 08:00:00,27.5461,109.9483,229.59,怀化市,城中街道,鹤城区,985.9545,23.6507,999999,49.0151,
HHTD,2025-06-03 08:00:00,26.1589,109.7778,378.48,怀化市,双江镇,通道侗族自治县,969.1105,22.867,999999,48.2486,
HHXH,2025-06-03 08:00:00,27.3681,109.1633,328.57,怀化市,晃州镇,新晃侗族自治县,974.5376,23.0408,999999,48.6299,
HHXP,2025-06-03 08:00:00,27.9122,110.6006,186.58,怀化市,卢峰镇,溆浦县,991.014,23.8882,999999,44.5706,
HHZF,2025-06-03 08:00:00,27.5883,110.2794,172.54,怀化市,铜湾镇,中方县,992.5372,24.0059,999999,49.7805,
HNCL,2025-06-03 08:00:00,26.7883,113.5608,114.74,株洲市,洣江街道,茶陵县,1000.0918,24.5027,999999,56.3269,
HNHJ,2025-06-03 08:00:00,27.1164,109.7269,201.81,怀化市,江市镇,洪江市,989.0046,23.8636,999999,52.375,
HNHY,2025-06-03 08:00:00,27.1492,112.3297,116.16,衡阳市,三湖镇,衡阳县,999.3886,24.4256,999999,53.7028,
HNJH,2025-06-03 08:00:00,25.1503,111.6225,271.71,永州市,涔天河镇,江华瑶族自治县,981.6929,23.6715,999999,49.3363,
HNLH,2025-06-03 08:00:00,27.3533,110.9406,331.55,邵阳市,六都寨镇,隆回县,974.7069,23.0517,999999,43.5762,
HNQY,2025-06-03 08:00:00,26.7692,111.8764,129.49,永州市,文富市镇,祁阳市,997.7636,24.3784,999999,50.3799,
HNRC,2025-06-03 08:00:00,25.5433,113.3447,499.17,郴州市,文明瑶族乡,汝城县,956.9463,22.2499,999999,50.2661,
HNTJ,2025-06-03 08:00:00,28.4706,111.7678,84.25,益阳市,马迹塘镇,桃江县,1002.8945,24.4726,999999,46.8068,
HNTY,2025-06-03 08:00:00,29.1786,111.2881,64.02,常德市,九溪镇,桃源县,1005.1231,24.516,999999,44.9914,
HNYL,2025-06-03 08:00:00,28.8117,110.6264,163.36,怀化市,大合坪乡,沅陵县,993.6626,23.9359,999999,48.4447,
HNYY,2025-06-03 08:00:00,29.1117,113.4997,129.4,岳阳市,公田镇,岳阳县,998.2806,24.1541,999999,34.3051,
HYCN,2025-06-03 08:00:00,26.4089,112.3939,103.58,衡阳市,泉峰街道,常宁市,1000.9017,24.5876,999999,54.5352,
HYGS,2025-06-03 08:00:00,26.7161,112.8797,77.57,衡阳市,冠市镇,衡南县,1004.0497,24.7248,999999,54.4231,
HYHD,2025-06-03 08:00:00,27.0911,112.9464,58.69,衡阳市,洣水镇,衡东县,1001.7196,24.5624,999999,54.2165,
HYLY,2025-06-03 08:00:00,26.4278,112.8289,123.95,衡阳市,五里牌街道,耒阳市,998.7196,24.4672,999999,53.391,
HYQD,2025-06-03 08:00:00,26.7636,112.0822,205.35,衡阳市,永昌街道,祁东县,989.1665,23.9102,999999,51.408,
HYSQ,2025-06-03 08:00:00,26.8892,112.5958,92.51,衡阳市,联合街道,蒸湘区,1000.5512,24.5072,999999,55.9256,
HYXQ,2025-06-03 08:00:00,27.3694,112.5258,87.23,衡阳市,新桥镇,衡山县,1002.7416,24.5834,999999,53.1076,
LDLT,2025-06-03 08:00:00,27.9633,111.11,238.56,娄底市,琅塘镇,新化县,985.2085,23.5653,999999,40.2882,
LDLY,2025-06-03 08:00:00,27.6958,111.7031,148.45,娄底市,石马山街道,涟源市,995.5465,24.1582,999999,47.4976,
LDSF,2025-06-03 08:00:00,27.4483,112.1733,85.76,娄底市,金开街道,双峰县,1002.828,24.5796,999999,51.9426,
LDSQ,2025-06-03 08:00:00,27.6908,112.0017,190.38,娄底市,万宝镇,娄星区,990.8129,23.9009,999999,47.8512,
LDXH,2025-06-03 08:00:00,27.7464,111.2939,195.82,娄底市,上梅街道,新化县,990.0877,23.8554,999999,47.8925,
P1000,2025-06-03 08:00:00,29.5819,109.5853,523,湘西土家族苗族自治州,石牌,龙山县,944.3,24.9,73.0,46.59187207263719,22.98459550802121
P1001,2025-06-03 08:00:00,29.4103,109.5969,803.2,湘西土家族苗族自治州,茨岩塘,龙山县,918.7,23.3,64.0,37.84802254847227,18.303853782733164
P1003,2025-06-03 08:00:00,29.3381,109.4894,848,湘西土家族苗族自治州,茅坪,龙山县,911.6,23.0,65.0,39.66358812494923,18.255415119789404
P1006,2025-06-03 08:00:00,29.2897,109.4136,1224,湘西土家族苗族自治州,可立坡,龙山县,873.8,20.2,65.0,25.0862169805449,15.379446888442311
P1009,2025-06-03 08:00:00,28.8125,109.3497,330.2,湘西土家族苗族自治州,树木,龙山县,968.1,26.5,78.0,50.889227984748715,27.006308053923252
P1016,2025-06-03 08:00:00,28.2761,109.6769,243.7,湘西土家族苗族自治州,红枫林场,吉首市,976.4,28.7,50.0,39.96546018270228,19.691396534157533
P1018,2025-06-03 08:00:00,29.1372,109.3714,791.6,湘西土家族苗族自治州,喳啦坪,龙山县,916.7,23.9,70.0,40.409047304313965,20.75754300224743
P1021,2025-06-03 08:00:00,29.0394,109.3542,338,湘西土家族苗族自治州,咱果,龙山县,967.1,26.5,64.0,40.965225314169885,22.159021992962668
P1060,2025-06-03 08:00:00,29.1431,109.6892,372,湘西土家族苗族自治州,两岔,永顺县,962.9,28.1,65.0,45.865642573076656,24.720343084699063
P1062,2025-06-03 08:00:00,29.0975,109.7117,307.2,湘西土家族苗族自治州,首车,永顺县,967.7,27.9,61.0,40.1242603259116,22.9298358614081
P1063,2025-06-03 08:00:00,28.9867,109.6683,434.2,湘西土家族苗族自治州,西歧,永顺县,958.4,27.2,55.0,38.17674638716242,19.84402250873238
P1066,2025-06-03 08:00:00,28.8458,110.1953,845.2,湘西土家族苗族自治州,三合,永顺县,911.8,24.2,66.0,36.64641791457936,19.927512754494778
P1069,2025-06-03 08:00:00,29.0336,110.2889,352.2,湘西土家族苗族自治州,永茂,永顺县,960.0,26.7,64.0,43.268975437703894,22.42194637912809
P1070,2025-06-03 08:00:00,29.0189,110.1378,543.6,湘西土家族苗族自治州,五里,永顺县,945.7,26.4,54.0,35.67470350207211,18.58660916541566
P1073,2025-06-03 08:00:00,28.8172,110.1172,218.7,湘西土家族苗族自治州,长官,永顺县,978.1,29.6,51.0,39.10205982626286,21.159227615892664
P1074,2025-06-03 08:00:00,28.8608,109.9961,615.3,湘西土家族苗族自治州,马鞍,永顺县,944.1,26.7,52.0,34.48074891108215,18.217831433041574
P1075,2025-06-03 08:00:00,29.2,109.8333,561.1,湘西土家族苗族自治州,李家,永顺县,941.4,25.7,58.0,37.196391997299436,19.152770554230383
P1076,2025-06-03 08:00:00,29.2864,109.8842,447.4,湘西土家族苗族自治州,毛坝,永顺县,954.4,26.2,66.0,35.63134220032434,22.449993665783264
P1077,2025-06-03 08:00:00,29.2017,109.9564,405.1,湘西土家族苗族自治州,隆发,永顺县,958.9,26.8,64.0,36.89380854750602,22.554428515015363
P1083,2025-06-03 08:00:00,29.1953,109.7719,750.7,湘西土家族苗族自治州,岩门,永顺县,922.7,23.5,62.0,34.2290661989859,17.947358943144405
P1084,2025-06-03 08:00:00,29.0697,110.2394,416,湘西土家族苗族自治州,青坪,永顺县,959.0,26.7,70.0,45.958103267610255,24.524003852171347
P1086,2025-06-03 08:00:00,29.1339,110.1864,401.2,湘西土家族苗族自治州,柯溪,永顺县,960.6,26.9,59.0,40.04858066509675,20.915126248521187
P1089,2025-06-03 08:00:00,29.0811,109.9828,625.8,湘西土家族苗族自治州,天堂,永顺县,935.9,24.9,61.0,35.20362496937812,19.20630583546978
P1091,2025-06-03 08:00:00,28.7372,109.965,486.3,湘西土家族苗族自治州,新区,永顺县,949.8,27.0,63.0,43.79454184987143,22.464862424609105
P1093,2025-06-03 08:00:00,28.8628,109.7828,399.7,湘西土家族苗族自治州,西那司,永顺县,960.0,27.7,63.0,42.054637581344835,23.406374862355054
P1095,2025-06-03 08:00:00,29.2839,110.0114,435.2,湘西土家族苗族自治州,砂坝,永顺县,955.0,25.7,69.0,38.6437358315279,22.785192555894767
P1096,2025-06-03 08:00:00,28.9219,110.3042,576.2,湘西土家族苗族自治州,朗溪,永顺县,939.9,26.3,60.0,37.80860765832183,20.530122888837294
P1097,2025-06-03 08:00:00,28.8928,109.6961,441.7,湘西土家族苗族自治州,宝石,永顺县,953.2,26.7,60.0,41.99698455154157,21.020574730432585
P1098,2025-06-03 08:00:00,28.8408,109.2558,1225,湘西土家族苗族自治州,八面山景区,龙山县,872.6,18.9,74.0,31.201113054202466,16.149253192375074
P1099,2025-06-03 08:00:00,28.2106,109.5614,268.4,湘西土家族苗族自治州,黄石洞水库,吉首市,971.2,28.6,86.0,62.562346510365984,33.67301831718565
P1100,2025-06-03 08:00:00,28.4428,109.4178,544.4,湘西土家族苗族自治州,三塘,花垣县,946.7,25.9,64.0,45.279546834000165,21.386355832597097
P1101,2025-06-03 08:00:00,28.5158,109.5869,675.8,湘西土家族苗族自治州,排力,保靖县,929.1,26.3,64.0,42.49698808073851,21.898797748093116
P1103,2025-06-03 08:00:00,28.5381,109.7606,363,湘西土家族苗族自治州,葫芦,保靖县,964.6,28.4,47.0,42.769226777682064,18.189889031823274
P1104,2025-06-03 08:00:00,28.1497,109.3761,837.6,湘西土家族苗族自治州,两林,凤凰县,912.7,24.6,45.0,21.948218524254976,13.916694159924978
P1113,2025-06-03 08:00:00,28.61,109.3547,325.4,湘西土家族苗族自治州,毛沟,保靖县,968.1,27.5,54.0,39.789660799264546,19.829071000549288
P1127,2025-06-03 08:00:00,28.6269,109.5519,214.7,湘西土家族苗族自治州,复兴,保靖县,979.2,28.7,56.0,46.735155341293286,22.05436411825644
P1152,2025-06-03 08:00:00,28.5181,109.2814,301.4,湘西土家族苗族自治州,曲乐,花垣县,969.2,28.0,49.0,40.69354964111585,18.52691622865125
P1154,2025-06-03 08:00:00,28.4247,109.5,742.3,湘西土家族苗族自治州,排达鲁,花垣县,922.5,24.5,76.0,46.710397203019674,23.363423093803437
P1172,2025-06-03 08:00:00,28.4964,109.3892,520.6,湘西土家族苗族自治州,祥和,花垣县,946.8,26.9,67.0,43.41275281897516,23.75107557035457
P1173,2025-06-03 08:00:00,28.5092,109.4736,478.5,湘西土家族苗族自治州,兄弟河水库,花垣县,951.8,26.7,67.0,43.536508203720835,23.47297511564972
P1203,2025-06-03 08:00:00,28.6939,109.8253,382.8,湘西土家族苗族自治州,米多,古丈县,960.9,28.1,57.0,41.864392154198356,21.677839320428408
P1208,2025-06-03 08:00:00,28.4803,109.8911,271,湘西土家族苗族自治州,中寨,古丈县,973.1,29.1,56.0,35.40614585544464,22.57187846121064
P1231,2025-06-03 08:00:00,28.3511,109.9481,345.4,湘西土家族苗族自治州,大坪,吉首市,964.8,26.8,57.0,38.34604206919313,20.087537896185555
P1232,2025-06-03 08:00:00,28.3381,109.5619,622.2,湘西土家族苗族自治州,排兄,吉首市,934.3,24.8,57.0,33.017342506669564,17.83996445034322
P1233,2025-06-03 08:00:00,28.2128,109.695,265.6,湘西土家族苗族自治州,周家寨,吉首市,973.8,28.5,44.0,37.01587780098161,17.128191053446507
P1236,2025-06-03 08:00:00,28.2122,109.8067,176.6,湘西土家族苗族自治州,河溪,吉首市,984.0,29.6,40.0,22.18984505245482,16.59547263991582
P1240,2025-06-03 08:00:00,28.3172,109.6519,388,湘西土家族苗族自治州,寨阳炮点,吉首市,960.5,28.5,53.0,37.09948589206578,20.63168467801511
P1241,2025-06-03 08:00:00,28.3233,109.5911,212.6,湘西土家族苗族自治州,矮寨,吉首市,979.5,29.3,48.0,35.25812709857065,19.572505207753554
P1246,2025-06-03 08:00:00,28.2561,109.6425,176.2,湘西土家族苗族自治州,八月湖水库,吉首市,982.0,29.8,48.0,37.958460063282104,20.145497520556592
P1248,2025-06-03 08:00:00,28.2953,109.7417,275.3,湘西土家族苗族自治州,镇溪,吉首市,974.6,28.4,54.0,38.865133375141085,20.89902144081823
P1291,2025-06-03 08:00:00,28.2233,110.0886,290.9,湘西土家族苗族自治州,大长坡,泸溪县,971.0,28.4,47.0,33.802793803312376,18.189889031823274
P1295,2025-06-03 08:00:00,28.0111,109.9969,235.1,湘西土家族苗族自治州,公羊,泸溪县,977.2,29.4,55.0,39.77509419741545,22.5568192245928
P1298,2025-06-03 08:00:00,28.1747,109.9475,213.8,湘西土家族苗族自治州,白羊溪,泸溪县,979.2,28.7,57.0,41.32847680780232,22.448192048939585
P1300,2025-06-03 08:00:00,28.1306,109.7322,140.2,湘西土家族苗族自治州,水卡,泸溪县,982.8,29.6,45.0,32.798877412487926,18.669906719905292
P1302,2025-06-03 08:00:00,28.11,109.89,383.2,湘西土家族苗族自治州,永兴场,泸溪县,961.7,27.8,50.0,31.638313717260903,18.685438707318813
P1303,2025-06-03 08:00:00,28.1264,109.8864,345,湘西土家族苗族自治州,小章,泸溪县,964.6,29.2,49.0,33.32470919609717,19.865039341494747
P1304,2025-06-03 08:00:00,28.2622,109.9231,150,湘西土家族苗族自治州,潭溪,泸溪县,989.8,29.6,51.0,39.37694728172519,21.159227615892664
P1306,2025-06-03 08:00:00,28.2403,110.0172,130,湘西土家族苗族自治州,甘溪,泸溪县,990.8,28.9,51.0,33.013724773870855,20.319684892690148
P1307,2025-06-03 08:00:00,28.3397,110.0339,230.1,湘西土家族苗族自治州,梁家潭,泸溪县,979.2,28.5,52.0,31.619377308382123,20.2424076086186
P1321,2025-06-03 08:00:00,28.0744,110.0911,139,湘西土家族苗族自治州,罗家,泸溪县,989.2,29.7,47.0,33.2741281115807,19.61245551232368
P1333,2025-06-03 08:00:00,27.9553,109.9908,172.6,湘西土家族苗族自治州,石榴坪,泸溪县,985.5,30.0,58.0,43.71872375438656,24.624337568603405
P1345,2025-06-03 08:00:00,28.0725,109.3836,799.3,湘西土家族苗族自治州,腊尔山,凤凰县,916.2,25.1,44.0,22.771535387923635,14.020084707221102
P1346,2025-06-03 08:00:00,28.1683,109.6061,226,湘西土家族苗族自治州,拉务,凤凰县,978.3,27.7,87.0,63.09668154054533,32.32308909563317
P1347,2025-06-03 08:00:00,28.0433,109.4572,605.5,湘西土家族苗族自治州,山江,凤凰县,937.3,27.2,53.0,39.57282868642383,19.12242169023302
P1348,2025-06-03 08:00:00,28.095,109.6017,337.4,湘西土家族苗族自治州,吉信,凤凰县,967.0,29.6,84.0,58.597417841502676,34.850492543823215
P1349,2025-06-03 08:00:00,27.9136,109.3144,673.9,湘西土家族苗族自治州,龙塘河水库,凤凰县,929.4,25.8,44.0,22.065431643199616,14.616178786173258
P1357,2025-06-03 08:00:00,27.9906,109.5111,378.5,湘西土家族苗族自治州,长潭岗水库,凤凰县,961.8,29.5,47.0,34.06272577470245,19.38747176172228
P1358,2025-06-03 08:00:00,28.0781,109.7528,401.4,湘西土家族苗族自治州,雷公洞,凤凰县,959.0,30.1,84.0,63.03209289359435,35.868482964543496
P1359,2025-06-03 08:00:00,27.8781,109.4486,427.3,湘西土家族苗族自治州,新场中学,凤凰县,958.6,28.1,43.0,17.503619206415102,16.353457732954762
P1367,2025-06-03 08:00:00,27.8942,109.5522,398.9,湘西土家族苗族自治州,林峰,凤凰县,960.0,30.6,83.0,59.86931392094052,36.4728990760531
P1368,2025-06-03 08:00:00,27.9197,109.6119,322,湘西土家族苗族自治州,古城,凤凰县,967.1,29.0,51.0,41.20630007207059,20.437808898044054
P1370,2025-06-03 08:00:00,28.2753,109.7925,162.3,湘西土家族苗族自治州,马鞍,吉首市,985.6,29.6,47.0,33.98350148253934,19.499680351901084
P1371,2025-06-03 08:00:00,28.1964,109.9825,359.9,湘西土家族苗族自治州,马入田,泸溪县,964.1,27.8,52.0,39.956494310710184,19.43285625561157
P1372,2025-06-03 08:00:00,28.755,109.85,433.1,湘西土家族苗族自治州,红石林,古丈县,957.1,27.7,58.0,40.19772421910476,21.548726063755442
P1373,2025-06-03 08:00:00,28.4178,109.9347,236,湘西土家族苗族自治州,坪坝学校,古丈县,979.4,28.6,58.0,43.562730542838764,22.709710027869388
P1374,2025-06-03 08:00:00,28.1769,109.4631,766.4,湘西土家族苗族自治州,大坪,凤凰县,919.9,24.7,82.0,42.47498325877404,25.51151031095633
P1375,2025-06-03 08:00:00,28.0228,109.5153,444,湘西土家族苗族自治州,建塘,凤凰县,954.6,28.3,50.0,39.53100463040884,19.238610693161032
P1376,2025-06-03 08:00:00,28.4506,109.8275,339.8,湘西土家族苗族自治州,团结,吉首市,966.7,27.9,58.0,41.53958439701046,21.802139015765075
P1383,2025-06-03 08:00:00,28.7953,110.2147,765.7,湘西土家族苗族自治州,竹坪,永顺县,919.9,25.3,57.0,24.420851086473107,18.380150303017185
P1385,2025-06-03 08:00:00,28.4478,109.7886,222.1,湘西土家族苗族自治州,冷寨河茶园,保靖县,979.3,29.2,48.0,32.904314024259236,19.459630375341792
P1386,2025-06-03 08:00:00,28.7764,109.7872,444.3,湘西土家族苗族自治州,友和,永顺县,954.8,27.1,60.0,42.720690527721985,21.521241012343612
P1387,2025-06-03 08:00:00,29.1019,109.9569,411.8,湘西土家族苗族自治州,颗砂,永顺县,958.4,27.0,55.0,37.573207024467614,19.6121814818016
P1390,2025-06-03 08:00:00,29.5056,109.4525,526,湘西土家族苗族自治州,白泥,龙山县,946.8,24.9,65.0,41.18434008304656,20.465735726320258
P1393,2025-06-03 08:00:00,29.5736,109.7031,817.3,湘西土家族苗族自治州,乌鸦,龙山县,917.3,25.2,55.0,31.26563574367849,17.62989536180369
P1395,2025-06-03 08:00:00,29.1778,109.6242,590,湘西土家族苗族自治州,马蹄,龙山县,941.0,26.1,60.0,37.412820931044116,20.288672007316304
P1397,2025-06-03 08:00:00,28.9228,109.4531,327,湘西土家族苗族自治州,金星,龙山县,967.0,27.6,55.0,37.031850861375986,20.314902143865428
P1400,2025-06-03 08:00:00,28.3761,109.6114,780.8,湘西土家族苗族自治州,排料,花垣县,920.7,24.0,62.0,35.676211454480864,18.496176689872506
P1414,2025-06-03 08:00:00,28.9036,110.0658,714.9,湘西土家族苗族自治州,花桥,永顺县,926.0,25.6,60.0,35.72299014148724,19.695879984635184
P1415,2025-06-03 08:00:00,28.4339,109.7911,219,湘西土家族苗族自治州,隘口,吉首市,979.1,29.2,51.0,35.72951992501451,20.675857273800652
P1416,2025-06-03 08:00:00,29.4122,109.9217,352.6,湘西土家族苗族自治州,万民,永顺县,963.6,26.8,65.0,44.10389892438476,22.90684146056248
P1418,2025-06-03 08:00:00,27.8297,109.6186,448.7,湘西土家族苗族自治州,水打田,凤凰县,953.4,26.5,47.0,17.702300329082313,16.27303177608196
P1421,2025-06-03 08:00:00,27.9817,109.3531,650.8,湘西土家族苗族自治州,麻冲,凤凰县,931.6,25.9,47.0,17.386251683174393,15.705605064563494
P1422,2025-06-03 08:00:00,28.1561,109.7278,172.8,湘西土家族苗族自治州,大兴,吉首市,984.7,29.4,45.0,31.61369579003963,18.455579365575925
P1423,2025-06-03 08:00:00,28.3494,109.7561,174.4,湘西土家族苗族自治州,峒河,吉首市,984.3,28.7,55.0,44.97087873807969,21.660536187573285
P1424,2025-06-03 08:00:00,28.3158,109.8158,272.3,湘西土家族苗族自治州,深坳,吉首市,973.6,29.1,51.0,34.93484549628049,20.556532170031115
P1425,2025-06-03 08:00:00,28.3147,109.6806,262.5,湘西土家族苗族自治州,曙光,吉首市,974.7,29.1,52.0,39.387071557758084,20.95960142826702
P1438,2025-06-03 08:00:00,28.2097,109.6703,261.4,湘西土家族苗族自治州,高新区,吉首市,973.8,29.3,47.0,38.67829836354108,19.164744682592023
P1439,2025-06-03 08:00:00,28.2308,109.5711,667.8,湘西土家族苗族自治州,十八湾,吉首市,930.7,25.6,49.0,17.738311653130868,16.084968654118736
P1440,2025-06-03 08:00:00,28.2758,109.8289,166.4,湘西土家族苗族自治州,司马,吉首市,984.2,28.8,44.0,26.93976277580374,17.42931243708943
P1441,2025-06-03 08:00:00,28.3139,109.7672,227,湘西土家族苗族自治州,望江坳,吉首市,977.8,28.9,53.0,37.73962100471066,21.116535280638782
P1442,2025-06-03 08:00:00,28.1961,109.8253,365.1,湘西土家族苗族自治州,楠木,吉首市,963.3,28.1,49.0,32.04191871943704,18.635335556157756
P1443,2025-06-03 08:00:00,28.3708,109.8458,446.9,湘西土家族苗族自治州,檀木,吉首市,953.5,26.8,65.0,43.128369171874795,22.90684146056248
P1444,2025-06-03 08:00:00,28.3614,109.6964,195.1,湘西土家族苗族自治州,龙舞,吉首市,981.0,29.1,53.0,39.364760888938015,21.362670686502927
P1446,2025-06-03 08:00:00,28.8114,109.7364,295.3,湘西土家族苗族自治州,柏杨,永顺县,974.5,27.3,70.0,48.70770151722379,25.40470394715127
P1450,2025-06-03 08:00:00,29.1842,109.8922,440,湘西土家族苗族自治州,廻龙,永顺县,955.0,26.0,68.0,38.89126935765262,22.858064825460957
P1451,2025-06-03 08:00:00,28.9425,110.0286,559.4,湘西土家族苗族自治州,铜瓦,永顺县,942.0,25.9,57.0,36.59486696767921,19.047223163406787
P1452,2025-06-03 08:00:00,29.3308,109.8131,454.2,湘西土家族苗族自治州,西库,永顺县,954.0,26.2,62.0,38.555801834839,21.089387989069124
P1461,2025-06-03 08:00:00,28.7444,109.8122,359.8,湘西土家族苗族自治州,坐苦坝,古丈县,962.9,28.4,59.0,40.165534470149964,22.834116018671768
P1462,2025-06-03 08:00:00,28.5697,109.8733,687.3,湘西土家族苗族自治州,翁草,古丈县,927.9,25.3,74.0,41.55336252286711,23.861949516197747
P1463,2025-06-03 08:00:00,28.0042,109.8947,202.1,湘西土家族苗族自治州,晒洲田,泸溪县,980.9,29.0,58.0,40.638263291152015,23.242998354638335
P1472,2025-06-03 08:00:00,27.9958,109.8042,279.5,湘西土家族苗族自治州,踏虎,泸溪县,973.0,28.6,53.0,33.40862265530705,20.751976404777203
P1473,2025-06-03 08:00:00,28.1917,110.1078,325.8,湘西土家族苗族自治州,顺江田,泸溪县,967.6,28.8,55.0,45.06989409138228,21.786640546361784
P1479,2025-06-03 08:00:00,28.5933,109.8417,636.5,湘西土家族苗族自治州,排茹,古丈县,932.9,27.3,58.0,39.94906906192771,21.049611841925337
P1480,2025-06-03 08:00:00,29.1408,110.0103,392.3,湘西土家族苗族自治州,车坪,永顺县,960.1,26.9,50.0,32.20163816353051,17.724683261458633
P1484,2025-06-03 08:00:00,29.4811,109.4144,510,湘西土家族苗族自治州,华塘,龙山县,947.7,25.2,68.0,45.98398031336294,21.796961538230022
P1485,2025-06-03 08:00:00,28.9583,109.3989,254.1,湘西土家族苗族自治州,贾市,龙山县,975.7,27.6,70.0,51.855546065454774,25.855330001283267
P1486,2025-06-03 08:00:00,29.33,109.9081,442.7,湘西土家族苗族自治州,团结,永顺县,953.4,26.1,62.0,39.99170748932945,20.964961074226846
P1487,2025-06-03 08:00:00,29.2878,109.8228,539.5,湘西土家族苗族自治州,农林,永顺县,943.8,25.6,61.0,36.145819781408505,20.02414465104577
P1488,2025-06-03 08:00:00,28.9267,110.2083,345.3,湘西土家族苗族自治州,官坝,永顺县,966.7,27.3,57.0,38.12910301897899,20.686687499823176
P1489,2025-06-03 08:00:00,28.8511,110.3261,326.9,湘西土家族苗族自治州,楠木,永顺县,968.9,27.7,62.0,40.89421090404466,23.03484510263513
P1490,2025-06-03 08:00:00,29.2603,109.73,392.5,湘西土家族苗族自治州,新场,永顺县,959.7,26.6,72.0,44.47546997157902,25.076413342122887
P1501,2025-06-03 08:00:00,29.5308,110.0994,318.6,张家界市,凉水口,桑植县,971.3,27.9,64.0,41.81469476113622,24.05753270705112
P1503,2025-06-03 08:00:00,29.5092,110.2944,334.5,张家界市,芙蓉桥,桑植县,969.1,26.7,68.0,49.648713177795024,23.8233180278236
P1504,2025-06-03 08:00:00,29.7025,110.5811,1067.1,张家界市,人潮溪镇白石,桑植县,891.4,23.0,64.0,33.3839555108166,17.97456257948495
P1505,2025-06-03 08:00:00,29.67,109.8344,1053,张家界市,八大公山,桑植县,892.9,22.5,65.0,34.15245919740941,17.70972622534921
P1506,2025-06-03 08:00:00,29.6097,110.4733,538.8,张家界市,官地坪,桑植县,944.0,26.8,50.0,34.55423589939146,17.62064727735575
P1508,2025-06-03 08:00:00,29.4389,110.2358,290.4,张家界市,瑞塔铺,桑植县,973.9,27.5,71.0,51.10890141135172,26.071556315537023
P1509,2025-06-03 08:00:00,29.4633,110.4847,376,张家界市,走马坪,桑植县,962.8,27.2,61.0,43.588978638071715,22.008824964230456
P1510,2025-06-03 08:00:00,29.6764,110.1533,394,张家界市,龙潭坪,桑植县,959.5,27.3,63.0,40.565638620025894,22.864233552436147
P1511,2025-06-03 08:00:00,29.6558,110.0108,503.9,张家界市,桑植坪,桑植县,950.8,26.3,64.0,42.44244301277541,21.898797748093116
P1512,2025-06-03 08:00:00,29.7036,109.9156,438.1,张家界市,五道水,桑植县,960.8,26.6,76.0,52.811247402522106,26.46954741668527
P1513,2025-06-03 08:00:00,29.3911,110.0075,489.3,张家界市,廖家村,桑植县,953.1,25.6,77.0,54.132754911667114,25.276379313615156
P1514,2025-06-03 08:00:00,29.4925,109.9892,307.4,张家界市,陈家河,桑植县,969.6,27.4,66.0,40.12633028854799,24.093906939046573
P1515,2025-06-03 08:00:00,29.5467,109.8644,377.4,张家界市,河口,桑植县,964.4,27.3,52.0,37.989895563193585,18.872065789312373
P1516,2025-06-03 08:00:00,29.4869,110.1578,458.6,张家界市,洪家关,桑植县,955.6,26.5,68.0,39.03480255076287,23.543960867522838
P1517,2025-06-03 08:00:00,29.4761,110.2389,298,张家界市,刘家坪,桑植县,973.4,23.6,85.0,50.15509261975915,24.75414817963027
P1518,2025-06-03 08:00:00,29.6175,110.6047,271,张家界市,人潮溪,桑植县,978.4,27.4,64.0,44.834106111221196,23.363788546954254
P1521,2025-06-03 08:00:00,29.3569,110.0775,311.6,张家界市,利福塔,桑植县,971.8,28.0,65.0,40.15481992898848,24.576521527802676
P1522,2025-06-03 08:00:00,29.5875,110.0053,564.7,张家界市,沙塔坪,桑植县,943.4,26.2,70.0,42.334698853041374,23.810599342497397
P1523,2025-06-03 08:00:00,29.5469,110.3881,455,张家界市,马合口,桑植县,956.5,26.3,68.0,39.489000670241914,23.26747260734894
P1524,2025-06-03 08:00:00,29.4897,110.3567,490.6,张家界市,麦地坪,桑植县,952.3,25.8,61.0,33.88871981219086,20.263338771740198
P1526,2025-06-03 08:00:00,29.6494,110.0861,485.5,张家界市,苦竹坪,桑植县,953.4,26.5,60.0,38.30960360706652,20.7740831184025
P1527,2025-06-03 08:00:00,29.4667,109.8192,616.8,张家界市,上河溪,桑植县,940.0,25.8,76.0,51.487729328045226,25.246126994299264
P1528,2025-06-03 08:00:00,29.4292,110.3028,346.7,张家界市,空壳树,桑植县,968.0,27.5,54.0,35.72213009291794,19.829071000549288
P1529,2025-06-03 08:00:00,29.6306,110.3592,241.2,张家界市,淋溪河,桑植县,979.6,27.9,86.0,55.735284662741826,32.32730957509994
P1530,2025-06-03 08:00:00,29.4875,110.5503,375.6,张家界市,竹叶坪,桑植县,966.6,26.9,71.0,45.22641295862367,25.16905023127126
P1531,2025-06-03 08:00:00,29.6497,109.8639,644.8,张家界市,细砂坪,桑植县,935.7,26.6,50.0,29.94434898488164,17.41417593202978
P1532,2025-06-03 08:00:00,29.5192,110.1553,475,张家界市,桥自弯,桑植县,954.0,26.6,62.0,43.3085725552369,21.59357815571693
P1533,2025-06-03 08:00:00,29.3258,109.9839,385.8,张家界市,上洞街,桑植县,963.2,27.0,74.0,49.25413905070942,26.387298720969422
P1534,2025-06-03 08:00:00,29.77,110.0656,1327,张家界市,天平山,桑植县,866.3,18.6,80.0,34.85862103342792,17.13403790317189
P1537,2025-06-03 08:00:00,29.3897,110.1606,367.6,张家界市,澧源,桑植县,966.0,26.8,73.0,51.60797531525032,25.726145024939395
P1538,2025-06-03 08:00:00,29.5481,110.4925,475.3,张家界市,分水岭,桑植县,953.1,27.0,67.0,44.28345397790667,23.891202896012857
P1540,2025-06-03 08:00:00,29.6375,110.275,795.2,张家界市,天星山林场,桑植县,920.2,25.2,61.0,35.063257610564854,19.55315667400046
P1542,2025-06-03 08:00:00,29.4267,110.1075,286.6,张家界市,洪家关乡南岔,桑植县,974.4,28.1,67.0,44.20646610848449,25.480969025766726
P1543,2025-06-03 08:00:00,29.465,109.91,626.7,张家界市,夹石河,桑植县,940.9,25.2,67.0,38.56957307925105,21.476417986197223
P1544,2025-06-03 08:00:00,29.7122,110.1894,786.9,张家界市,赶坪,桑植县,920.9,23.9,68.0,37.206804701531475,20.164470345040364
P1545,2025-06-03 08:00:00,29.5228,110.6036,838.8,张家界市,竹叶坪乡鸡公垭,桑植县,917.1,22.9,68.0,36.04816045672087,18.982580659227747
P1546,2025-06-03 08:00:00,29.7336,109.8025,681,张家界市,五道水镇连家湾,桑植县,932.4,22.9,82.0,45.950773088594026,22.890759030245217
P1547,2025-06-03 08:00:00,29.7419,110.0153,1127.8,张家界市,四门岩林场,桑植县,886.3,21.2,83.0,39.04703923853945,20.88699234287138
P1549,2025-06-03 08:00:00,29.5375,109.8092,631.2,张家界市,河口乡塘坊,桑植县,937.8,24.5,71.0,43.91284294607954,21.82635578500058
P1601,2025-06-03 08:00:00,29.3428,110.5597,450.3,张家界市,武陵源,武陵源区,956.5,28.1,59.0,43.26563989458973,22.43846526149607
P1602,2025-06-03 08:00:00,29.2456,110.5181,332.9,张家界市,协合,武陵源区,970.3,27.1,59.0,38.6113255119745,21.16255366213789
P1603,2025-06-03 08:00:00,29.3553,110.5294,375.4,张家界市,军地坪,武陵源区,966.0,27.3,68.0,45.98242199756773,24.678855262946954
P1604,2025-06-03 08:00:00,29.4078,110.4433,547,张家界市,天子山,武陵源区,947.3,25.6,53.0,33.35443358985679,17.39802731976108
P1605,2025-06-03 08:00:00,29.3589,110.3836,359.4,张家界市,中湖,武陵源区,961.5,26.9,68.0,43.410490136153065,24.105569235583744
P1606,2025-06-03 08:00:00,29.3664,110.5828,264.5,张家界市,索溪峪,武陵源区,974.4,28.2,54.0,37.1651158075799,20.656993418893638
P1607,2025-06-03 08:00:00,29.3031,110.4344,652.9,张家界市,锣鼓塔,武陵源区,934.8,25.5,81.0,49.153289173294354,26.431862499274832
P1610,2025-06-03 08:00:00,29.3897,110.4583,1087,张家界市,武陵源景区,武陵源区,887.8,21.2,74.0,31.86814318452987,18.622137751475687
P1702,2025-06-03 08:00:00,29.5033,110.7636,152.1,张家界市,江垭,慈利县,987.4,28.8,53.0,39.03749061420138,20.994399071948628
P1703,2025-06-03 08:00:00,29.2647,110.725,156.6,张家界市,阳和,慈利县,986.3,29.0,52.0,33.56845514160801,20.838550248986095
P1708,2025-06-03 08:00:00,29.3925,110.9825,170.4,张家界市,岩泊渡,慈利县,986.7,28.3,52.0,35.97466473340097,20.008155120887473
P1709,2025-06-03 08:00:00,29.4267,110.6156,352.4,张家界市,三官寺,慈利县,965.1,27.4,60.0,43.867566289828744,21.90355176276961
P1717,2025-06-03 08:00:00,29.1594,110.8261,840.7,张家界市,洞溪,慈利县,912.5,22.4,65.0,34.30182604956214,17.60232058278838
P1718,2025-06-03 08:00:00,29.4986,111.3256,102.8,张家界市,广福桥,慈利县,993.2,28.7,41.0,22.96958756651947,16.146945158009174
P1722,2025-06-03 08:00:00,29.5528,111.0339,179.4,张家界市,东岳观,慈利县,985.2,29.0,53.0,38.01919440227531,21.239291599928134
P1731,2025-06-03 08:00:00,29.4453,110.9283,589.6,张家界市,高峰,慈利县,941.5,25.6,49.0,21.85375148354957,16.084968654118736
P1732,2025-06-03 08:00:00,29.175,110.6789,239.8,张家界市,金岩,慈利县,979.4,28.7,68.0,48.7532900451176,26.780299286454248
P1733,2025-06-03 08:00:00,29.2819,110.9356,595.3,张家界市,赵家垭水库,慈利县,939.5,24.5,48.0,16.208375116804945,14.755846164507433
P1734,2025-06-03 08:00:00,29.6422,110.9561,395.1,张家界市,国太桥,慈利县,982.9,29.2,55.0,39.75584314086424,22.29749313841247
P1746,2025-06-03 08:00:00,29.4006,110.6997,614.9,张家界市,大峡谷,慈利县,938.7,22.0,62.0,32.037319036881456,16.38553677698298
P1801,2025-06-03 08:00:00,29.0119,110.4953,498.1,张家界市,天门山,永定区,948.5,27.3,63.0,40.93991519668029,22.864233552436147
P1802,2025-06-03 08:00:00,29.2275,110.6203,292,张家界市,合作桥,永定区,974.2,28.0,62.0,39.99727382194564,23.44222053421178
P1803,2025-06-03 08:00:00,29.0169,110.7228,372.2,张家界市,沅古坪,永定区,965.2,27.8,34.0,14.17393762543124,12.706098320976796
P1804,2025-06-03 08:00:00,29.2819,110.3253,386.9,张家界市,教字垭,永定区,943.5,27.1,66.0,43.12205275096852,23.673365113577976
P1805,2025-06-03 08:00:00,29.1869,110.3919,219.4,张家界市,尹家溪,永定区,979.2,28.3,60.0,43.28138124574486,23.086332831793236
P1806,2025-06-03 08:00:00,29.1486,110.5622,190.4,张家界市,阳湖坪,永定区,985.5,30.9,51.0,45.117371577261494,22.79899258036299
P1807,2025-06-03 08:00:00,29.165,110.2031,187.1,张家界市,茅岩河,永定区,982.3,28.7,60.0,46.81225465998368,23.629675840989037
P1808,2025-06-03 08:00:00,29.0464,110.8164,383.1,张家界市,王家坪,永定区,963.8,27.7,52.0,31.59194386547106,19.319547505435917
P1809,2025-06-03 08:00:00,29.1167,110.3794,214,张家界市,枫香岗,永定区,982.5,28.1,69.0,49.85509543244625,26.241594966834388
P1810,2025-06-03 08:00:00,29.1853,110.1164,336.1,张家界市,罗塔坪,永定区,965.3,27.3,57.0,39.55467849223597,20.686687499823176
P1811,2025-06-03 08:00:00,29.2661,110.2558,369.4,张家界市,罗水,永定区,965.6,27.4,62.0,43.0544086572372,22.63367015486193
P1812,2025-06-03 08:00:00,29.0867,110.3375,162,张家界市,后坪,永定区,985.7,28.9,55.0,42.28456323103529,21.913385668587416
P1813,2025-06-03 08:00:00,29.1603,110.4053,173.8,张家界市,大庸桥,永定区,986.5,28.9,62.0,50.43286690463589,24.70236202640763
P1814,2025-06-03 08:00:00,29.3397,110.3097,504.2,张家界市,桥头,永定区,949.1,26.0,74.0,49.361907384967765,24.874952898295742
P1815,2025-06-03 08:00:00,28.9797,110.6728,392,张家界市,和平岗,永定区,971.2,27.8,51.0,30.88551182801864,19.05914748146519
P1816,2025-06-03 08:00:00,29.0183,110.6217,602.7,张家界市,谢家垭,永定区,937.7,25.2,53.0,32.66973869400346,16.988808257738103
P1817,2025-06-03 08:00:00,29.1556,110.3086,407.4,张家界市,三家馆,永定区,959.4,26.8,77.0,48.204243265751096,27.135796807127857
P1818,2025-06-03 08:00:00,28.9306,110.4356,348.6,张家界市,四都坪,永定区,961.3,28.1,60.0,42.08848615793513,22.818778232029903
P1820,2025-06-03 08:00:00,29.2656,110.15,376.2,张家界市,青安,永定区,962.1,27.3,71.0,50.979103867342076,25.767628289253434
P1821,2025-06-03 08:00:00,29.0967,110.4478,203.4,张家界市,南庄坪,永定区,983.4,28.3,70.0,55.93276290560061,26.934054970425443
P1822,2025-06-03 08:00:00,29.1864,110.5069,252.8,张家界市,新桥,永定区,978.0,28.9,57.0,38.35894501579831,22.710236056536047
P1824,2025-06-03 08:00:00,29.1114,110.5189,253.3,张家界市,西溪坪,永定区,977.8,29.4,59.0,45.04919884306368,24.197315168199548
P1826,2025-06-03 08:00:00,28.9906,110.8103,220.9,张家界市,马头溪,永定区,982.4,27.7,53.0,36.45183323388548,19.691077265155837
P1851,2025-06-03 08:00:00,29.3461,110.3644,468,张家界市,小溪峪水库,永定区,956.0,25.6,87.0,58.137321132388394,28.55902597772102
P1852,2025-06-03 08:00:00,29.0808,110.4783,255,张家界市,官黎坪,永定区,975.6,27.7,59.0,44.172696604460796,21.920255823475365
P1856,2025-06-03 08:00:00,29.1397,110.4892,186.8,张家界市,崇文,永定区,983.6,29.3,52.0,42.036636240469036,21.203547308399685
P1857,2025-06-03 08:00:00,29.2292,110.4403,248,张家界市,沙堤,永定区,975.9,28.2,47.0,32.974629398945815,17.97923501274076
P1858,2025-06-03 08:00:00,28.9697,110.4528,892.5,张家界市,姚家界,永定区,908.7,24.1,71.0,32.41486411429856,21.308802391389378
P1904,2025-06-03 08:00:00,29.9367,110.7842,285,常德市,壶瓶山,石门县,978.1,25.5,85.0,53.580118139927855,27.737139659732843
P1909,2025-06-03 08:00:00,29.8836,110.5408,1123,常德市,南北,石门县,886.0,21.1,66.0,29.695309139022967,16.507215111600395
P1910,2025-06-03 08:00:00,29.9258,110.6756,1469,常德市,东山峰,石门县,847.5,19.1,54.0,22.639711773813772,11.932683697919124
P1913,2025-06-03 08:00:00,29.7033,112.0272,38,常德市,青龙窖,澧县,1002.7,28.2,41.0,22.23589236542546,15.684013521752574
P1914,2025-06-03 08:00:00,29.8247,111.5922,99,常德市,金罗,澧县,994.9,28.6,55.0,33.69558766038188,21.53506985401408
P1920,2025-06-03 08:00:00,29.9772,111.0706,274,常德市,太平,石门县,975.1,28.6,54.0,36.72362999736259,21.143523129395643
P1931,2025-06-03 08:00:00,29.7106,111.5417,76,常德市,官亭水库,临澧县,997.6,28.4,54.0,38.1577766530859,20.89902144081823
P1933,2025-06-03 08:00:00,29.6758,111.6553,26.1,常德市,城头山,澧县,1001.6,28.8,75.0,50.89835378617042,29.70905529049334
P1940,2025-06-03 08:00:00,29.6808,111.1444,717.7,常德市,白云山林场,石门县,927.4,24.4,67.0,35.1761534793971,20.47363963819215
P1950,2025-06-03 08:00:00,29.5639,111.6178,55,常德市,停弦渡,临澧县,998.3,28.8,58.0,36.63428541102226,22.975002757981514
P1953,2025-06-03 08:00:00,29.5764,112.105,30,常德市,水管站,安乡县,1003.2,27.4,65.0,36.760303337086924,23.728847743000415
P1960,2025-06-03 08:00:00,29.5481,111.6556,70,常德市,水阁,临澧县,996.2,28.3,60.0,36.342355905776635,23.086332831793236
P1968,2025-06-03 08:00:00,29.5453,112.1906,41,常德市,安全,安乡县,1002.9,28.2,55.0,28.266889193326175,21.039530334058334
P1973,2025-06-03 08:00:00,29.4153,111.3825,100.9,常德市,蒙泉水库,石门县,995.1,29.2,58.0,43.384478703438965,23.51372003687133
P1979,2025-06-03 08:00:00,29.4189,111.9708,48.8,常德市,毛里湖,津市市,1002.6,28.5,54.0,27.16133299885043,21.020961747411622
P1981,2025-06-03 08:00:00,29.3769,111.5444,83,常德市,文家店,临澧县,997.0,29.1,54.0,27.962845676566573,21.765739944738833
P1985,2025-06-03 08:00:00,29.3478,111.7061,89,常德市,四新岗,临澧县,996.4,28.4,60.0,41.24144883963899,23.221134934242475
P1993,2025-06-03 08:00:00,29.28,112.1528,31,常德市,下渔口,安乡县,1003.1,28.1,64.0,43.60142190405207,24.34003011416523
P1999,2025-06-03 08:00:00,29.2581,111.5381,83.6,常德市,王家垱水库,桃源县,995.0,29.2,59.0,46.36889794919478,23.919129003024285
P2002,2025-06-03 08:00:00,29.1975,111.1814,98.5,常德市,黄石水库,桃源县,993.6,29.0,56.0,45.959176997586546,22.44151565275426
P2005,2025-06-03 08:00:00,29.1881,111.6328,20.4,常德市,蔡家岗,鼎城区,1001.8,30.2,54.0,43.18921459470514,23.19117846940633
P2025,2025-06-03 08:00:00,29.0611,110.9786,173.8,常德市,牛车河,桃源县,983.0,29.3,53.0,32.3744074258932,21.611307833561217
P2027,2025-06-03 08:00:00,29.0508,111.9961,27,常德市,罐头嘴,汉寿县,1003.0,28.0,60.0,38.53997919091161,22.68601987181785
P2028,2025-06-03 08:00:00,29.0361,111.6239,36,常德市,农科院,武陵区,1002.2,29.6,56.0,43.90135041035556,23.233661695882144
P2029,2025-06-03 08:00:00,29.0325,111.7306,29,常德市,东江,武陵区,1002.8,29.9,59.0,41.919161402330445,24.905174402870053
P2030,2025-06-03 08:00:00,29.0528,111.6778,51,常德市,文理学院,武陵区,1002.5,29.4,55.0,43.38456587420913,22.5568192245928
P2042,2025-06-03 08:00:00,28.9864,111.7983,28,常德市,观音寺电排,武陵区,1002.7,28.8,59.0,43.36212168271462,23.371123495188094
P2043,2025-06-03 08:00:00,28.8669,111.475,48.7,常德市,新桥电排,桃源县,1001.4,29.2,53.0,31.061125243404472,21.48667520610656
P2044,2025-06-03 08:00:00,28.9611,111.7544,50,常德市,伍家嘴,武陵区,1002.2,29.1,58.0,43.11985811480862,23.378016977682446
P2047,2025-06-03 08:00:00,28.945,110.9653,371.5,常德市,观音寺,桃源县,963.2,27.2,60.0,36.85587932621234,21.648024554980775
P2049,2025-06-03 08:00:00,28.91,111.7369,40,常德市,市二中,武陵区,1000.0,29.4,60.0,42.93820329212677,24.607439154101233
P2054,2025-06-03 08:00:00,28.8933,111.8183,55,常德市,聂家桥,汉寿县,1002.6,29.3,47.0,31.9036189429713,19.164744682592023
P2074,2025-06-03 08:00:00,28.7228,111.7731,86,常德市,江东市水库,汉寿县,996.2,30.0,53.0,37.917718205926256,22.50154984717208
P2075,2025-06-03 08:00:00,28.6942,112.1417,95,常德市,军山铺,汉寿县,995.6,28.2,54.0,33.28691663710332,20.656993418893638
P2076,2025-06-03 08:00:00,28.7069,111.5464,120,常德市,花岩溪,鼎城区,991.7,30.0,51.0,36.517145560668745,21.652434758599547
P2083,2025-06-03 08:00:00,28.6486,111.3175,56.6,常德市,沙坪,桃源县,998.1,29.5,49.0,38.55565837877837,20.212470560093443
P2089,2025-06-03 08:00:00,29.8928,111.0164,418,常德市,里山河水库,石门县,957.7,27.0,66.0,46.13907425147989,23.53461777816192
P2090,2025-06-03 08:00:00,29.8706,111.8003,100,常德市,盐井,澧县,995.5,29.5,45.0,26.717784586962292,18.56247296335112
P2091,2025-06-03 08:00:00,29.2086,111.9756,30,常德市,南湖,武陵区,1002.8,28.4,58.0,29.510919940903424,22.447097103101058
P2092,2025-06-03 08:00:00,29.0175,112.0069,38,常德市,洲口,汉寿县,1002.6,28.6,57.0,30.896206235718054,22.31816330325095
P2093,2025-06-03 08:00:00,28.7522,111.33,58,常德市,剪市,桃源县,1000.3,29.6,55.0,40.10191752283982,22.81877487988425
P2106,2025-06-03 08:00:00,29.1533,112.1192,31,常德市,十美堂,鼎城区,1003.1,29.5,54.0,31.723895743180623,22.274967556021345
P2107,2025-06-03 08:00:00,29.7494,110.8531,213.4,常德市,南岳寺,石门县,982.5,29.3,57.0,40.52088056676726,23.242349934207343
P2122,2025-06-03 08:00:00,29.8147,111.1167,583,常德市,大同山林场,石门县,939.8,25.3,67.0,39.03839354911955,21.60473807547634
P2127,2025-06-03 08:00:00,29.8519,111.3928,228,常德市,芦茅,澧县,980.9,28.1,51.0,31.50944596798055,19.395961497225418
P2128,2025-06-03 08:00:00,29.7669,111.5272,83,常德市,王家厂水库,澧县,996.9,29.0,53.0,34.12988846647916,21.239291599928134
P2130,2025-06-03 08:00:00,29.3072,111.765,56,常德市,鳌山小学,临澧县,998.5,29.7,60.0,40.72778472470055,25.03717724977491
P2135,2025-06-03 08:00:00,29.0197,111.5692,36,常德市,木塘垸,桃源县,1002.2,29.6,53.0,43.685485821517,21.989001247888456
P2137,2025-06-03 08:00:00,28.7575,111.2289,73.4,常德市,凌津滩,桃源县,998.1,28.6,50.0,26.21167542521375,19.57733623092189
P2139,2025-06-03 08:00:00,28.7408,112.1842,73,常德市,赤港湾水库,汉寿县,997.8,29.1,55.0,36.31456505512735,22.168809202974735
P2140,2025-06-03 08:00:00,28.6681,111.9919,60,常德市,斋家冲水库,汉寿县,998.9,28.7,53.0,31.62767279802451,20.872880326206985
P2147,2025-06-03 08:00:00,28.85,111.65,56.3,常德市,草坪,鼎城区,1001.5,29.1,54.0,34.21097880993902,21.765739944738833
P2198,2025-06-03 08:00:00,28.6514,111.2442,114.3,常德市,杨溪桥,桃源县,994.0,29.3,54.0,42.94626641698438,22.019068358722752
P2203,2025-06-03 08:00:00,29.5131,111.7992,50,常德市,庹家峪水库,津市市,997.2,27.9,32.0,18.43078921647642,12.02876635352556
P2600,2025-06-03 08:00:00,29.4164,112.3169,34,益阳市,红堰湖,南县,1003.0,27.8,72.0,49.11888741181826,26.907031738539093
P2604,2025-06-03 08:00:00,29.2914,112.2467,35.5,益阳市,同跃,南县,1003.0,28.3,72.0,49.48141601234653,27.703599398151887
P2607,2025-06-03 08:00:00,29.2764,112.3436,32,益阳市,同湖,南县,1003.2,28.9,60.0,36.762666102245404,23.905511638458997
P2608,2025-06-03 08:00:00,29.1864,112.3614,34,益阳市,咸嘉垸,南县,1002.6,28.9,40.0,25.072831084327113,15.937007758972667
P2609,2025-06-03 08:00:00,29.1058,112.3444,26.8,益阳市,同春,南县,1003.1,28.3,59.0,37.87652255994299,22.701560617930017
P2614,2025-06-03 08:00:00,29.2403,112.4053,30,益阳市,青树嘴,南县,1003.0,29.4,59.0,44.28257647227126,24.197315168199548
P2615,2025-06-03 08:00:00,29.3075,112.2731,31,益阳市,六百弓,南县,1003.3,28.5,62.0,44.19424765465209,24.135178302583714
P2617,2025-06-03 08:00:00,29.295,112.5342,35,益阳市,大木桥,南县,1002.9,28.8,52.0,26.853595861283665,20.59827833474205
P2619,2025-06-03 08:00:00,29.2919,112.6567,31,益阳市,华东,南县,1003.4,28.3,60.0,34.94911948383425,23.086332831793236
P2631,2025-06-03 08:00:00,29.3522,112.4061,32.5,益阳市,一中,南县,1003.0,28.6,26.0,13.435554767698891,10.180214840079383
P2650,2025-06-03 08:00:00,29.1853,112.6258,33.9,益阳市,河坝,大通湖区,1003.2,28.5,58.0,41.562485840843365,22.578070024997665
P2652,2025-06-03 08:00:00,29.2256,112.5492,36,益阳市,沙堡州,大通湖区,1003.3,27.9,60.0,42.42999991520251,22.553936912860426
P2653,2025-06-03 08:00:00,29.1128,112.6697,33,益阳市,金盆,大通湖区,1003.4,29.1,59.0,42.2851815769106,23.78108623591835
P2654,2025-06-03 08:00:00,29.1294,112.4258,31,益阳市,千山红,大通湖区,1003.4,29.1,57.0,38.67929704135811,22.97494771944654
P2660,2025-06-03 08:00:00,29.0058,112.4864,34,益阳市,新村,沅江市,1003.4,27.9,64.0,40.018436858492954,24.05753270705112
P2667,2025-06-03 08:00:00,28.8325,112.3867,32,益阳市,城区水管站,沅江市,1003.0,28.7,49.0,23.455412554047967,19.29756860347438
P2673,2025-06-03 08:00:00,29.0719,112.4425,31,益阳市,乐安,沅江市,1003.4,28.9,49.0,26.280843272769797,19.522834504741517
P2674,2025-06-03 08:00:00,29.0364,112.2967,35,益阳市,南嘴,沅江市,999.6,30.9,55.0,42.79646929001468,24.587148861175777
P2677,2025-06-03 08:00:00,29.0789,112.6986,42.9,益阳市,石东港,沅江市,1002.9,28.5,55.0,28.689680465532174,21.410238816808135
P2680,2025-06-03 08:00:00,28.9883,112.8406,30,益阳市,漉湖芦苇场,沅江市,1003.0,28.7,59.0,41.054957365022226,23.23584791030589
P2682,2025-06-03 08:00:00,28.9406,112.5828,32,益阳市,双洲,沅江市,1003.2,29.8,40.0,18.17632897209934,16.78791460046383
P2684,2025-06-03 08:00:00,29.1172,112.5633,41,益阳市,四季红,沅江市,1003.4,29.1,60.0,38.90242060178859,24.184155494154254
P2686,2025-06-03 08:00:00,28.7569,112.3478,46,益阳市,三眼塘,沅江市,1002.3,29.3,55.0,36.771868143487545,22.42682888388428
P2687,2025-06-03 08:00:00,28.9481,112.3022,62,益阳市,新湾,沅江市,997.1,28.1,55.0,30.041876502690993,20.917213379360746
P2720,2025-06-03 08:00:00,28.6861,112.2436,45,益阳市,新塘,资阳区,998.5,29.6,38.0,22.64574405713537,15.765699007920027
P2721,2025-06-03 08:00:00,28.6033,112.2003,64.7,益阳市,新桥河,资阳区,1000.6,29.5,44.0,36.33979354649409,18.149973564165542
P2725,2025-06-03 08:00:00,28.6278,112.3161,49.2,益阳市,长春,资阳区,1001.1,29.2,51.0,39.10132419751693,20.675857273800652
P2726,2025-06-03 08:00:00,28.7667,112.4547,55,益阳市,张家塞,资阳区,1002.2,28.6,54.0,32.778735035826706,21.143523129395643
P2729,2025-06-03 08:00:00,28.8019,112.5844,38.9,益阳市,茈湖口,资阳区,1002.3,29.0,7.0,3.892184951219266,2.8051894565942823
P2730,2025-06-03 08:00:00,28.6058,112.3467,31.5,益阳市,体育公园,资阳区,1002.5,29.0,46.0,34.01079313093699,18.434102143333853
P2731,2025-06-03 08:00:00,28.6103,112.1164,70,益阳市,蓼园,资阳区,998.3,29.6,47.0,35.64971923592172,19.499680351901084
P2760,2025-06-03 08:00:00,28.5892,112.2936,36,益阳市,会龙山,赫山区,1001.5,29.0,53.0,36.95561422085747,21.239291599928134
P2761,2025-06-03 08:00:00,28.4789,112.2547,73,益阳市,自搭桥,赫山区,997.6,29.7,45.0,32.32065280904378,18.77788293733118
P2764,2025-06-03 08:00:00,28.4839,112.5231,58,益阳市,新安山,赫山区,1002.5,29.2,55.0,33.14220013397267,22.29749313841247
P2768,2025-06-03 08:00:00,28.5881,112.4486,36,益阳市,兰溪,赫山区,1002.6,29.1,1.0,5.624654472781142,0.4030692582359043
P2769,2025-06-03 08:00:00,28.5042,112.395,46,益阳市,龙岭工业园,赫山区,1001.3,29.4,48.0,34.25366782513613,19.68595132328099
P2771,2025-06-03 08:00:00,28.3992,112.2811,53.1,益阳市,泥江口,赫山区,997.9,31.3,63.0,46.14051989173654,28.813660472092867
P2773,2025-06-03 08:00:00,28.4111,112.4353,55.7,益阳市,鱼形山水库,赫山区,999.4,28.4,51.0,38.31510539542217,19.737964694106104
P2774,2025-06-03 08:00:00,28.3506,112.4547,58,益阳市,朱公塘水库,赫山区,997.1,30.0,53.0,38.9689939066467,22.50154984717208
P2775,2025-06-03 08:00:00,28.6003,112.3694,46,益阳市,团洲,赫山区,1002.4,29.0,50.0,37.05180286930087,20.037067547102016
P2776,2025-06-03 08:00:00,28.4928,112.4283,44,益阳市,金山,赫山区,1000.2,29.2,51.0,34.21510545822399,20.675857273800652
P2777,2025-06-03 08:00:00,28.5083,112.4903,43,益阳市,笔架山,赫山区,1002.7,28.9,53.0,39.16100986924425,21.116535280638782
P2778,2025-06-03 08:00:00,28.3297,112.4097,80,益阳市,岳家桥,赫山区,996.9,28.5,32.0,20.375872298820827,12.456866220688369
P2780,2025-06-03 08:00:00,28.6306,112.5744,42,益阳市,八字哨,赫山区,1001.9,29.4,49.0,36.00763056392422,20.096075309182677
P2781,2025-06-03 08:00:00,28.4825,112.5644,39.7,益阳市,新和电排,赫山区,1002.7,29.0,56.0,40.215110416064256,22.44151565275426
P2782,2025-06-03 08:00:00,28.4753,112.5931,30,益阳市,红洲垸电排,赫山区,1002.2,28.1,55.0,39.36699818862293,20.917213379360746
P2784,2025-06-03 08:00:00,28.5456,112.6806,40,益阳市,流水口,赫山区,1002.3,28.3,60.0,39.219823543433435,23.086332831793236
P2789,2025-06-03 08:00:00,28.5414,112.4306,31,益阳市,大丰电排,赫山区,1002.3,28.0,70.0,44.22951407815792,26.467023183787493
P2820,2025-06-03 08:00:00,28.5617,112.3283,114.6,益阳市,市政府,赫山区,995.3,29.4,47.0,40.06309655637712,19.2758273373793
P2821,2025-06-03 08:00:00,28.5269,112.2589,56,益阳市,谢林港,赫山区,1000.8,29.2,55.0,25.089949254516466,22.29749313841247
P2823,2025-06-03 08:00:00,28.4403,112.4719,49,益阳市,管委会,赫山区,997.8,28.6,50.0,40.50287381094128,19.57733623092189
P2840,2025-06-03 08:00:00,28.6144,111.7447,112,益阳市,碧螺水库,桃江县,993.2,28.6,51.0,33.82159830245436,19.968882955540327
P2841,2025-06-03 08:00:00,28.5358,111.72,90.4,益阳市,武潭,桃江县,996.4,28.8,53.0,32.35082840983176,20.994399071948628
P2842,2025-06-03 08:00:00,28.4442,111.6533,55,益阳市,百乐,桃江县,997.9,29.3,61.0,45.95842436858756,24.873392034853474
P2843,2025-06-03 08:00:00,28.5608,111.8267,80.2,益阳市,鲊埠,桃江县,997.8,29.2,56.0,34.11493395853507,22.70290210456543
P2845,2025-06-03 08:00:00,28.435,111.7794,80.1,益阳市,沂溪河电站,桃江县,997.4,29.5,52.0,38.858592908592904,21.449968757650183
P2847,2025-06-03 08:00:00,28.4878,111.8461,68,益阳市,大栗港,桃江县,995.0,30.0,47.0,39.960027751965434,19.954204581454484
P2848,2025-06-03 08:00:00,28.4094,111.8381,92,益阳市,泗里河,桃江县,994.1,29.6,49.0,32.57385710505211,20.329453983896876
P2849,2025-06-03 08:00:00,28.5997,111.9967,82.7,益阳市,修山,桃江县,997.1,29.0,46.0,33.02120720390653,18.434102143333853
P2850,2025-06-03 08:00:00,28.5514,111.9658,33,益阳市,沾溪,桃江县,1000.3,29.9,43.0,37.901242598295234,18.151228802091733
P2851,2025-06-03 08:00:00,28.4717,111.9447,52.4,益阳市,鸬鹚渡,桃江县,998.2,29.8,50.0,36.05751576018447,20.984893250579784
P2852,2025-06-03 08:00:00,28.455,111.9333,124,益阳市,何家村,桃江县,994.9,29.5,46.0,36.957754096357476,18.9749723625367
P2853,2025-06-03 08:00:00,28.5383,112.0503,44,益阳市,水口山,桃江县,999.4,29.3,47.0,37.327416373042105,19.164744682592023
P2854,2025-06-03 08:00:00,28.3933,112.04,175,益阳市,罗溪,桃江县,984.3,28.0,71.0,53.016555462571866,26.84512351498446
P2855,2025-06-03 08:00:00,28.3203,112.0681,146,益阳市,松木塘,桃江县,989.9,28.7,52.0,32.242587668143436,20.479052395523833
P2857,2025-06-03 08:00:00,28.5158,112.1367,51.5,益阳市,曹家仑,桃江县,1000.9,30.1,43.0,29.141620015694777,18.361247231849642
P2858,2025-06-03 08:00:00,28.4433,111.9942,76,益阳市,高桥,桃江县,995.4,29.6,49.0,39.18980527283926,20.329453983896876
P2859,2025-06-03 08:00:00,28.3208,112.0717,105,益阳市,桃花江水库,桃江县,994.0,29.5,51.0,35.715028382470685,21.0374693584646
P2860,2025-06-03 08:00:00,28.5742,112.2017,64,益阳市,花果山,桃江县,1001.6,29.4,44.0,32.21878151584408,18.04545537967424
P2861,2025-06-03 08:00:00,28.4258,112.1567,71,益阳市,石牛江,桃江县,999.8,30.4,45.0,38.25615253359495,19.549100382232805
P2862,2025-06-03 08:00:00,28.4056,112.1633,41,益阳市,牛田,桃江县,999.1,29.5,43.0,33.220223202027285,17.737474164979957
P2863,2025-06-03 08:00:00,28.2972,112.1433,176,益阳市,李家湾,桃江县,986.7,28.7,47.0,23.88916206467895,18.50991274210808
P2864,2025-06-03 08:00:00,28.2928,112.2267,114,益阳市,灰山港,桃江县,991.5,28.7,52.0,32.81690895866542,20.479052395523833
P2901,2025-06-03 08:00:00,28.2914,111.2853,271.2,益阳市,文溪,安化县,973.4,28.4,48.0,27.86531987291677,18.57690794739398
P2903,2025-06-03 08:00:00,28.4906,111.4861,143.3,益阳市,冷市,安化县,989.4,29.2,57.0,46.47337751380853,23.108311070718376
P2904,2025-06-03 08:00:00,28.3453,111.1011,195.9,益阳市,柘溪,安化县,982.9,29.1,54.0,44.67147729956213,21.765739944738833
P2905,2025-06-03 08:00:00,28.0603,111.7581,362,益阳市,清塘铺,安化县,965.9,28.4,44.0,28.84569543654022,17.02883228511115
P2907,2025-06-03 08:00:00,28.3919,111.4953,75.7,益阳市,小淹,安化县,996.2,31.9,50.0,41.23399975801311,23.661512682881334
P2908,2025-06-03 08:00:00,28.4631,111.3892,108.5,益阳市,龙塘,安化县,990.8,30.5,56.0,47.284724654502085,24.467644571240978
P2909,2025-06-03 08:00:00,28.2458,111.7108,158.9,益阳市,仙溪,安化县,989.9,29.0,47.0,30.901004270575598,18.834843494275894
P2910,2025-06-03 08:00:00,28.0986,111.5753,198.8,益阳市,乐安,安化县,981.7,28.7,51.0,38.106266100251126,20.08522446484068
P2911,2025-06-03 08:00:00,28.2603,111.7928,220.5,益阳市,九渡水,安化县,980.3,27.9,32.0,19.689390037154702,12.02876635352556
P2915,2025-06-03 08:00:00,28.0372,111.0864,221.9,益阳市,平口水厂,安化县,981.7,30.2,49.0,40.24484738208861,21.043847129646487
P2919,2025-06-03 08:00:00,28.3197,111.2906,148,益阳市,田庄,安化县,986.6,29.2,55.0,44.73332138135775,22.29749313841247
P2921,2025-06-03 08:00:00,28.2475,110.8294,272.4,益阳市,奎溪,安化县,974.7,29.4,41.0,27.4851326721386,16.815083421969174
P2925,2025-06-03 08:00:00,28.4467,111.2144,129.6,益阳市,红岩水库,安化县,988.8,30.3,48.0,37.40358897349673,20.73307927739022
P2926,2025-06-03 08:00:00,28.3411,111.6094,113.7,益阳市,滔溪,安化县,991.6,29.2,49.0,40.111915445682605,19.865039341494747
P2927,2025-06-03 08:00:00,28.1361,111.6633,188.7,益阳市,梅城,安化县,984.5,28.6,50.0,38.39423632541902,19.57733623092189
P2930,2025-06-03 08:00:00,28.0419,111.8275,307.3,益阳市,高明,安化县,971.3,28.2,41.0,16.55885885662822,15.684013521752574
P2931,2025-06-03 08:00:00,28.5319,111.6106,101.9,益阳市,羊角塘,安化县,995.0,29.6,48.0,30.89850475468669,19.91456716789898
P2936,2025-06-03 08:00:00,28.3739,111.4203,66.2,益阳市,红泥,安化县,996.4,29.6,54.0,45.898170725612715,22.403888063886352
P2954,2025-06-03 08:00:00,28.4353,111.2819,138,益阳市,马渡,安化县,988.8,29.8,59.0,52.97252234406051,24.762174035684144
P2956,2025-06-03 08:00:00,28.3475,111.4978,119.6,益阳市,大双,安化县,991.1,29.7,47.0,41.74313713492291,19.61245551232368
P3101,2025-06-03 08:00:00,28.4764,113.7175,320,岳阳市,白水水库,平江县,971.1,28.4,58.0,39.639572221793976,22.447097103101058
P3102,2025-06-03 08:00:00,28.7497,113.7131,142.9,岳阳市,童市,平江县,989.6,29.6,44.0,25.70580765797214,18.2550199039074
P3104,2025-06-03 08:00:00,28.6447,113.2828,77.1,岳阳市,向家,平江县,996.9,29.3,55.0,30.48441490696229,22.42682888388428
P3105,2025-06-03 08:00:00,28.9081,113.5981,148,岳阳市,大洲,平江县,989.1,28.9,56.0,37.645087962557575,22.311810862561735
P3106,2025-06-03 08:00:00,28.8419,113.6083,106.8,岳阳市,梅仙,平江县,993.2,29.4,55.0,41.63387902175916,22.5568192245928
P3109,2025-06-03 08:00:00,28.8483,113.9397,160,岳阳市,云洞水库,平江县,986.0,28.7,48.0,27.412292695074015,18.90374067279123
P3111,2025-06-03 08:00:00,28.7019,113.9439,130,岳阳市,长寿,平江县,991.1,29.4,34.0,21.494808638004674,13.94421552065737
P3112,2025-06-03 08:00:00,28.8733,113.5142,110,岳阳市,余坪,平江县,991.9,28.7,52.0,35.08832222699605,20.479052395523833
P3113,2025-06-03 08:00:00,29.0058,113.6906,183.8,岳阳市,板江,平江县,985.9,28.2,54.0,39.17779539915401,20.656993418893638
P3114,2025-06-03 08:00:00,29.0697,113.7783,177.6,岳阳市,上塔市,平江县,986.2,27.9,61.0,35.01650367975863,22.9298358614081
P3117,2025-06-03 08:00:00,28.9219,113.7825,384.5,岳阳市,大江洞水库,平江县,962.9,25.9,62.0,38.54079670640935,20.718032212828437
P3118,2025-06-03 08:00:00,28.9008,113.8356,274.8,岳阳市,虹桥正东,平江县,973.3,28.1,68.0,49.53753728581007,25.861281996300562
P3119,2025-06-03 08:00:00,28.9722,113.9222,360.2,岳阳市,石牛寨姜源,平江县,963.1,27.2,68.0,45.062549676968544,24.534427828978217
P3120,2025-06-03 08:00:00,28.5925,113.7253,100.8,岳阳市,三市,平江县,994.1,30.6,56.0,39.042279992237155,24.608221063361132
P3124,2025-06-03 08:00:00,28.5569,113.5975,130,岳阳市,秋湖水库,平江县,990.5,30.0,45.0,25.342259389637857,19.10508949288195
P3125,2025-06-03 08:00:00,28.6319,113.565,173.4,岳阳市,三阳,平江县,986.2,29.7,41.0,29.757008839225204,17.108737787346186
P3200,2025-06-03 08:00:00,28.8292,113.1581,32.8,岳阳市,罗江,汨罗市,1001.0,28.3,54.0,39.89187296759408,20.777699548613917
P3201,2025-06-03 08:00:00,28.5517,113.0753,638.8,岳阳市,玉池,汨罗市,933.5,23.6,63.0,24.890818440226194,18.347192180196554
P3204,2025-06-03 08:00:00,28.6881,113.1281,400,岳阳市,神鼎山,汨罗市,964.6,26.8,65.0,42.184841468521064,22.90684146056248
P3350,2025-06-03 08:00:00,29.3639,113.5269,71.1,岳阳市,忠防水库,临湘市,998.4,27.9,56.0,37.3716086994788,21.050341118669735
P3354,2025-06-03 08:00:00,29.5292,113.4131,286.7,岳阳市,荆竹山,临湘市,973.9,25.3,61.0,36.42250139624841,19.669985412000848
P3411,2025-06-03 08:00:00,29.4556,112.6736,24.7,岳阳市,钱粮湖,君山区,1002.4,28.1,59.0,31.504997106503883,22.43846526149607
P3413,2025-06-03 08:00:00,29.4875,112.7797,16.8,岳阳市,采桑湖,君山区,1003.8,27.5,62.0,40.19428651717937,22.766711148778807
P3510,2025-06-03 08:00:00,28.6403,113.8283,110,岳阳市,老丁源水库,平江县,992.7,29.3,47.0,27.87985108524518,19.164744682592023
P3511,2025-06-03 08:00:00,28.7119,113.4317,75.6,岳阳市,瓮江,平江县,997.0,29.9,44.0,31.859339556287463,18.573350402140377
P3512,2025-06-03 08:00:00,28.7497,113.2425,32,岳阳市,伍市,平江县,999.9,28.6,50.0,28.031488681593004,19.57733623092189
P3513,2025-06-03 08:00:00,28.8106,114.0467,132.1,岳阳市,龙门,平江县,990.0,29.1,44.0,25.12792642947048,17.735047362379788
P3514,2025-06-03 08:00:00,28.8783,113.3742,115,岳阳市,兰家洞水库,汨罗市,993.6,28.8,53.0,34.81659990248668,20.994399071948628
P3518,2025-06-03 08:00:00,28.7714,113.0139,43.1,岳阳市,汨罗镇,汨罗市,999.8,28.0,71.0,43.94623435310454,26.84512351498446
P3520,2025-06-03 08:00:00,28.9992,112.9692,32.8,岳阳市,磊石山,汨罗市,1001.9,27.9,68.0,44.578675856187886,25.56112850124182
P3521,2025-06-03 08:00:00,29.7411,113.4411,53,岳阳市,谷花,临湘市,1002.8,26.5,72.0,42.8622004113054,24.928899742083004
P3523,2025-06-03 08:00:00,29.2331,113.3939,96.7,岳阳市,白羊田,临湘市,994.9,28.2,52.0,38.49497587348587,19.891919588564242
P3525,2025-06-03 08:00:00,29.3758,112.7408,38.6,岳阳市,良心堡,君山区,1003.2,28.4,54.0,31.004898568048375,20.89902144081823
P3526,2025-06-03 08:00:00,28.9444,113.7353,183.1,岳阳市,南江,平江县,985.7,28.3,58.0,39.54943897322164,22.316788404066795
P3528,2025-06-03 08:00:00,29.6497,113.6189,16.2,岳阳市,定湖,临湘市,1002.2,27.9,78.0,49.19359782352948,29.320117986718554
P3529,2025-06-03 08:00:00,28.7086,112.7744,37,岳阳市,杨林寨,湘阴县,1002.1,28.6,53.0,34.76214556292703,20.751976404777203
P3531,2025-06-03 08:00:00,29.5717,112.5108,11,岳阳市,涛湖,华容县,1002.9,27.8,57.0,39.21044094953003,21.301400126343445
P3532,2025-06-03 08:00:00,29.6311,112.7356,37,岳阳市,东山水库,华容县,1000.7,28.4,31.0,16.075659355009854,11.997586382691946
P3534,2025-06-03 08:00:00,29.6011,112.8114,54.1,岳阳市,幸福水库,君山区,999.9,27.9,61.0,41.81355390527149,22.9298358614081
P3536,2025-06-03 08:00:00,29.2639,113.5058,773.4,岳阳市,大云山,岳阳县,921.2,21.9,75.0,39.477685894724,19.700550584067198
P3537,2025-06-03 08:00:00,29.0186,113.4906,131.3,岳阳市,张谷英,岳阳县,992.2,29.0,38.0,22.276044350009567,15.228171335797532
P3538,2025-06-03 08:00:00,29.4492,113.0503,33.7,岳阳市,展陈馆,君山区,1003.0,27.4,40.0,17.990298179150628,14.60236784184641
P3541,2025-06-03 08:00:00,29.0133,113.4411,122.7,岳阳市,岳坊水库,岳阳县,991.9,27.9,56.0,35.94712494691299,21.050341118669735
P3544,2025-06-03 08:00:00,29.2258,113.0858,28.4,岳阳市,麻塘,岳阳县,1003.2,28.4,39.0,23.93840095974432,15.09373770725761
P3547,2025-06-03 08:00:00,29.1339,113.0161,32.5,岳阳市,中洲,岳阳县,1002.2,28.4,54.0,29.790936004320216,20.89902144081823
P3552,2025-06-03 08:00:00,29.7919,113.52,12.4,岳阳市,黄盖,临湘市,1003.2,26.7,61.0,42.11494326986374,21.370917642606464
P3553,2025-06-03 08:00:00,29.565,113.6956,51.5,岳阳市,晓阳,临湘市,998.3,27.8,60.0,42.722494024231565,22.422526448782573
P3554,2025-06-03 08:00:00,29.3889,113.6328,534.8,岳阳市,壁山,临湘市,944.5,25.7,71.0,41.649653275917764,23.44563291983375
P3558,2025-06-03 08:00:00,29.6639,113.3461,13.4,岳阳市,儒溪,临湘市,1002.4,27.0,63.0,43.289919655443,22.464862424609105
P3559,2025-06-03 08:00:00,29.3117,113.4417,98.1,岳阳市,金盆,临湘市,994.5,27.9,52.0,37.03541192564725,19.546745324479037
P3562,2025-06-03 08:00:00,29.4708,112.4956,35,岳阳市,业谟小学,华容县,1003.1,28.5,55.0,39.011051138006756,21.410238816808135
P3565,2025-06-03 08:00:00,29.395,112.805,16.6,岳阳市,团华小学,华容县,1003.1,27.8,59.0,43.4118849174602,22.0488176746362
P3566,2025-06-03 08:00:00,29.7261,112.8489,43,岳阳市,小墨山,华容县,1002.3,28.9,55.0,34.562908257408914,21.913385668587416
P3568,2025-06-03 08:00:00,29.4917,112.4131,20,岳阳市,太仙,华容县,1003.1,28.3,41.0,24.234753185550403,15.775660768392044
P3570,2025-06-03 08:00:00,29.535,112.5558,14.6,岳阳市,华容河大堤,华容县,1002.7,28.1,53.0,30.98273747791713,20.15658743829308
P3572,2025-06-03 08:00:00,29.6033,112.4639,32,岳阳市,富强,华容县,1003.5,28.6,45.0,22.854373874343125,17.6196026078297
P3580,2025-06-03 08:00:00,28.7297,112.7042,27,岳阳市,湘滨,湘阴县,1002.2,27.8,56.0,30.379876655203155,20.927691352197073
P3587,2025-06-03 08:00:00,28.6281,112.5892,18,岳阳市,西林港,湘阴县,1002.9,28.3,25.0,19.58426364336107,9.619305346580516
P3588,2025-06-03 08:00:00,28.7647,112.9869,68,岳阳市,赛美水库,湘阴县,999.5,28.1,58.0,38.36382897121969,22.058152290962237
P3589,2025-06-03 08:00:00,28.63,112.8128,29,岳阳市,城西水管会,湘阴县,1003.0,29.2,51.0,35.89730532027703,20.675857273800652
P3592,2025-06-03 08:00:00,29.4889,113.1922,30.9,岳阳市,象骨港,云溪区,1003.2,27.6,57.0,37.18064789081308,21.053625858187807
P3593,2025-06-03 08:00:00,29.5444,113.2581,50.8,岳阳市,丁山,云溪区,1001.7,27.6,60.0,40.04556777750181,22.161711429671374
P3594,2025-06-03 08:00:00,29.5942,113.3344,5.7,岳阳市,钢铁,云溪区,1002.6,27.8,55.0,36.518703354696164,20.553982578050697
P3595,2025-06-03 08:00:00,29.5531,113.3572,40,岳阳市,长岭街道,云溪区,1002.6,27.6,57.0,40.61894635423632,21.053625858187807
P3596,2025-06-03 08:00:00,29.4825,113.2631,54.4,岳阳市,洗马塘,云溪区,1001.6,28.1,55.0,39.847814003004004,20.917213379360746
P3599,2025-06-03 08:00:00,29.31,113.3339,73.2,岳阳市,兰桥水库,岳阳楼区,997.7,28.1,77.0,60.07068864821429,29.284098731105043
P3603,2025-06-03 08:00:00,29.4553,113.2167,62.3,岳阳市,滨湖,云溪区,997.9,30.4,46.0,19.078138700862322,19.983524835171313
P3604,2025-06-03 08:00:00,28.9742,112.92,27.8,岳阳市,凤凰乡磊石,市辖区,1003.4,27.9,63.0,40.32831642468591,23.681633758503448
P3605,2025-06-03 08:00:00,28.8606,112.9194,19.2,岳阳市,屈子诗园,市辖区,1002.8,27.7,58.0,39.74471718297256,21.548726063755442
P3614,2025-06-03 08:00:00,29.4533,113.3578,127.2,岳阳市,清溪水库,云溪区,994.0,27.5,56.0,40.16451821007376,20.563481037606667
P3615,2025-06-03 08:00:00,29.235,113.1386,95.4,岳阳市,东风水库,岳阳县,995.6,27.2,58.0,27.048269650972426,20.926423736481414
P3620,2025-06-03 08:00:00,29.1897,113.5236,90,岳阳市,铁山水库,岳阳县,995.7,27.6,55.0,35.335677384640825,20.314902143865428
P3621,2025-06-03 08:00:00,29.2997,113.1031,134,岳阳市,风雨山,岳阳楼区,990.8,26.7,60.0,34.260956589189526,21.020574730432585
P3622,2025-06-03 08:00:00,29.5075,113.6161,99.3,岳阳市,羊楼司,临湘市,995.2,28.4,62.0,43.65360914721835,23.99517276538389
P3630,2025-06-03 08:00:00,29.4447,113.3122,60.1,岳阳市,建设,云溪区,999.7,27.2,57.0,34.409201480224986,20.565623327231737
P3631,2025-06-03 08:00:00,29.4083,113.3064,134.5,岳阳市,伍家洞水库,岳阳楼区,991.2,26.6,53.0,33.8592630639109,18.45902648795157
P3633,2025-06-03 08:00:00,28.5319,113.0111,58.8,岳阳市,桥坪水库,汨罗市,998.4,29.4,58.0,47.82002816487145,23.787191182297857
P3636,2025-06-03 08:00:00,28.5908,113.835,130.5,岳阳市,沱龙峡,平江县,991.0,30.6,40.0,25.37876690316789,17.577300759543665
P3637,2025-06-03 08:00:00,28.9742,113.8178,1160,岳阳市,幕阜山,平江县,880.0,19.5,84.0,35.0415326624693,19.030324716594688
P3640,2025-06-03 08:00:00,28.6933,113.0358,60.6,岳阳市,白水苗圃,汨罗市,996.8,29.0,64.0,48.85044012307284,25.647446460290578
P3641,2025-06-03 08:00:00,29.6411,113.4997,21,岳阳市,源潭,临湘市,1003.1,28.3,52.0,33.686207354636714,20.008155120887473
P3643,2025-06-03 08:00:00,29.3719,113.4747,103.6,岳阳市,桃矿,临湘市,994.5,27.9,56.0,39.99309727344174,21.050341118669735
P3650,2025-06-03 08:00:00,28.7758,113.6053,80.6,岳阳市,团山,平江县,995.0,29.2,54.0,38.568965748789616,21.89208417225952
P3659,2025-06-03 08:00:00,29.3592,112.5042,14,岳阳市,八一水厂,华容县,1003.1,29.2,49.0,31.620588582985903,19.865039341494747
P3660,2025-06-03 08:00:00,29.4222,112.6369,14.4,岳阳市,砂山,华容县,1003.0,28.9,26.0,12.818092798025614,10.359055043332233
P3661,2025-06-03 08:00:00,29.2167,112.705,29.3,岳阳市,隆庆莲场,华容县,1003.3,28.6,59.0,37.17044018963468,23.101256752487828
P3663,2025-06-03 08:00:00,29.5189,112.4686,6.6,岳阳市,蔡田湖,华容县,1003.2,27.9,49.0,28.78575593703036,18.419048478836014
P3664,2025-06-03 08:00:00,28.5367,112.9592,60,岳阳市,燎原,湘阴县,997.0,29.0,54.0,25.644773229485427,21.640032950870175
P3665,2025-06-03 08:00:00,28.8464,113.0339,40,岳阳市,河市乡,市辖区,1002.7,28.4,57.0,35.37391673232864,22.06007818753035
P3666,2025-06-03 08:00:00,28.7961,113.0722,46.7,岳阳市,归义,汨罗市,1000.5,28.2,51.0,24.150345696747944,19.509382673399543
P3676,2025-06-03 08:00:00,29.5422,113.3636,32.9,岳阳市,长炼,云溪区,1001.9,28.0,52.0,33.96190928842938,19.66121722224214
P3692,2025-06-03 08:00:00,29.5169,113.3128,57.6,岳阳市,江湖,云溪区,1001.5,28.3,55.0,41.245788540380744,21.162471762477136
P3694,2025-06-03 08:00:00,29.4369,113.1664,16.6,岳阳市,芭蕉湖,岳阳楼区,1003.1,27.9,61.0,39.84866328493011,22.9298358614081
P3703,2025-06-03 08:00:00,28.8864,110.8531,214,怀化市,七甲坪,沅陵县,982.2,28.5,53.0,36.58916689078458,20.63168467801511
P3705,2025-06-03 08:00:00,28.76,110.4319,204,怀化市,曹家,沅陵县,983.1,28.9,54.0,46.62447252743798,21.5149604746131
P3709,2025-06-03 08:00:00,28.6936,110.7453,165,怀化市,陈家滩,沅陵县,987.4,28.9,51.0,40.44739747886094,20.319684892690148
P3718,2025-06-03 08:00:00,28.5253,110.9103,336,怀化市,官庄,沅陵县,968.3,27.8,56.0,45.32254411330392,20.927691352197073
P3720,2025-06-03 08:00:00,28.5236,110.7211,163,怀化市,楠木铺,沅陵县,988.0,28.9,60.0,51.27038844730548,23.905511638458997
P3722,2025-06-03 08:00:00,28.425,110.7939,413,怀化市,杜家坪,沅陵县,961.1,27.5,46.0,31.41555663129809,16.89143085231976
P3728,2025-06-03 08:00:00,28.3294,110.5158,276,怀化市,张家滩,沅陵县,974.9,28.3,54.0,38.092737363412816,20.777699548613917
P3729,2025-06-03 08:00:00,28.2933,110.3239,164,怀化市,麻溪铺,沅陵县,987.7,28.9,50.0,33.35554964623121,19.921259698715833
P3733,2025-06-03 08:00:00,28.2306,110.2917,179,怀化市,筲箕湾,沅陵县,987.4,28.4,51.0,31.23063294033596,19.737964694106104
P3734,2025-06-03 08:00:00,28.1694,110.2081,172.5,怀化市,田头坪,辰溪县,986.8,29.6,42.0,27.732207474065447,17.425246271911607
P3739,2025-06-03 08:00:00,26.3494,109.7725,382.8,怀化市,下寨,通道侗族自治县,964.2,29.7,46.0,40.0258278691141,19.195169224827435
P3749,2025-06-03 08:00:00,27.9703,110.2892,149,怀化市,倒洑,辰溪县,989.5,31.1,57.0,50.19684523228282,25.773900550330005
P3750,2025-06-03 08:00:00,27.9644,110.1589,131.5,怀化市,潭湾敬老院,辰溪县,991.4,30.8,58.0,51.70506769965081,25.780471542920857
P3751,2025-06-03 08:00:00,27.9511,110.8358,323.8,怀化市,三江,溆浦县,970.5,26.6,64.0,39.62841089109025,22.29014519299812
P3759,2025-06-03 08:00:00,27.8892,109.8911,162.9,怀化市,兰里,麻阳苗族自治县,987.7,28.1,59.0,41.68377454262304,22.43846526149607
P3761,2025-06-03 08:00:00,27.8553,109.9197,233.6,怀化市,和平溪,麻阳苗族自治县,978.8,27.7,57.0,38.131186311645685,21.177196304035522
P3763,2025-06-03 08:00:00,27.8783,109.695,179.8,怀化市,岩门镇黄土溪,麻阳苗族自治县,982.8,28.4,57.0,39.725100948007665,22.06007818753035
P3778,2025-06-03 08:00:00,27.7256,110.4086,121,怀化市,黄溪口,辰溪县,988.8,29.1,52.0,42.91111089455672,20.95960142826702
P3781,2025-06-03 08:00:00,27.6931,110.6811,528.9,怀化市,两丫坪,溆浦县,948.0,26.1,52.0,31.132860097922627,17.58351573967413
P3782,2025-06-03 08:00:00,27.7019,109.6039,265.2,怀化市,锦和,麻阳苗族自治县,975.5,27.5,47.0,40.160118045352796,17.25863587084845
P3783,2025-06-03 08:00:00,27.6689,110.1556,325,怀化市,花桥,中方县,967.0,27.6,63.0,41.53420995796744,23.269797001154945
P3784,2025-06-03 08:00:00,27.6725,109.7108,314,怀化市,江口圩,麻阳苗族自治县,974.2,27.9,53.0,36.72986523221372,19.92264427302671
P3790,2025-06-03 08:00:00,27.6664,109.8514,230,怀化市,贺家田,鹤城区,980.3,29.0,60.0,44.73266410364181,24.044481056522415
P3796,2025-06-03 08:00:00,27.6089,110.0964,246,怀化市,泸阳,中方县,978.5,28.8,54.0,40.41921574533432,21.390519809155208
P3798,2025-06-03 08:00:00,27.6269,110.6014,265.2,怀化市,北斗溪,溆浦县,975.2,28.0,52.0,32.694949732041685,19.66121722224214
P3800,2025-06-03 08:00:00,27.5886,110.28,186,怀化市,铜湾,中方县,985.8,29.9,52.0,44.81635835799416,21.95032320252954
P3803,2025-06-03 08:00:00,27.9714,110.3422,173.5,怀化市,桃田坳,辰溪县,986.6,29.5,62.0,48.46290918625168,25.574962749505985
P3811,2025-06-03 08:00:00,27.7506,110.1411,213,怀化市,肖家溪,辰溪县,985.0,29.0,57.0,47.12394813564319,22.842257003696293
P3820,2025-06-03 08:00:00,27.1161,109.9783,536.5,怀化市,高坡街,洪江市,945.4,27.0,60.0,36.18759307337995,21.395107071056287
P3823,2025-06-03 08:00:00,26.5053,109.5308,450,怀化市,靖州县排牙山,靖州苗族侗族自治县,955.9,28.1,53.0,32.40920909589432,20.15658743829308
P3825,2025-06-03 08:00:00,27.5183,110.1769,259.7,怀化市,新建敬老院,中方县,979.7,29.8,54.0,36.633343389915005,22.663684710626168
P3827,2025-06-03 08:00:00,27.5089,109.4536,370,怀化市,芷江县大树坳,芷江侗族自治县,965.2,28.8,49.0,34.09565066675792,19.40991612312232
P3833,2025-06-03 08:00:00,27.4483,109.7589,263,怀化市,岩桥,芷江侗族自治县,976.4,29.5,47.0,37.66512543928615,19.38747176172228
P3846,2025-06-03 08:00:00,27.4039,109.2453,444,怀化市,波州,新晃侗族自治县,954.3,28.2,54.0,37.75314835656965,20.656993418893638
P3849,2025-06-03 08:00:00,27.3447,109.9131,240,怀化市,牌楼,中方县,979.4,29.4,60.0,40.858964970174874,24.607439154101233
P3853,2025-06-03 08:00:00,27.3089,109.4775,466,怀化市,梨溪口水库,芷江侗族自治县,955.0,27.5,46.0,31.608247421252766,16.89143085231976
P3857,2025-06-03 08:00:00,27.325,109.0644,341,怀化市,鱼市,新晃侗族自治县,968.4,28.7,36.0,26.37309475936929,14.177805504593424
P3860,2025-06-03 08:00:00,27.1392,109.9714,172.1,怀化市,横岩,洪江市,983.4,28.8,58.0,45.998925506314855,22.975002757981514
P3870,2025-06-03 08:00:00,27.2317,109.2867,473,怀化市,降溪,新晃侗族自治县,952.9,27.2,51.0,29.18460396867672,18.40082087173366
P3871,2025-06-03 08:00:00,27.1842,109.1325,437,怀化市,扶罗,新晃侗族自治县,958.5,27.8,49.0,30.327248077561308,18.311729933172437
P3883,2025-06-03 08:00:00,27.1044,108.9556,501,怀化市,凉伞,新晃侗族自治县,951.0,28.1,50.0,34.059322801056226,19.015648526691585
P3896,2025-06-03 08:00:00,26.7839,109.8633,344.7,怀化市,木寨,会同县,967.5,29.8,48.0,32.9656562556828,20.145497520556592
P3897,2025-06-03 08:00:00,26.7228,109.5947,306,怀化市,会同县地灵,会同县,970.7,29.0,48.0,38.69406133744149,19.235584845217932
P3899,2025-06-03 08:00:00,26.7006,109.4481,394,怀化市,大堡子,靖州苗族侗族自治县,961.9,28.9,49.0,27.60754869343267,19.522834504741517
P3901,2025-06-03 08:00:00,26.6728,109.6456,346.4,怀化市,坳上,靖州苗族侗族自治县,966.5,30.4,47.0,39.82787897370718,20.417949288109817
P3904,2025-06-03 08:00:00,26.65,109.385,617.2,怀化市,三锹,靖州苗族侗族自治县,938.4,25.7,52.0,31.46188499116332,17.17144946241345
P3909,2025-06-03 08:00:00,26.4108,109.4269,398.3,怀化市,藕团,靖州苗族侗族自治县,962.6,28.7,45.0,30.853943665356653,17.722256880741778
P3914,2025-06-03 08:00:00,26.2025,109.5192,359,怀化市,播阳,通道侗族自治县,966.0,28.1,47.0,41.01243428942559,17.87470961509009
P3917,2025-06-03 08:00:00,26.08,109.5481,455.3,怀化市,独坡,通道侗族自治县,955.0,28.6,49.0,29.874340658249956,19.185789506303454
P3918,2025-06-03 08:00:00,26.0089,109.7683,512,怀化市,陇城,通道侗族自治县,948.8,27.4,49.0,36.52605290796194,17.88790060626185
P4001,2025-06-03 08:00:00,28.8097,111.0122,73,怀化市,五强溪,沅陵县,997.1,29.4,56.0,44.572083854075345,22.966943210494488
P4014,2025-06-03 08:00:00,28.5272,110.2183,136,怀化市,高竹坪,沅陵县,991.3,29.4,55.0,44.65366604231494,22.5568192245928
P4019,2025-06-03 08:00:00,27.4256,109.3614,331,怀化市,新店坪镇上坪,芷江侗族自治县,969.1,29.0,46.0,34.615722902854685,18.434102143333853
P4021,2025-06-03 08:00:00,28.1625,110.6406,348.4,怀化市,低庄镇大渭溪,溆浦县,966.4,29.5,52.0,39.13216923135817,21.449968757650183
P4023,2025-06-03 08:00:00,26.325,109.4625,397,怀化市,靖州县新厂,靖州苗族侗族自治县,962.3,27.6,47.0,31.012181615821067,17.36000728657591
P4030,2025-06-03 08:00:00,28.6453,110.3453,320,怀化市,高砌头,沅陵县,969.2,29.3,46.0,37.4415945177118,18.75698415743049
P4038,2025-06-03 08:00:00,27.7356,110.5281,566.3,怀化市,统溪河,溆浦县,942.9,25.2,72.0,42.534504387783954,23.079135746361196
P4042,2025-06-03 08:00:00,27.4094,109.8139,369,怀化市,水宽,芷江侗族自治县,965.1,27.3,55.0,33.677680132650636,19.960838815618857
P4043,2025-06-03 08:00:00,28.0339,110.4381,488,怀化市,谭家场,辰溪县,949.2,27.2,52.0,28.320029151360348,18.76162128098334
P4050,2025-06-03 08:00:00,27.425,110.6067,541,怀化市,大华,溆浦县,945.6,27.9,52.0,33.52097471325644,19.546745324479037
P4051,2025-06-03 08:00:00,26.9703,109.7375,334,怀化市,坪村,会同县,968.3,28.1,52.0,27.86309515613513,19.77627446775925
P4055,2025-06-03 08:00:00,27.6414,110.3222,210,怀化市,铜鼎,中方县,984.2,30.8,51.0,43.592807715222555,22.669035322223515
P4056,2025-06-03 08:00:00,27.5292,110.3503,255,怀化市,接龙,中方县,974.7,29.0,56.0,37.83571948864411,22.44151565275426
P4057,2025-06-03 08:00:00,27.3539,109.8394,343,怀化市,桐木,中方县,967.9,27.7,55.0,33.64692276852948,20.43413678459568
P4059,2025-06-03 08:00:00,27.1203,109.6225,244,怀化市,洪江市托口,洪江市,977.1,27.2,65.0,41.47861144954055,23.452026601229175
P4061,2025-06-03 08:00:00,27.1197,109.6967,204,怀化市,江市,洪江市,982.6,29.1,55.0,46.46176708288315,22.168809202974735
P4063,2025-06-03 08:00:00,28.3528,110.3003,134,怀化市,盘古,沅陵县,990.5,28.0,58.0,37.745766540597806,21.929819209423922
P4068,2025-06-03 08:00:00,27.0119,109.8433,400,怀化市,大溪水库,会同县,962.0,27.8,55.0,29.74236035651261,20.553982578050697
P4069,2025-06-03 08:00:00,28.8036,110.6261,150,怀化市,大合坪,沅陵县,989.0,28.6,57.0,38.45433333458162,22.31816330325095
P4070,2025-06-03 08:00:00,28.5286,110.6353,320,怀化市,长界,沅陵县,970.6,27.0,56.0,35.7141461029311,19.96876659965254
P4079,2025-06-03 08:00:00,27.8842,110.7317,535.2,怀化市,桥江镇新田,溆浦县,947.1,27.8,50.0,24.672606899322158,18.685438707318813
P4080,2025-06-03 08:00:00,27.8681,110.0928,163,怀化市,红敏,辰溪县,988.0,29.0,55.0,39.11868704659103,22.040774301812217
P4092,2025-06-03 08:00:00,26.7067,109.7314,294.7,怀化市,靖州县甘棠,靖州苗族侗族自治县,972.8,29.7,45.0,41.847217902954256,18.77788293733118
P4093,2025-06-03 08:00:00,26.3322,109.335,482,怀化市,平茶,靖州苗族侗族自治县,952.9,26.4,48.0,28.316490075369625,16.52143036925836
P4094,2025-06-03 08:00:00,26.4539,109.895,381.9,怀化市,联团,通道侗族自治县,958.5,27.7,41.0,25.968121566138876,15.232720148516778
P4095,2025-06-03 08:00:00,26.2911,109.9364,433.1,怀化市,石岩,通道侗族自治县,956.4,29.2,41.0,27.540405722673427,16.62176761227111
P4116,2025-06-03 08:00:00,27.8944,109.6364,220.1,怀化市,石羊哨,麻阳苗族自治县,981.6,28.8,50.0,36.713388799554934,19.806036860328895
P4121,2025-06-03 08:00:00,28.0506,110.7606,247.6,怀化市,祖师殿,溆浦县,977.8,30.1,45.0,34.304486357960776,19.21525873100544
P4122,2025-06-03 08:00:00,27.9525,110.7689,290.3,怀化市,油洋,溆浦县,973.5,29.7,49.0,40.255955929350456,20.447028087316177
P4123,2025-06-03 08:00:00,27.8836,110.3986,146.1,怀化市,大江口,溆浦县,989.2,30.7,36.0,33.95784831569063,15.910394016760764
P4126,2025-06-03 08:00:00,27.8461,110.6906,225.2,怀化市,陶金坪,溆浦县,979.4,28.3,52.0,35.62355926985148,20.008155120887473
P4131,2025-06-03 08:00:00,27.4036,110.5142,510,怀化市,龙潭镇横板桥,溆浦县,948.8,27.3,58.0,36.89208817784862,21.049611841925337
P4143,2025-06-03 08:00:00,27.315,110.1617,225,怀化市,洪江市安江,洪江市,979.8,29.6,49.0,41.3190660136145,20.329453983896876
P4144,2025-06-03 08:00:00,27.1914,110.1669,326,怀化市,洪江市熟坪,洪江市,970.3,27.7,61.0,41.291704985945195,22.663315342915208
P4149,2025-06-03 08:00:00,27.2317,109.7297,281,怀化市,岩垅,洪江市,974.3,28.4,48.0,33.10102115513078,18.57690794739398
P4155,2025-06-03 08:00:00,26.9625,110.0258,221.6,怀化市,会同县高椅,会同县,980.4,28.4,54.0,38.67815120138498,20.89902144081823
P4156,2025-06-03 08:00:00,26.9819,109.7731,340.4,怀化市,堡子,会同县,969.9,28.4,60.0,46.27585927206026,23.221134934242475
P4167,2025-06-03 08:00:00,26.3656,109.6619,349.9,怀化市,县溪镇江口,通道侗族自治县,963.6,28.0,53.0,28.024433731824857,20.039317553439105
P4175,2025-06-03 08:00:00,26.085,109.8053,407.3,怀化市,长安堡,通道侗族自治县,958.3,28.9,56.0,38.03334224253123,22.311810862561735
P4198,2025-06-03 08:00:00,28.6917,110.5306,158,怀化市,落坪,沅陵县,988.3,29.0,53.0,34.123930927172346,21.239291599928134
P4200,2025-06-03 08:00:00,27.4572,109.9464,236,怀化市,中方站,中方县,978.8,29.2,53.0,40.005000895226495,21.48667520610656
P4201,2025-06-03 08:00:00,27.8675,110.0128,207.8,怀化市,黄桑乡军田,麻阳苗族自治县,977.0,27.4,53.0,35.84979898348098,19.348137390446492
P4205,2025-06-03 08:00:00,26.6747,109.3367,635,怀化市,塘款,靖州苗族侗族自治县,936.0,25.3,54.0,31.327067598008856,17.412773971279442
P4404,2025-06-03 08:00:00,27.8869,111.5178,442,娄底市,华新,新化县,956.1,28.9,49.0,35.15316004184885,19.522834504741517
P4416,2025-06-03 08:00:00,27.6861,111.2781,211,娄底市,科头,新化县,979.4,28.5,53.0,39.040525553174994,20.63168467801511
P4420,2025-06-03 08:00:00,28.08,111.3736,243,娄底市,龙溪,新化县,976.1,28.2,50.0,27.73993328830449,19.126845758234847
P4432,2025-06-03 08:00:00,28.0161,111.2794,156.6,娄底市,何家坪,新化县,984.1,29.6,45.0,31.027090349137044,18.669906719905292
P4435,2025-06-03 08:00:00,27.7942,111.0617,504,娄底市,古台山林场,新化县,946.5,26.5,34.0,21.07003884252724,11.771980433761419
P4440,2025-06-03 08:00:00,27.6244,111.1006,274,娄底市,半山水库,新化县,974.7,27.7,47.0,34.40590045763005,17.46189870683631
P4446,2025-06-03 08:00:00,27.8789,111.3722,279.4,娄底市,水竹,新化县,973.8,29.5,37.0,20.01067719296752,15.262477769866475
P4481,2025-06-03 08:00:00,27.7511,110.8889,851.1,娄底市,大桥,新化县,912.2,25.7,45.0,30.92575587022501,14.859908188627022
P4512,2025-06-03 08:00:00,27.5672,111.3708,289,娄底市,连岩,冷水江市,971.8,28.0,53.0,35.034884489313825,20.039317553439105
P4515,2025-06-03 08:00:00,27.7794,111.4869,677,娄底市,谭家,冷水江市,929.1,24.1,65.0,31.767321894778558,19.508058527328302
P4516,2025-06-03 08:00:00,27.6011,111.4764,178,娄底市,杨源,冷水江市,983.4,29.0,51.0,37.83248334662107,20.437808898044054
P4517,2025-06-03 08:00:00,27.6461,111.5622,338,娄底市,大冲,冷水江市,968.6,28.0,52.0,44.44277726167722,19.66121722224214
P4561,2025-06-03 08:00:00,27.5222,111.7556,693,娄底市,龙山林场,涟源市,929.1,24.1,50.0,20.690748315930623,15.006198867175618
P4562,2025-06-03 08:00:00,27.85,111.7756,141,娄底市,迎宾,涟源市,987.0,30.5,39.0,34.14163386127202,17.039966754971395
P4563,2025-06-03 08:00:00,27.8811,111.6511,613.5,娄底市,古塘,涟源市,938.9,25.2,52.0,27.148048153590935,16.668264705705308
P4564,2025-06-03 08:00:00,27.72,111.6253,185,娄底市,芙蓉,涟源市,986.0,29.5,51.0,39.104792411530035,21.0374693584646
P4565,2025-06-03 08:00:00,27.8219,111.6697,350,娄底市,安平,涟源市,964.4,29.8,32.0,19.32295055964764,13.430331680371062
P4567,2025-06-03 08:00:00,27.9064,111.8492,181,娄底市,七星中学,涟源市,985.0,30.2,42.0,40.29432600980881,18.037583253982703
P4568,2025-06-03 08:00:00,27.7781,111.8789,97,娄底市,渡头塘,涟源市,992.2,28.8,44.0,33.076156804422254,17.42931243708943
P4569,2025-06-03 08:00:00,27.4906,111.9294,298.7,娄底市,坝塘,涟源市,968.2,27.1,24.0,18.960567951678737,8.608496404937446
P4570,2025-06-03 08:00:00,27.7767,111.7514,166,娄底市,龙塘,涟源市,985.2,29.0,46.0,40.52076965007676,18.434102143333853
P4571,2025-06-03 08:00:00,27.55,111.6817,185.6,娄底市,孙家桥,涟源市,983.6,29.4,46.0,38.848624605353436,18.865703351477617
P4572,2025-06-03 08:00:00,27.6306,111.9314,148,娄底市,水洞底,娄星区,990.5,30.0,45.0,37.96988359616659,19.10508949288195
P4573,2025-06-03 08:00:00,27.5897,111.9006,146.8,娄底市,荷塘,涟源市,987.2,29.4,42.0,36.80225081777879,17.225207407870865
P4574,2025-06-03 08:00:00,27.575,111.8128,148.8,娄底市,茶亭子,涟源市,986.3,28.9,40.0,35.77471413422048,15.937007758972667
P4575,2025-06-03 08:00:00,27.6592,111.8269,185,娄底市,斗笠山,涟源市,983.3,28.8,41.0,33.65775433960385,16.240950225469692
P4576,2025-06-03 08:00:00,27.6225,111.6239,281.2,娄底市,谢家,涟源市,979.3,30.6,49.0,38.43244965383704,21.532193430440987
P4577,2025-06-03 08:00:00,27.7153,111.7697,108,娄底市,湖泉,涟源市,991.0,29.4,53.0,40.12760786406461,21.736571252789425
P4578,2025-06-03 08:00:00,27.5856,111.7683,208.3,娄底市,茅塘,涟源市,980.3,28.9,45.0,41.63379705623811,17.92913372884425
P4580,2025-06-03 08:00:00,27.8442,111.8475,134.6,娄底市,桥头河,涟源市,990.4,30.1,41.0,33.79173277780831,17.507235732693847
P4582,2025-06-03 08:00:00,27.6583,111.7725,146.5,娄底市,青树,涟源市,987.1,29.3,50.0,41.608044245587344,20.388026258076618
P4583,2025-06-03 08:00:00,27.9822,111.6572,488,娄底市,漆树,涟源市,949.4,27.0,44.0,20.219706522605676,15.689745185441279
P4594,2025-06-03 08:00:00,27.6264,111.6889,199,娄底市,杨岭水库,涟源市,980.9,28.6,51.0,30.660632561727567,19.968882955540327
P4601,2025-06-03 08:00:00,27.7633,111.9192,165,娄底市,石井,娄星区,987.6,29.2,37.0,35.742104871349206,15.000131747659298
P4602,2025-06-03 08:00:00,27.7783,111.9608,117,娄底市,黄泥塘,娄星区,990.9,30.3,43.0,37.769511678821395,18.57338351932874
P4611,2025-06-03 08:00:00,27.7747,112.0722,77,娄底市,春园中学,娄星区,993.0,28.5,51.0,45.24748372003885,19.853130539222086
P4614,2025-06-03 08:00:00,27.8078,112.0092,146,娄底市,花溪谷,娄星区,990.2,29.1,50.0,41.72962702126269,20.153462911795213
P4615,2025-06-03 08:00:00,27.6531,111.995,154,娄底市,军分区仓库,娄星区,989.4,33.3,34.0,33.367477772411085,17.41281925455595
P4618,2025-06-03 08:00:00,27.9219,111.9692,272,娄底市,双江水库,娄星区,977.0,27.6,51.0,38.56718677345799,18.83745471522067
P4627,2025-06-03 08:00:00,27.7464,112.0158,112.5,娄底市,乐坪,娄星区,991.1,29.9,41.0,34.00537102409839,17.30698560199444
P4639,2025-06-03 08:00:00,27.7286,112.0014,151.5,娄底市,市气象局,娄星区,988.8,29.3,43.0,36.00451505019597,17.533702581945892
P4651,2025-06-03 08:00:00,27.4397,112.1436,83.5,娄底市,金开街道,双峰县,994.9,28.6,54.0,43.856617685513946,21.143523129395643
P4657,2025-06-03 08:00:00,27.5836,112.0908,106,娄底市,洪福,娄星区,991.7,29.2,53.0,43.59804555684743,21.48667520610656
P4660,2025-06-03 08:00:00,27.6347,112.2511,68.4,娄底市,水府庙,双峰县,997.7,28.1,22.0,16.343772024220456,8.366885351744298
P4661,2025-06-03 08:00:00,27.4411,111.9703,128.9,娄底市,甘棠,双峰县,989.9,28.7,42.0,27.287018686878955,16.540773088692326
P4662,2025-06-03 08:00:00,27.6261,112.2436,74.9,娄底市,杏子铺,双峰县,997.2,29.5,45.0,33.63019141521524,18.56247296335112
P4663,2025-06-03 08:00:00,27.5339,112.2253,56.5,娄底市,黄马洲,双峰县,997.5,28.2,52.0,44.31727106268838,19.891919588564242
P4666,2025-06-03 08:00:00,27.3297,112.1042,106.8,娄底市,锁石,双峰县,993.0,28.5,51.0,46.341217273791145,19.853130539222086
P4667,2025-06-03 08:00:00,27.4825,112.1942,67,娄底市,茅坪,双峰县,996.3,28.4,47.0,35.47828654224719,18.189889031823274
P4668,2025-06-03 08:00:00,27.3981,111.9872,116.2,娄底市,三塘铺,双峰县,991.4,28.1,50.0,34.39322944143121,19.015648526691585
P4669,2025-06-03 08:00:00,27.4258,112.1083,83.5,娄底市,岳家,双峰县,993.5,28.5,52.0,39.50758807726146,20.2424076086186
P4670,2025-06-03 08:00:00,27.4661,112.4281,115.2,娄底市,井字,双峰县,990.4,28.2,49.0,36.703150487678485,18.74430884307015
P4671,2025-06-03 08:00:00,27.5189,112.1044,84.1,娄底市,走马街,双峰县,994.0,28.7,53.0,36.22091503219348,20.872880326206985
P4672,2025-06-03 08:00:00,27.3789,112.0317,106.2,娄底市,青树坪,双峰县,992.1,28.7,52.0,39.9692175805462,20.479052395523833
P4674,2025-06-03 08:00:00,27.3983,112.4289,118.2,娄底市,双鱼,双峰县,990.1,28.6,54.0,39.262031251012246,21.143523129395643
P4675,2025-06-03 08:00:00,27.5603,112.0128,88.5,娄底市,洪山殿,双峰县,994.0,29.1,41.0,33.60443262582783,16.525839587672074
P4676,2025-06-03 08:00:00,27.2908,112.0944,109.5,娄底市,花门,双峰县,992.2,27.8,53.0,42.3790208190175,19.80656502975794
P4677,2025-06-03 08:00:00,27.38,112.2297,116.2,娄底市,石牛,双峰县,989.2,27.7,55.0,37.99934559229602,20.43413678459568
P4678,2025-06-03 08:00:00,27.4853,112.2675,123.2,娄底市,民实,双峰县,989.0,27.9,50.0,34.6834972707492,18.79494742738369
P4801,2025-06-03 08:00:00,28.0036,112.4569,123,湘潭市,金石,湘乡市,993.0,27.8,47.0,35.4249122876119,17.564312384879685
P4802,2025-06-03 08:00:00,27.9392,113.0025,36,湘潭市,昭山,岳塘区,1001.0,28.5,59.0,44.45338772244369,22.967347094394178
P4804,2025-06-03 08:00:00,27.9589,112.4703,106.6,湘潭市,石屏,韶山市,993.4,27.3,47.0,37.42027017301344,17.05744407880157
P4806,2025-06-03 08:00:00,27.935,112.3047,72,湘潭市,金薮,湘乡市,986.2,27.0,57.0,38.10334888573277,20.325351717503473
P4807,2025-06-03 08:00:00,28.02,112.4997,111.3,湘潭市,云源,韶山市,991.7,26.7,55.0,38.350555319190406,19.268860169563204
P4815,2025-06-03 08:00:00,27.9203,112.4253,134.6,湘潭市,新联,韶山市,988.5,27.8,62.0,39.449861264100825,23.16994399707533
P4816,2025-06-03 08:00:00,27.8856,112.9744,60,湘潭市,荷塘,岳塘区,998.3,28.8,54.0,39.880300075589346,21.390519809155208
P4818,2025-06-03 08:00:00,27.9178,112.5942,72.4,湘潭市,银田,韶山市,995.9,27.8,53.0,33.84088384941193,19.80656502975794
P4821,2025-06-03 08:00:00,27.89,112.5347,69.9,湘潭市,高铁南站,韶山市,995.7,28.2,51.0,37.018801395594416,19.509382673399543
P4829,2025-06-03 08:00:00,27.8378,112.5158,120,湘潭市,龙洞,湘乡市,996.1,29.3,57.0,39.22328708992644,23.242349934207343
P4831,2025-06-03 08:00:00,27.8344,112.9397,68,湘潭市,锦源广场,岳塘区,998.3,29.0,51.0,33.992019560262285,20.437808898044054
P4834,2025-06-03 08:00:00,27.7967,112.5972,75,湘潭市,韶灌科研所,湘乡市,998.1,28.6,51.0,28.653552283796245,19.968882955540327
P4835,2025-06-03 08:00:00,27.7922,112.9525,78,湘潭市,易俗河,湘潭县,999.7,27.7,44.0,28.03105683221245,16.347309427676546
P4839,2025-06-03 08:00:00,27.7614,112.4711,90,湘潭市,泉塘,湘乡市,997.1,28.8,52.0,33.241031168332405,20.59827833474205
P4841,2025-06-03 08:00:00,27.7161,112.3417,57,湘潭市,潭市,湘乡市,997.5,29.3,46.0,38.10835343002309,18.75698415743049
P4843,2025-06-03 08:00:00,27.6639,112.4522,75.4,湘潭市,洙津渡,湘乡市,998.3,30.3,52.0,40.567896828580835,22.460835883839408
P4844,2025-06-03 08:00:00,27.6903,112.1053,99.7,湘潭市,毛田,湘乡市,994.5,30.2,46.0,43.93923038433267,19.755448325790578
P4845,2025-06-03 08:00:00,27.6383,112.5831,259.8,湘潭市,梅桥,湘乡市,976.2,25.4,61.0,35.57633695377627,19.787424520073742
P4846,2025-06-03 08:00:00,27.6442,112.3406,82,湘潭市,洋潭电站,湘乡市,996.6,28.4,49.0,34.56775943627799,18.96392686296469
P4847,2025-06-03 08:00:00,27.6442,112.6283,93.5,湘潭市,上石坝水库,湘潭县,993.3,28.1,57.0,40.68581524691938,21.677839320428408
P4848,2025-06-03 08:00:00,27.6269,112.3814,104,湘潭市,栗山,湘乡市,996.0,29.1,56.0,40.10680362822299,22.57187846121064
P4850,2025-06-03 08:00:00,27.6158,112.71,65.1,湘潭市,锦石,湘潭县,997.3,27.3,64.0,42.98279066835604,23.227157894538305
P4851,2025-06-03 08:00:00,27.5836,112.6533,98.7,湘潭市,严冲水库,湘潭县,995.2,27.3,63.0,42.33581681298727,22.864233552436147
P4852,2025-06-03 08:00:00,27.5608,112.9153,68.2,湘潭市,中路铺水库,湘潭县,997.9,27.4,60.0,46.32701561463339,21.90355176276961
P4854,2025-06-03 08:00:00,27.5328,112.3353,140,湘潭市,中沙,湘乡市,990.1,27.3,53.0,32.75998449649456,19.234990131414534
P4855,2025-06-03 08:00:00,27.5292,112.5147,76.4,湘潭市,石鼓,湘潭县,994.8,28.2,59.0,36.43475543239018,22.56967799471712
P4858,2025-06-03 08:00:00,27.4975,112.8272,99,湘潭市,印子山水库,湘潭县,993.1,27.0,60.0,40.111987751796285,21.395107071056287
P4860,2025-06-03 08:00:00,27.4747,112.7319,84.2,湘潭市,龙口,湘潭县,994.8,28.6,60.0,46.736540071905154,23.492803477106268
P4862,2025-06-03 08:00:00,27.3747,112.825,76.9,湘潭市,茶恩寺,湘潭县,996.7,26.4,63.0,44.602081595341126,21.684377359651602
P4863,2025-06-03 08:00:00,27.7808,112.7739,63,湘潭市,杨嘉桥,湘潭县,999.3,29.3,54.0,43.128293217243666,22.019068358722752
P4864,2025-06-03 08:00:00,27.8578,112.8989,30,湘潭市,白石公园,雨湖区,1001.5,29.1,53.0,39.10619753172986,21.362670686502927
P4865,2025-06-03 08:00:00,27.9172,112.9608,38,湘潭市,九华,雨湖区,1001.4,28.1,63.0,52.009375534019185,23.959717143631398
P4868,2025-06-03 08:00:00,27.8489,112.3881,102.6,湘潭市,白田,湘乡市,995.2,27.8,52.0,41.45284309881399,19.43285625561157
P4870,2025-06-03 08:00:00,27.8144,112.3172,90.2,湘潭市,褒忠山,湘乡市,995.0,30.0,43.0,43.26443793337892,18.25597440430942
P4873,2025-06-03 08:00:00,27.7042,112.9678,74.1,湘潭市,梅林桥,湘潭县,995.2,28.2,55.0,36.86447601727724,21.039530334058334
P4877,2025-06-03 08:00:00,27.6872,112.2133,132,湘潭市,水府旅游区,湘乡市,994.9,29.3,25.0,29.06661031636279,10.194013129038309
P4879,2025-06-03 08:00:00,27.7286,112.725,40.5,湘潭市,石潭,湘潭县,1000.0,30.0,53.0,40.79476473533268,22.50154984717208
P4881,2025-06-03 08:00:00,27.8331,113.0089,25,湘潭市,马家河,岳塘区,1001.2,29.9,53.0,40.8403280202399,22.372444802578183
P4885,2025-06-03 08:00:00,27.7089,112.5983,132.5,湘潭市,奇才,湘潭县,991.1,27.4,57.0,43.58791456302608,20.80837417463113
P4890,2025-06-03 08:00:00,27.6028,112.3539,98,湘潭市,虞唐,湘乡市,991.6,27.2,51.0,36.19027345480823,18.40082087173366
P4919,2025-06-03 08:00:00,27.8208,112.225,228.9,湘潭市,农之源,湘乡市,980.1,28.5,47.0,41.994186698010196,18.29602226163604
P5101,2025-06-03 08:00:00,28.1106,113.0253,72,长沙市,省植物园,雨花区,995.8,27.4,58.0,40.77255866286104,21.17343337067729
P5103,2025-06-03 08:00:00,28.0467,113.0011,83,长沙市,西湖小学,天心区,995.7,29.1,52.0,35.018956543371,20.95960142826702
P5104,2025-06-03 08:00:00,28.3772,113.44,91,长沙市,中洲,浏阳市,995.3,28.5,58.0,39.69884040569651,22.578070024997665
P5106,2025-06-03 08:00:00,28.5328,113.2044,119,长沙市,福临,长沙县,992.4,28.9,52.0,29.642133689485405,20.718110086664467
P5107,2025-06-03 08:00:00,28.4536,113.0375,73,长沙市,北山镇福高,长沙县,997.6,30.0,51.0,27.4850273485914,21.652434758599547
P5108,2025-06-03 08:00:00,28.5322,113.3683,78,长沙市,金井,长沙县,996.4,31.5,42.0,35.54779046224162,19.429094633385272
P5110,2025-06-03 08:00:00,28.2892,113.1817,58,长沙市,银龙,长沙县,999.4,29.1,49.0,30.178225465104948,19.75039365355931
P5111,2025-06-03 08:00:00,28.5892,113.3836,140,长沙市,白石洞水库,长沙县,989.5,29.5,47.0,35.72791522954676,19.38747176172228
P5112,2025-06-03 08:00:00,28.5469,113.2,113,长沙市,西冲水库,长沙县,992.9,28.9,54.0,37.746645154762,21.5149604746131
P5114,2025-06-03 08:00:00,28.4783,112.8044,45,长沙市,铜官,望城区,1000.2,28.5,55.0,29.01486503784237,21.410238816808135
P5115,2025-06-03 08:00:00,28.5142,112.7536,24,长沙市,苏蓼垸,望城区,1002.0,28.0,54.0,42.75768970687762,20.41741788463607
P5116,2025-06-03 08:00:00,28.2419,112.7236,71,长沙市,光明,望城区,998.3,29.1,58.0,40.75797209805264,23.378016977682446
P5118,2025-06-03 08:00:00,28.485,113.3806,96,长沙市,桐仁桥水库,长沙县,993.9,30.3,43.0,26.76892958341348,18.57338351932874
P5121,2025-06-03 08:00:00,28.3467,112.8169,55,长沙市,和园公园,望城区,1000.5,28.6,54.0,30.457239470721138,21.143523129395643
P5123,2025-06-03 08:00:00,28.6153,113.2478,64,长沙市,枫林市,长沙县,998.3,28.6,60.0,45.87544656487134,23.492803477106268
P5124,2025-06-03 08:00:00,28.4675,113.0103,392,长沙市,黑麋峰水电站,望城区,960.6,25.6,59.0,34.97340102527685,19.367615318224598
P5126,2025-06-03 08:00:00,28.2311,113.0644,71,长沙市,金科公园,长沙县,998.8,28.9,52.0,36.05901230216187,20.718110086664467
P5132,2025-06-03 08:00:00,28.2947,112.7897,194,长沙市,英雄岭,望城区,985.2,27.9,73.0,51.94917195904103,27.440623243980184
P5137,2025-06-03 08:00:00,28.4061,112.7758,97,长沙市,廖家坪,望城区,995.1,26.4,81.0,52.900996276028756,27.87991374812349
P5140,2025-06-03 08:00:00,27.9883,112.9792,31,长沙市,兴马洲,天心区,1001.8,28.9,52.0,36.42233870150935,20.718110086664467
P5142,2025-06-03 08:00:00,28.2556,113.1589,47.5,长沙市,长龙,长沙县,998.8,28.2,52.0,26.294871046094578,19.891919588564242
P5143,2025-06-03 08:00:00,28.0861,113.1761,23,长沙市,黄兴镇林塘,长沙县,1000.2,28.1,61.0,32.666532899285414,23.199091202563736
P5150,2025-06-03 08:00:00,28.3217,112.8728,53,长沙市,大泽湖,望城区,1000.4,27.6,60.0,37.8261292277492,22.161711429671374
P5151,2025-06-03 08:00:00,28.3128,112.8869,55,长沙市,永通车管所,望城区,1000.8,28.5,56.0,32.79766063161677,21.79951588620465
P5156,2025-06-03 08:00:00,28.3111,112.9056,40,长沙市,四医院,望城区,1001.1,29.2,53.0,30.627355090906985,21.48667520610656
P5157,2025-06-03 08:00:00,28.4072,114.1969,531,长沙市,东麓园,浏阳市,948.1,26.7,54.0,32.12713945126305,18.91851725738933
P5161,2025-06-03 08:00:00,28.4922,112.7303,28,长沙市,乔口,望城区,1002.8,27.8,55.0,40.01232864809669,20.553982578050697
P5162,2025-06-03 08:00:00,28.3003,112.92,44,长沙市,新奥佳园,望城区,1001.5,28.8,52.0,39.238790801077585,20.59827833474205
P5163,2025-06-03 08:00:00,28.2825,112.9075,61,长沙市,金峰园,望城区,999.7,28.7,54.0,31.717060406942192,21.266708256890137
P5164,2025-06-03 08:00:00,28.2931,112.8494,54,长沙市,李家祠堂,望城区,1000.9,29.1,58.0,35.27719227487211,23.378016977682446
P5165,2025-06-03 08:00:00,28.5281,113.3594,78,长沙市,石壁湖,长沙县,998.2,30.3,47.0,35.14568190816912,20.301140125777927
P5175,2025-06-03 08:00:00,28.4675,113.3308,61.1,长沙市,锦绣,长沙县,997.4,30.0,42.0,27.535102765078026,17.831416860023158
P5187,2025-06-03 08:00:00,28.49,113.1111,53,长沙市,新桥,长沙县,999.6,30.0,51.0,33.93370664234022,21.652434758599547
P5188,2025-06-03 08:00:00,28.4061,112.9925,85,长沙市,北山水库,长沙县,995.4,28.2,51.0,30.43761547581171,19.509382673399543
P5189,2025-06-03 08:00:00,28.4369,112.9975,64,长沙市,洞阳,望城区,998.6,28.5,60.0,45.578433370369886,23.356624163790688
P5190,2025-06-03 08:00:00,28.2758,112.9675,32,长沙市,江湾,开福区,1001.6,28.6,54.0,36.299827011527206,21.143523129395643
P5195,2025-06-03 08:00:00,28.4267,112.9922,120,长沙市,黑麋峰,望城区,991.2,27.9,53.0,36.902201678092496,19.92264427302671
P5199,2025-06-03 08:00:00,27.975,113.7275,125,长沙市,大瑶,浏阳市,991.0,27.2,63.0,42.013630502484375,22.730425782729817
P5201,2025-06-03 08:00:00,28.4103,113.22,52,长沙市,明月,长沙县,999.7,30.9,51.0,41.23937908600365,22.79899258036299
P5206,2025-06-03 08:00:00,28.3222,113.3075,66,长沙市,红旗水库,长沙县,998.0,28.9,55.0,30.61352706543253,21.913385668587416
P5215,2025-06-03 08:00:00,28.4372,113.6556,268,长沙市,周洛,浏阳市,974.5,27.9,58.0,38.63473736823327,21.802139015765075
P5218,2025-06-03 08:00:00,28.2203,112.9436,49,长沙市,咸嘉湖,岳麓区,1000.7,28.4,53.0,35.657888036886845,20.51200252524752
P5221,2025-06-03 08:00:00,28.4306,113.5953,145,长沙市,石牛,浏阳市,988.5,28.8,55.0,38.724915508920105,21.786640546361784
P5225,2025-06-03 08:00:00,28.2489,113.0753,61,长沙市,县政府,长沙县,998.8,29.4,50.0,27.610222115714784,20.506199295084365
P5230,2025-06-03 08:00:00,28.2311,112.6875,41,长沙市,天马新村,宁乡市,1000.7,28.1,54.0,29.169638065696155,20.536900408826913
P5231,2025-06-03 08:00:00,28.3489,112.8297,44,长沙市,望府路,望城区,1001.0,28.9,76.0,56.61849076751866,30.280314742048066
P5233,2025-06-03 08:00:00,28.2806,112.5453,67,长沙市,玉潭,宁乡市,998.3,29.2,50.0,36.250841985880676,20.2704483076477
P5235,2025-06-03 08:00:00,28.4014,113.1228,69,长沙市,和平,长沙县,997.2,29.6,77.0,57.73754133631848,31.946284831837946
P5245,2025-06-03 08:00:00,28.3578,113.7469,192,长沙市,宝盖寺,浏阳市,985.2,28.1,57.0,38.08650775774965,21.677839320428408
P5249,2025-06-03 08:00:00,28.4283,114.1492,1437,长沙市,大围山,浏阳市,851.5,18.2,84.0,35.32892751689703,17.544943301823256
P5259,2025-06-03 08:00:00,28.4119,112.9264,47,长沙市,桥驿,望城区,1000.0,29.3,50.0,28.08146693533808,20.388026258076618
P5266,2025-06-03 08:00:00,28.225,112.1089,242,长沙市,石龙洞,宁乡市,978.5,27.4,46.0,22.1616107401042,16.79272301812337
P5269,2025-06-03 08:00:00,28.28,112.6847,60,长沙市,关山,宁乡市,999.5,30.0,51.0,28.771591436608315,21.652434758599547
P5273,2025-06-03 08:00:00,28.32,112.7211,52,长沙市,乌山,望城区,1001.1,29.6,57.0,32.398647999319195,23.648548511880037
P5275,2025-06-03 08:00:00,28.3381,113.2011,41,长沙市,果园,长沙县,1001.2,28.9,51.0,34.59165695924028,20.319684892690148
P5281,2025-06-03 08:00:00,28.2647,112.9558,46,长沙市,观沙岭,岳麓区,1001.1,29.2,54.0,30.267688614915638,21.89208417225952
P5290,2025-06-03 08:00:00,28.3578,113.8136,136,长沙市,礼花,浏阳市,990.8,29.4,53.0,33.33750538098046,21.736571252789425
P5291,2025-06-03 08:00:00,28.4119,113.9247,125,长沙市,椒花水库,浏阳市,991.1,29.3,53.0,35.38962791638578,21.611307833561217
P5292,2025-06-03 08:00:00,28.2658,114.0942,207,长沙市,皇碑,浏阳市,982.0,28.4,59.0,38.26159234462714,22.834116018671768
P5293,2025-06-03 08:00:00,28.0658,113.5647,88,长沙市,青草,浏阳市,997.6,28.9,54.0,32.90119931953071,21.5149604746131
P5294,2025-06-03 08:00:00,27.9958,113.7706,94,长沙市,澄潭江,浏阳市,994.5,29.3,54.0,37.064920942870664,22.019068358722752
P5295,2025-06-03 08:00:00,28.0739,113.9867,166,长沙市,岩前,浏阳市,985.6,27.1,59.0,35.739110226524566,21.16255366213789
P5296,2025-06-03 08:00:00,28.1881,113.5158,417,长沙市,菖蒲岭,浏阳市,958.6,26.4,67.0,40.03532106276914,23.061163223756463
P5298,2025-06-03 08:00:00,28.2083,112.7342,75,长沙市,白箬铺,望城区,998.3,29.2,52.0,33.592827483834846,21.08126623995361
P5303,2025-06-03 08:00:00,28.3167,112.9208,43,长沙市,月亮岛公园,望城区,1001.9,29.0,55.0,28.717521587646164,22.040774301812217
P5304,2025-06-03 08:00:00,28.1058,112.9289,46,长沙市,大王山,岳麓区,1000.4,28.9,50.0,35.51321748243942,19.921259698715833
P5305,2025-06-03 08:00:00,28.0719,112.9189,39,长沙市,巴溪洲,岳麓区,1001.6,28.9,51.0,35.860296938121934,20.319684892690148
P5306,2025-06-03 08:00:00,28.1253,112.9214,30,长沙市,洋湖湿地,岳麓区,1002.2,29.1,50.0,36.7865182789603,20.153462911795213
P5307,2025-06-03 08:00:00,28.2764,112.8547,64,长沙市,观音岩水库,望城区,998.5,27.6,55.0,41.852067467433635,20.314902143865428
P5309,2025-06-03 08:00:00,28.2733,112.8256,50,长沙市,黄金园,望城区,1000.1,29.4,54.0,35.394234285927816,22.146695238691112
P5314,2025-06-03 08:00:00,28.2231,113.1889,70,长沙市,黄龙小学,长沙县,997.6,28.4,56.0,30.68754706517828,21.673059271959648
P5315,2025-06-03 08:00:00,28.2975,113.4322,74.4,长沙市,北盛,浏阳市,997.2,31.0,50.0,39.72750372830368,22.479999369702266
P5322,2025-06-03 08:00:00,28.2247,112.2611,121,长沙市,喻家坳,宁乡市,993.0,27.6,45.0,23.920439449930054,16.62128357225353
P5323,2025-06-03 08:00:00,28.2836,113.9053,122,长沙市,铁山,浏阳市,990.6,30.2,55.0,44.968585885158525,23.6206447373583
P5328,2025-06-03 08:00:00,28.2336,112.9639,65,长沙市,岳北,岳麓区,1001.4,29.1,48.0,36.53257139813446,19.347324395323405
P5329,2025-06-03 08:00:00,28.4608,112.7889,44,长沙市,靖港电排,望城区,1002.3,28.5,51.0,38.82690376438421,19.853130539222086
P5330,2025-06-03 08:00:00,28.1872,112.9747,64,长沙市,天心公园,天心区,999.6,28.1,50.0,36.66114645681026,19.015648526691585
P5331,2025-06-03 08:00:00,28.1886,111.9597,574,长沙市,沩山,宁乡市,939.2,24.4,52.0,19.942028222416173,15.889988972925252
P5332,2025-06-03 08:00:00,28.1672,113.1039,37,长沙市,敢胜,长沙县,1001.5,28.0,55.0,39.67247087312651,20.795518215833035
P5333,2025-06-03 08:00:00,28.145,112.9647,92,长沙市,南郊公园,天心区,996.3,27.7,59.0,34.572753640380995,21.920255823475365
P5335,2025-06-03 08:00:00,28.31,112.4928,78,长沙市,菁华铺,宁乡市,997.7,28.9,52.0,33.59443336019569,20.718110086664467
P5336,2025-06-03 08:00:00,28.1936,112.5236,67,长沙市,金州村,宁乡市,998.4,27.2,58.0,36.957729357843824,20.926423736481414
P5337,2025-06-03 08:00:00,28.1239,112.23,112,长沙市,云山,宁乡市,994.2,28.3,49.0,30.1833250031781,18.853838479297814
P5339,2025-06-03 08:00:00,28.0281,112.0342,348,长沙市,草冲,宁乡市,967.0,26.2,57.0,36.78330460678407,19.388630893176455
P5342,2025-06-03 08:00:00,27.9244,112.1153,201,长沙市,田心铺,宁乡市,984.3,27.7,50.0,38.1001714851064,18.576487985996074
P5343,2025-06-03 08:00:00,28.1831,112.765,70,长沙市,牌楼坝,望城区,997.5,29.8,54.0,38.050013812694495,22.663684710626168
P5345,2025-06-03 08:00:00,28.2161,112.8033,36,长沙市,真人桥,望城区,997.6,28.5,56.0,32.95597526648425,21.79951588620465
P5346,2025-06-03 08:00:00,28.2114,112.9578,36,长沙市,银盆岭,岳麓区,1001.4,29.0,51.0,33.32627946627276,20.437808898044054
P5347,2025-06-03 08:00:00,28.1581,112.9825,104,长沙市,七里庙,雨花区,995.3,28.6,50.0,32.83313793262083,19.57733623092189
P5348,2025-06-03 08:00:00,28.0739,113.1175,122,长沙市,冬斯港,雨花区,993.0,27.8,56.0,39.45290798002734,20.927691352197073
P5352,2025-06-03 08:00:00,28.3069,113.7983,106,长沙市,沿溪,浏阳市,994.9,30.6,53.0,39.3166304813442,23.289923506395354
P5359,2025-06-03 08:00:00,28.185,113.8469,121,长沙市,株树桥水库,浏阳市,992.8,28.5,58.0,38.60481169091783,22.578070024997665
P5363,2025-06-03 08:00:00,28.2042,114.0764,223,长沙市,小河,浏阳市,978.9,29.4,54.0,36.721103922279816,22.146695238691112
P5372,2025-06-03 08:00:00,28.2153,113.1131,58,长沙市,长桥公园,长沙县,999.2,28.3,52.0,24.81723540555261,20.008155120887473
P5373,2025-06-03 08:00:00,28.1264,112.0311,192,长沙市,联花,宁乡市,985.4,28.7,46.0,42.90318004387603,18.116084811424933
P5382,2025-06-03 08:00:00,28.0978,112.7422,59,长沙市,莲花,岳麓区,998.4,27.8,54.0,34.275614452682596,20.18027380390432
P5383,2025-06-03 08:00:00,28.1314,112.9047,38,长沙市,学士,岳麓区,1001.8,28.8,48.0,38.92337312127373,19.01379538591574
