Station_Id_C,Datetime,Station_Name,City,Cnty,Lat,Lon,Alti,PRS,TEM,RHU,VAP,PWV
57264,2025-06-03 10:00:00,武当山,十堰市,丹江口市,32.4261,111.0153,1017.5,896.4,21.8,74,19.31945798201815,40.295499999999926
57351,2025-06-03 10:00:00,坛子岭,宜昌市,夷陵区,30.8333,111.0167,231.0,981.1,25.7,64,21.13409164604732,47.12249999999999
57352,2025-06-03 10:00:00,三斗坪,宜昌市,夷陵区,30.8092,111.0003,185.3,986.2,26.2,59,20.068933731533523,46.49650000000001
57353,2025-06-03 10:00:00,苏家坳,宜昌市,夷陵区,30.8378,111.0164,191.8,985.5,26.2,61,20.74923656989059,47.73300000000005
57354,2025-06-03 10:00:00,神农顶,省直辖县级行政区划,神农架林区,31.4558,110.2711,2948.1,713.8,7.8,64,6.769444284713743,10.83650000000001
57367,2025-06-03 10:00:00,大老岭,宜昌市,夷陵区,31.0836,110.9406,1910.0,808.1,14.8,31,5.214909367741406,14.968500000000006
57451,2025-06-03 10:00:00,绿葱坡,恩施土家族苗族自治州,巴东县,30.8131,110.2539,1813.5,817.9,16.0,46,8.35788187827069,16.200499999999998
Q0004,2025-06-03 10:00:00,沪渝K1464,恩施土家族苗族自治州,利川市,30.2789,108.8711,1082.2,887.6,21.2,59,14.847380099149536,24.907000000000014
Q0005,2025-06-03 10:00:00,沪渝K1439,恩施土家族苗族自治州,利川市,30.2444,109.1197,1131.4,883.5,19.0,99,21.740462260123145,38.331
Q0007,2025-06-03 10:00:00,沪渝K1412,恩施土家族苗族自治州,恩施市,30.2389,109.3664,706.7,927.5,22.9,77,21.494981040596123,42.54450000000006
Q0008,2025-06-03 10:00:00,沪渝K1407,恩施土家族苗族自治州,巴东县,30.2439,109.4128,545.1,943.9,24.1,70,21.00867841404586,40.29749999999999
Q0010,2025-06-03 10:00:00,沪渝K1375,恩施土家族苗族自治州,恩施市,30.4114,109.5864,729.9,924.4,22.5,80,21.79658612350672,45.138000000000005
Q0011,2025-06-03 10:00:00,沪渝K1369,恩施土家族苗族自治州,恩施市,30.455,109.6258,624.1,935.2,24.0,71,21.18110556420884,37.11550000000002
Q0013,2025-06-03 10:00:00,沪渝K1351,恩施土家族苗族自治州,恩施市,30.4628,109.7828,780.1,918.4,22.9,70,19.54089185508738,40.67099999999999
Q0014,2025-06-03 10:00:00,沪渝K1343,恩施土家族苗族自治州,恩施市,30.4997,109.8508,903.4,906.0,22.0,69,18.235516735674608,31.329000000000036
Q0015,2025-06-03 10:00:00,沪渝K1336,恩施土家族苗族自治州,建始县,30.55,109.8914,879.8,908.1,22.2,67,17.92427358646764,30.809500000000003
Q0017,2025-06-03 10:00:00,沪渝K1313,恩施土家族苗族自治州,巴东县,30.6506,110.0908,794.9,917.1,21.2,78,19.628739792095995,40.90700000000001
Q0019,2025-06-03 10:00:00,沪渝K1305,恩施土家族苗族自治州,巴东县,30.6308,110.1639,865.2,909.7,21.1,71,17.75776171096406,31.28199999999999
Q0021,2025-06-03 10:00:00,沪渝K1291,恩施土家族苗族自治州,巴东县,30.6119,110.3097,1104.2,885.2,18.8,64,13.879881989673482,23.927000000000017
Q0022,2025-06-03 10:00:00,沪渝k1283,恩施土家族苗族自治州,恩施市,30.6217,110.3864,923.0,919.5,22.5,55,14.98515295991087,24.024
Q0023,2025-06-03 10:00:00,秭归k48,宜昌市,市辖区,30.6325,111.3253,62.7,996.3,26.9,66,23.396581905125394,34.42650000000003
Q0026,2025-06-03 10:00:00,沪渝K1262,宜昌市,长阳土家族自治县,30.6247,110.6047,597.8,937.7,21.2,68,17.112234690545232,31.521499999999996
Q0028,2025-06-03 10:00:00,沪渝K1179,宜昌市,市辖区,30.5711,111.4003,54.9,997.9,27.9,62,23.305734809955773,34.646000000000015
Q0030,2025-06-03 10:00:00,沪渝K1208,宜昌市,长阳土家族自治县,30.5589,111.1281,241.9,980.1,26.0,69,23.194212837600084,42.9515
Q0032,2025-06-03 10:00:00,沪渝K1097,荆州市,荆州区,30.3922,112.195,25.4,1002.4,27.5,49,17.993045907905834,29.03099999999999
Q0033,2025-06-03 10:00:00,沪渝K1069,荆州市,荆州区,30.3353,112.4733,25.4,1003.0,27.5,61,22.39950613025012,40.65050000000001
Q0034,2025-06-03 10:00:00,沪渝K1065,省直辖县级行政区划,潜江市,30.3383,112.5164,24.4,1002.7,26.9,60,21.26961991375036,39.178999999999945
Q0037,2025-06-03 10:00:00,沪渝K933,武汉市,蔡甸区,30.4533,113.8225,17.0,1003.0,27.3,60,21.77546052612966,34.81949999999998
Q0039,2025-06-03 10:00:00,沪渝k959,省直辖县级行政区划,仙桃市,30.3486,113.5853,15.2,1002.9,27.3,62,22.501309210333982,34.80800000000002
Q0040,2025-06-03 10:00:00,沪渝K982,省直辖县级行政区划,仙桃市,30.3631,113.3619,9.0,1003.5,27.1,66,23.673365113577976,43.15200000000004
Q0047,2025-06-03 10:00:00,黄黄785,黄冈市,浠水县,30.2406,115.1297,19.8,1003.8,27.9,48,18.04314953028834,31.424499999999995
Q0049,2025-06-03 10:00:00,黄黄K761,黄冈市,蕲春县,30.1353,115.33,21.4,1003.3,26.9,57,20.20613891806284,35.2135
Q0050,2025-06-03 10:00:00,黄黄K742,黄冈市,武穴市,30.0289,115.4664,41.4,1001.3,26.4,60,20.651787961572957,38.719500000000046
Q0051,2025-06-03 10:00:00,黄黄K730,黄冈市,武穴市,30.0039,115.5917,38.0,1002.4,25.9,60,20.049708593059776,31.513500000000043
Q0052,2025-06-03 10:00:00,黄黄K722,黄冈市,武穴市,30.0161,115.6708,42.5,1001.0,26.1,61,20.62681654077157,38.21650000000004
Q0053,2025-06-03 10:00:00,黄黄K714,黄冈市,武穴市,30.0278,115.7514,22.2,1003.4,26.4,57,19.619198563494304,36.97424999999996
Q0054,2025-06-03 10:00:00,黄黄K708,黄冈市,黄梅县,30.0278,115.8164,23.1,1003.8,25.8,65,21.59208229775595,38.82199999999994
Q0055,2025-06-03 10:00:00,黄黄K700,黄冈市,黄梅县,30.0333,115.8986,25.2,1003.2,26.1,62,20.96496107422685,28.811000000000007
Q0056,2025-06-03 10:00:00,黄黄K685,黄冈市,黄梅县,30.1047,116.0217,45.9,1001.1,25.8,68,22.588639942267765,40.212500000000034
Q0058,2025-06-03 10:00:00,大广K2491,黄石市,市辖区,30.1703,114.9136,25.0,1001.9,26.7,57,19.969545993910955,35.41250000000003
Q0061,2025-06-03 10:00:00,大广K2520,黄石市,大冶市,29.9158,114.8833,57.7,998.9,26.0,61,20.505028740487035,36.269499999999965
Q0064,2025-06-03 10:00:00,大广K2552,黄石市,阳新县,29.6617,114.9464,23.5,1002.6,26.9,55,19.497151587604492,29.776999999999997
Q0065,2025-06-03 10:00:00,大广K2560,黄石市,阳新县,29.6053,114.9322,37.1,1000.0,27.1,51,18.293054860492077,30.18049999999997
Q0066,2025-06-03 10:00:00,大广K2583,咸宁市,通山县,29.4306,114.8339,281.9,972.3,25.6,59,19.3676153182246,38.40400000000002
Q0067,2025-06-03 10:00:00,杭瑞K731,咸宁市,崇阳县,29.3742,113.8803,81.0,995.0,27.6,53,19.57617842954305,34.21550000000005
Q0069,2025-06-03 10:00:00,杭瑞K679,咸宁市,通山县,29.5817,114.3203,81.0,992.1,28.0,45,17.01451490386339,39.22499999999996
Q0071,2025-06-03 10:00:00,杭瑞K640,咸宁市,通山县,29.7172,114.6692,128.1,990.5,28.1,41,15.592831791887098,28.363500000000027
Q0072,2025-06-03 10:00:00,杭瑞K620,黄石市,阳新县,29.7147,114.8767,167.3,986.8,24.9,61,19.20630583546978,26.053000000000008
Q0074,2025-06-03 10:00:00,杭瑞K583,黄石市,阳新县,29.7067,115.2367,54.2,998.8,25.7,59,19.482990736199877,39.91250000000002
Q0079,2025-06-03 10:00:00,福银K1447,十堰市,郧西县,33.08,110.3,444.3,956.3,25.3,71,22.894573184460004,39.97749999999997
Q0080,2025-06-03 10:00:00,福银K1421,十堰市,郧西县,32.95,110.5,395.1,961.1,25.8,62,20.595524653244134,37.38250000000007
Q0081,2025-06-03 10:00:00,福银K1405,十堰市,郧西县,32.86,110.65,275.8,972.7,27.8,51,19.05914748146519,28.325499999999952
Q0082,2025-06-03 10:00:00,福银K1398,十堰市,郧西县,32.82,110.7,205.1,980.7,28.3,52,20.008155120887476,39.381000000000014
Q0083,2025-06-03 10:00:00,福银K1338,十堰市,丹江口市,32.51,111.14,162.4,986.2,28.1,63,23.9597171436314,42.19049999999997
Q0087,2025-06-03 10:00:00,福银K1277,襄阳市,谷城县,32.28,111.66,73.4,996.1,27.7,63,23.40637486235505,45.26399999999996
Q0089,2025-06-03 10:00:00,福银K1234,襄阳市,市辖区,32.19,112.1,76.5,996.1,29.6,38,15.765699007920029,33.93200000000004
Q0093,2025-06-03 10:00:00,福银K1103,随州市,市辖区,31.67,113.26,101.0,994.1,28.1,54,20.536900408826916,35.43350000000006
Q0094,2025-06-03 10:00:00,福银K1093,随州市,市辖区,31.6,113.33,83.0,996.4,28.5,57,22.188792955601155,37.90850000000009
Q0095,2025-06-03 10:00:00,福银K1076,随州市,市辖区,31.48,113.43,110.0,993.3,27.1,67,24.032052463783703,33.33199999999999
Q0096,2025-06-03 10:00:00,福银K1064,孝感市,安陆市,31.39,113.51,97.7,995.6,27.3,67,24.31593092084479,44.43799999999997
Q0100,2025-06-03 10:00:00,福银K993,孝感市,市辖区,30.98,114.05,29.2,1002.0,27.3,64,23.227157894538305,42.38299999999993
Q0103,2025-06-03 10:00:00,襄荆K1620,荆门市,钟祥市,31.54,112.28,56.7,998.7,27.8,5,1.8685438707318816,6.121999999999993
Q0104,2025-06-03 10:00:00,襄荆K1634,荆门市,钟祥市,31.42,112.34,68.6,997.2,27.7,58,21.54872606375544,37.17899999999998
Q0106,2025-06-03 10:00:00,襄荆K1685,荆门市,市辖区,30.99,112.27,51.3,999.0,27.8,56,20.927691352197076,32.0725
Q0107,2025-06-03 10:00:00,襄荆K1704,荆门市,市辖区,30.82,112.24,75.1,997.1,26.3,66,22.583135177721022,33.31850000000003
Q0108,2025-06-03 10:00:00,襄荆K1715交通气象站,荆门市,沙洋县,30.7,112.22,50.4,1000.2,26.6,5,1.7414175932029785,8.036999999999999
Q0109,2025-06-03 10:00:00,襄荆K1745,荆门市,沙洋县,30.45,112.21,42.3,1002.1,27.3,62,22.501309210333982,38.75150000000005
Q0600,2025-06-03 10:00:00,洪湖石码头,荆州市,洪湖市,29.8361,113.5272,26.0,1002.7,27.4,57,20.80837417463113,33.01500000000004
Q0603,2025-06-03 10:00:00,石首海事码头,荆州市,石首市,29.7378,112.4081,20.0,1002.3,27.0,63,22.464862424609105,36.16950000000002
Q0604,2025-06-03 10:00:00,公安航道码头,荆州市,公安县,30.0744,112.215,11.0,1002.0,27.5,60,22.032301111721427,28.436000000000032
Q0605,2025-06-03 10:00:00,江陵航道码头,荆州市,江陵县,30.03,112.4025,50.0,1002.0,26.7,62,21.72126055478034,30.14350000000006
Q0606,2025-06-03 10:00:00,杨林矶海事码头,荆州市,市辖区,30.3206,112.2025,15.0,1001.9,26.2,63,21.42953940824766,36.12799999999992
Q0607,2025-06-03 10:00:00,阳逻海事水上搜救中心,武汉市,新洲区,30.6586,114.5494,40.0,1003.0,26.3,56,19.16144802958148,34.35550000000004
Q0608,2025-06-03 10:00:00,金口航道码头,武汉市,江夏区,30.3672,114.1486,0.0,1003.0,26.8,57,20.087537896185555,32.02099999999998
Q0609,2025-06-03 10:00:00,嘉鱼簰洲湾海事站房,咸宁市,嘉鱼县,30.2064,113.9283,20.0,1002.9,26.8,58,20.43995084173267,38.61849999999998
Q0611,2025-06-03 10:00:00,秭归泄滩小学,宜昌市,秭归县,31.0047,110.6128,194.5,983.8,24.6,74,22.885230396321077,37.39750000000003
Q0612,2025-06-03 10:00:00,长江航道宜昌综合码头,宜昌市,宜都市,30.5539,111.39,40.0,1000.7,27.5,55,20.196276019077978,37.65599999999993
Q0613,2025-06-03 10:00:00,宜昌海事局孙家河执法队,宜昌市,宜都市,30.4106,111.5064,60.0,1001.3,26.7,48,16.81645978434607,25.017000000000003
Q0614,2025-06-03 10:00:00,松滋河口,宜昌市,宜都市,30.3075,111.6236,40.0,1001.2,27.0,56,19.96876659965254,37.45599999999999
Q0615,2025-06-03 10:00:00,枝江姚港,宜昌市,枝江市,30.3725,111.64,50.0,1001.6,25.2,66,21.155874434164428,35.48299999999994
Q0616,2025-06-03 10:00:00,枝江七星台,宜昌市,枝江市,30.4125,111.8875,40.0,1001.8,26.4,66,22.71696675773025,41.46099999999999
Q0617,2025-06-03 10:00:00,监利何王庙,荆州市,监利市,29.7708,113.0303,40.0,1002.3,27.2,60,21.648024554980772,28.642999999999997
Q0618,2025-06-03 10:00:00,监利三洲,荆州市,监利市,29.6517,112.9492,30.0,1002.4,28.2,4,1.5301476606587878,2.886000000000004
Q0619,2025-06-03 10:00:00,洪湖龙口汽渡码头,荆州市,洪湖市,29.9542,113.8303,30.0,1002.6,26.8,62,21.849602623921133,41.10749999999997
Q0701,2025-06-03 10:00:00,水口白灯船,武汉市,新洲区,30.6869,114.5175,4.0,1002.7,26.5,58,20.081613681122416,32.63950000000001
Q0702,2025-06-03 10:00:00,牧鹅洲白灯船,武汉市,新洲区,30.5583,114.6317,4.0,1002.8,27.0,41,14.619989831888462,26.99250000000002
Q0704,2025-06-03 10:00:00,沙市河段航道整治一期工程提示标,荆州市,沙市区,30.3142,112.2003,8.0,1001.1,25.8,64,21.25989641625201,29.52049999999996
Q0705,2025-06-03 10:00:00,公安大桥进口白泵船,荆州市,公安县,30.0753,112.3128,7.0,1001.3,26.3,70,23.95181003697684,46.22870000000001
Q0707,2025-06-03 10:00:00,桃花洲中提示标,荆州市,洪湖市,29.7636,112.6675,6.0,1001.4,27.0,59,21.03852195320535,30.152499999999986
Q0725,2025-06-03 10:00:00,天兴洲航道整治建筑物上提示标,武汉市,江岸区,30.6411,114.3525,4.0,1002.3,25.9,57,19.047223163406787,33.61599999999998
Q0729,2025-06-03 10:00:00,黄冈大桥#1红浮,黄冈市,市辖区,30.5308,114.8308,4.0,1002.5,26.3,59,20.18795417402334,28.673000000000044
Q0737,2025-06-03 10:00:00,李家洲#3红浮,黄冈市,市辖区,30.1289,115.2844,3.0,1002.3,26.0,62,20.841176752626165,45.07900000000004
Q1000,2025-06-03 10:00:00,江滩,武汉市,江岸区,30.5944,114.3017,28.8,1003.2,27.3,53,19.23499013141453,30.701000000000032
Q1001,2025-06-03 10:00:00,潘塘,武汉市,新洲区,30.9978,114.8886,62.0,998.3,26.9,57,20.20613891806284,36.97200000000008
Q1002,2025-06-03 10:00:00,三店,武汉市,新洲区,30.9278,114.7925,28.0,1003.0,27.1,56,20.08649161152071,33.871
Q1003,2025-06-03 10:00:00,李集,武汉市,新洲区,30.8803,114.6789,24.6,1003.3,26.6,61,21.24529463707633,33.39350000000002
Q1004,2025-06-03 10:00:00,旧街,武汉市,新洲区,30.8169,114.8717,27.0,1003.1,26.9,55,19.497151587604492,35.28649999999999
Q1005,2025-06-03 10:00:00,辛冲,武汉市,新洲区,30.7997,114.8161,40.0,1001.9,26.7,57,19.969545993910955,28.211500000000004
Q1006,2025-06-03 10:00:00,汪集,武汉市,新洲区,30.8086,114.73,37.0,1001.8,27.1,54,19.369116911109256,25.53899999999995
Q1007,2025-06-03 10:00:00,仓埠,武汉市,江岸区,30.8736,114.6136,28.8,1000.8,26.9,55,19.497151587604492,28.72800000000003
Q1008,2025-06-03 10:00:00,凤凰,武汉市,新洲区,30.9403,114.7225,67.0,999.6,26.5,61,21.120317837042546,39.00750000000006
Q1010,2025-06-03 10:00:00,化工,武汉市,洪山区,30.5064,114.3839,40.8,1002.1,26.4,44,15.1446445051535,24.142000000000035
Q1011,2025-06-03 10:00:00,五一大队,武汉市,东西湖区,30.7475,114.0272,26.0,1003.7,26.7,66,23.122632203475845,48.11149999999992
Q1013,2025-06-03 10:00:00,湖北省农科院,武汉市,洪山区,30.4836,114.3192,31.0,1003.2,26.9,59,20.915126248521187,28.83349999999998
Q1014,2025-06-03 10:00:00,花山工作基地,武汉市,市辖区,30.5325,114.5006,41.0,1001.3,26.8,45,15.858582549620175,25.745500000000035
Q1016,2025-06-03 10:00:00,湖北省预备役师,武汉市,洪山区,30.5333,114.5058,29.0,1002.5,26.5,68,23.54396086752284,44.08750000000005
Q1017,2025-06-03 10:00:00,和平公园,武汉市,青山区,30.6381,114.3803,22.0,1003.3,27.2,62,22.369625373480137,41.807000000000016
Q1018,2025-06-03 10:00:00,纱帽,武汉市,汉南区,30.3322,114.0706,19.0,1003.4,27.1,61,21.879928362549343,36.17299999999997
Q1019,2025-06-03 10:00:00,湘口,武汉市,汉南区,30.2669,113.8478,25.0,1003.5,26.9,62,21.978607244208703,39.35400000000002
Q1020,2025-06-03 10:00:00,邓南,武汉市,汉南区,30.3078,113.9783,27.0,1003.0,26.7,67,23.47297511564972,37.91524999999998
Q1021,2025-06-03 10:00:00,东荆,武汉市,汉南区,30.3461,113.9131,24.0,1003.4,27.4,59,21.53849256672345,36.2075
Q1022,2025-06-03 10:00:00,气象预警中心,武汉市,东西湖区,30.6703,114.1803,32.0,1003.6,27.6,62,22.900435143993757,36.384
Q1023,2025-06-03 10:00:00,建和分校,武汉市,洪山区,30.4614,114.2383,23.2,1003.6,26.6,61,21.24529463707633,33.78049999999998
Q1024,2025-06-03 10:00:00,实验小学,武汉市,东西湖区,30.6242,114.1408,26.0,1003.8,28.7,52,20.479052395523837,37.013000000000005
Q1025,2025-06-03 10:00:00,白玉公园,武汉市,青山区,30.6014,114.4875,25.0,1003.7,26.7,63,22.071603466954212,41.96650000000005
Q1026,2025-06-03 10:00:00,沌阳,武汉市,汉南区,30.455,114.1294,28.0,1003.5,27.7,63,23.40637486235505,38.50750000000001
Q1027,2025-06-03 10:00:00,华师,武汉市,洪山区,30.5183,114.3594,43.1,1001.3,26.4,50,17.209823301310795,35.339000000000055
Q1028,2025-06-03 10:00:00,常青路,武汉市,东西湖区,30.6731,114.2292,24.0,1003.8,26.6,57,19.85216056251395,30.480500000000017
Q1029,2025-06-03 10:00:00,光谷二十七小学,武汉市,洪山区,30.5644,114.4858,26.8,1003.1,27.8,46,17.19060361073331,24.294000000000032
Q1030,2025-06-03 10:00:00,材保所,武汉市,东西湖区,30.6772,114.2828,35.0,1003.7,28.1,49,18.63533555615776,24.403599999999997
Q1031,2025-06-03 10:00:00,湖北省第二师范,武汉市,洪山区,30.4789,114.4464,35.0,1002.1,27.5,51,18.72745594496321,32.685500000000005
Q1032,2025-06-03 10:00:00,百步亭社区,武汉市,江岸区,30.6644,114.3136,26.0,1003.8,26.7,52,18.21783143304157,25.744999999999976
Q1033,2025-06-03 10:00:00,南湖社区,武汉市,武昌区,30.5133,114.3114,19.0,1003.7,26.3,62,21.214460318465207,34.562000000000005
Q1036,2025-06-03 10:00:00,东湖落雁景区,武汉市,市辖区,30.5517,114.4369,23.0,1003.6,26.8,54,19.030299059544213,33.261499999999984
Q1038,2025-06-03 10:00:00,天兴洲,武汉市,洪山区,30.6708,114.41,25.0,1003.2,26.1,71,24.00826187532429,33.48350000000002
Q1039,2025-06-03 10:00:00,光谷二十一小学,武汉市,洪山区,30.5031,114.4803,45.3,1001.4,28.6,42,16.444962433974386,24.326
Q1040,2025-06-03 10:00:00,五云,武汉市,江岸区,30.7594,114.6317,24.0,1001.8,26.4,61,20.99598442759917,34.20100000000001
Q1041,2025-06-03 10:00:00,鄢家湖,武汉市,江岸区,30.6386,114.5739,11.5,1003.6,26.5,61,21.120317837042546,40.659
Q1042,2025-06-03 10:00:00,席家岗,武汉市,江岸区,30.8764,114.4739,32.5,1002.0,26.7,57,19.969545993910955,28.347
Q1043,2025-06-03 10:00:00,六指中心福利院,武汉市,江岸区,30.8822,114.5217,39.2,1001.9,26.9,55,19.497151587604492,25.534000000000034
Q1044,2025-06-03 10:00:00,青华,武汉市,江岸区,30.8683,114.5803,42.3,1001.6,26.8,57,20.087537896185555,28.240499999999997
Q1045,2025-06-03 10:00:00,大咀,武汉市,江岸区,30.7972,114.4647,31.3,1001.7,26.6,55,19.15559352523276,25.127
Q1052,2025-06-03 10:00:00,武汉植物园,武汉市,洪山区,30.5447,114.42,23.3,1003.5,25.8,59,19.598967008732323,31.841500000000007
Q1054,2025-06-03 10:00:00,湖大,武汉市,武昌区,30.5814,114.3311,23.0,1003.5,27.6,46,16.990645429414723,26.634000000000004
Q1057,2025-06-03 10:00:00,林业站,武汉市,洪山区,30.6369,114.5061,33.0,1003.9,26.4,65,22.37277029170404,41.68050000000003
Q1061,2025-06-03 10:00:00,青山,武汉市,青山区,30.6411,114.4039,33.5,1002.8,27.7,50,18.576487985996074,26.6836
Q1071,2025-06-03 10:00:00,士官学校,武汉市,洪山区,30.51,114.4581,35.0,1002.8,26.6,43,14.976191301545612,30.688499999999987
Q1072,2025-06-03 10:00:00,堤角公园,武汉市,江岸区,30.6664,114.335,27.0,1003.3,26.8,72,25.373732079392283,48.1805
Q1073,2025-06-03 10:00:00,湖北省移动公司,武汉市,江汉区,30.6272,114.2394,25.0,1003.6,28.7,44,17.32842895005863,25.933999999999973
Q1081,2025-06-03 10:00:00,汉南,武汉市,汉南区,30.255,114.0589,22.1,1003.5,27.1,59,21.16255366213789,32.4635
Q1082,2025-06-03 10:00:00,沌口,武汉市,汉南区,30.4769,114.1631,18.1,1003.3,27.0,65,23.178032660310983,38.54350000000004
Q1083,2025-06-03 10:00:00,春笋,武汉市,汉南区,30.4156,114.1306,21.6,1003.7,27.0,58,20.68193683535441,34.747999999999976
Q1084,2025-06-03 10:00:00,恒大农业,武汉市,汉南区,30.3267,114.0014,23.3,1003.5,26.9,64,22.68759457466705,41.68749999999997
Q1085,2025-06-03 10:00:00,武湖湿地,武汉市,汉南区,30.2131,113.8472,22.6,1003.7,26.7,63,22.071603466954212,35.90650000000006
Q1086,2025-06-03 10:00:00,喜鹊湖,武汉市,汉南区,30.22,113.8256,21.3,1003.8,27.0,64,22.82144754246004,41.07149999999996
Q1087,2025-06-03 10:00:00,龙灵山,武汉市,汉南区,30.4258,114.1092,33.7,1002.4,26.1,73,24.68455094223484,44.75250000000005
Q1088,2025-06-03 10:00:00,武汉西,武汉市,汉南区,30.4586,114.0606,29.0,1002.9,27.5,54,19.829071000549288,31.18050000000004
Q1101,2025-06-03 10:00:00,道观河,武汉市,新洲区,30.8781,114.9839,83.0,996.1,26.6,59,20.548727599795143,35.36800000000008
Q1102,2025-06-03 10:00:00,阳逻,武汉市,江岸区,30.6969,114.5339,25.0,1003.7,27.0,53,18.89901124609972,29.288999999999984
Q1103,2025-06-03 10:00:00,涨渡湖,武汉市,新洲区,30.6675,114.7861,18.7,1004.1,27.2,53,19.12242169023302,30.65650000000004
Q1104,2025-06-03 10:00:00,双柳,武汉市,新洲区,30.5964,114.6472,23.0,1003.6,27.4,48,17.52284141021569,29.323500000000013
Q1105,2025-06-03 10:00:00,将军山,武汉市,新洲区,30.8894,115.0589,344.5,967.6,24.4,63,19.25133279412098,35.226999999999954
Q1106,2025-06-03 10:00:00,徐古,武汉市,新洲区,30.9481,114.9694,73.0,998.0,26.8,56,19.735124950638443,33.70600000000003
Q1107,2025-06-03 10:00:00,徐治湾,武汉市,新洲区,30.8731,114.7681,25.0,1003.0,27.1,56,20.08649161152071,33.871
Q1108,2025-06-03 10:00:00,方院,武汉市,新洲区,30.9156,114.6519,39.3,1001.6,26.8,57,20.087537896185555,28.533000000000005
Q1109,2025-06-03 10:00:00,杨裴,武汉市,江岸区,30.7858,114.5475,31.6,1002.4,26.4,58,19.96339502952052,27.197000000000013
Q1111,2025-06-03 10:00:00,陈家田,武汉市,新洲区,30.975,114.7111,51.1,1000.3,26.4,69,23.749556155808893,34.79300000000003
Q1112,2025-06-03 10:00:00,大雾山,武汉市,新洲区,30.8286,114.9725,196.4,984.1,25.5,63,20.55811527721376,38.29599999999999
Q1113,2025-06-03 10:00:00,王寨,武汉市,新洲区,30.8742,114.8856,30.1,1002.8,27.1,61,21.879928362549343,33.50049999999998
Q1114,2025-06-03 10:00:00,春光,武汉市,新洲区,30.9244,114.6972,55.4,999.8,27.0,56,19.96876659965254,34.32300000000004
Q1115,2025-06-03 10:00:00,易河,武汉市,新洲区,30.9389,114.9081,36.0,1002.1,26.9,59,20.915126248521187,36.75100000000001
Q1116,2025-06-03 10:00:00,李岗,武汉市,新洲区,30.9575,114.87,60.0,999.4,27.6,57,21.053625858187807,42.13050000000008
Q1117,2025-06-03 10:00:00,徐寨,武汉市,新洲区,30.9631,114.7978,28.0,1002.9,27.2,55,19.84402250873238,31.342000000000013
Q1118,2025-06-03 10:00:00,陈路,武汉市,新洲区,30.6256,114.7536,22.2,1003.8,26.7,59,20.67023181825871,34.78499999999996
Q1119,2025-06-03 10:00:00,滨湖,武汉市,新洲区,30.6903,114.705,26.5,1003.2,26.9,59,20.915126248521187,32.084
Q1120,2025-06-03 10:00:00,航天新城,武汉市,新洲区,30.5981,114.6917,22.5,1003.8,27.6,52,19.20681657238186,33.20099999999998
Q1121,2025-06-03 10:00:00,大泊,武汉市,新洲区,30.7686,114.6692,20.6,1003.6,26.3,62,21.214460318465207,35.806500000000035
Q1122,2025-06-03 10:00:00,冯铺,武汉市,新洲区,30.7528,114.7064,23.9,1003.3,27.0,54,19.255596363950666,32.82950000000003
Q1123,2025-06-03 10:00:00,人胜,武汉市,新洲区,30.8286,114.6825,23.6,1003.4,26.4,61,20.99598442759917,34.634
Q1124,2025-06-03 10:00:00,杨铺,武汉市,新洲区,30.7658,114.815,35.4,1002.1,27.3,56,20.323763157721014,33.9055
Q1125,2025-06-03 10:00:00,朱岗,武汉市,新洲区,30.7722,114.8658,39.5,1001.6,26.7,60,21.020574730432585,33.338000000000015
Q1126,2025-06-03 10:00:00,毛集,武汉市,新洲区,30.6581,114.6303,22.0,1002.2,27.0,64,22.82144754246004,33.552000000000014
Q1128,2025-06-03 10:00:00,王瓦,武汉市,新洲区,30.7972,114.6519,13.8,1003.5,26.3,62,21.214460318465207,34.75850000000002
Q1129,2025-06-03 10:00:00,四道沟,武汉市,新洲区,30.73,114.7775,20.2,1003.8,27.1,60,21.52124101234361,31.839000000000045
Q1130,2025-06-03 10:00:00,道观河水库,武汉市,新洲区,30.8692,115.0061,92.7,995.7,26.4,63,21.6843773596516,45.72600000000003
Q1131,2025-06-03 10:00:00,大屋冲,武汉市,新洲区,30.9228,115.0169,109.7,993.8,26.4,60,20.651787961572957,38.52000000000006
Q1132,2025-06-03 10:00:00,凤凰镇中心小学,武汉市,新洲区,30.9228,114.7528,34.0,1000.7,28.0,53,20.039317553439105,26.072000000000035
Q1133,2025-06-03 10:00:00,旧街利河小学,武汉市,新洲区,30.8536,114.9625,31.0,1001.3,26.8,58,20.43995084173267,30.399
Q1134,2025-06-03 10:00:00,双柳汉昕小学,武汉市,新洲区,30.6467,114.8336,15.0,1004.0,27.1,58,20.80386631193216,33.53400000000005
Q1135,2025-06-03 10:00:00,刘六,武汉市,新洲区,30.8819,114.8447,32.0,1001.4,27.0,57,20.325351717503477,30.831
Q1136,2025-06-03 10:00:00,涨渡湖湿地森林公园,武汉市,新洲区,30.6756,114.7642,28.8,1004.1,26.2,66,22.449993665783264,35.636500000000005
Q1191,2025-06-03 10:00:00,紫薇都市田园,武汉市,江岸区,30.8192,114.6042,35.7,1001.9,27.5,50,18.360250926434524,24.707
Q1199,2025-06-03 10:00:00,邾城,武汉市,新洲区,30.8331,114.7997,26.4,1003.0,27.1,52,18.6517422106978,31.243500000000044
Q1201,2025-06-03 10:00:00,姚家集,武汉市,黄陂区,31.2047,114.3831,48.5,1000.8,27.0,67,23.891202896012857,39.18699999999993
Q1202,2025-06-03 10:00:00,蔡家榨,武汉市,黄陂区,30.9883,114.5211,88.0,996.2,27.0,63,22.464862424609105,46.37699999999999
Q1203,2025-06-03 10:00:00,李家集,武汉市,黄陂区,30.9947,114.2333,37.5,1000.6,26.7,71,24.87434676434523,39.051999999999936
Q1204,2025-06-03 10:00:00,天河机场,武汉市,黄陂区,30.8131,114.2119,35.0,1001.6,27.1,64,22.95599041316652,41.65799999999996
Q1207,2025-06-03 10:00:00,蔡店,武汉市,黄陂区,31.2856,114.3106,67.0,998.5,27.6,67,24.747244429799704,40.505500000000026
Q1208,2025-06-03 10:00:00,祁家湾,武汉市,黄陂区,30.8853,114.2261,41.0,1001.6,27.3,65,23.59008223664047,40.06349999999999
Q1209,2025-06-03 10:00:00,横店,武汉市,黄陂区,30.8003,114.2903,38.0,1000.8,27.3,59,21.4125361840275,38.31649999999996
Q1210,2025-06-03 10:00:00,盘龙城,武汉市,黄陂区,30.7506,114.3008,30.0,1001.6,27.2,57,20.565623327231737,33.319999999999986
Q1212,2025-06-03 10:00:00,夏家寺水库,武汉市,黄陂区,31.0553,114.4678,49.0,999.5,27.2,66,23.812827010478856,40.69700000000004
Q1213,2025-06-03 10:00:00,刘家山,武汉市,黄陂区,31.3047,114.2033,537.0,947.6,23.1,78,22.03956405110401,55.61300000000004
Q1214,2025-06-03 10:00:00,三里桥,武汉市,江岸区,30.7583,114.4194,23.0,1003.9,27.3,60,21.77546052612966,42.17700000000005
Q1215,2025-06-03 10:00:00,罗汉寺,武汉市,黄陂区,30.9933,114.3361,48.0,1000.7,27.4,63,22.998729350908093,38.991499999999945
Q1216,2025-06-03 10:00:00,长轩岭,武汉市,黄陂区,31.1075,114.3617,49.0,1000.9,27.3,62,22.501309210333982,42.570999999999984
Q1217,2025-06-03 10:00:00,现代农展中心,武汉市,江岸区,30.7003,114.5036,21.0,1003.8,27.3,57,20.686687499823176,36.39299999999998
Q1218,2025-06-03 10:00:00,源泉,武汉市,黄陂区,31.2347,114.23,100.2,993.2,26.7,66,23.122632203475845,44.85249999999996
Q1219,2025-06-03 10:00:00,矿巴水库,武汉市,黄陂区,31.0919,114.2014,105.3,995.8,27.0,65,23.178032660310983,37.76099999999999
Q1220,2025-06-03 10:00:00,武湖,武汉市,江岸区,30.7003,114.4181,29.0,1003.4,26.4,55,18.930805631441874,31.04149999999998
Q1221,2025-06-03 10:00:00,滠口,武汉市,黄陂区,30.7122,114.3606,17.3,1002.7,26.5,58,20.081613681122416,32.63950000000001
Q1222,2025-06-03 10:00:00,农科院北区,武汉市,江岸区,30.7164,114.4722,28.0,1003.5,27.5,54,19.829071000549288,30.459499999999988
Q1224,2025-06-03 10:00:00,崇杰,武汉市,黄陂区,31.2561,114.3842,50.2,1000.5,27.2,64,23.09122619197949,39.83725
Q1225,2025-06-03 10:00:00,梅店水库,武汉市,黄陂区,31.1831,114.3153,65.1,998.6,27.4,65,23.72884774300041,46.19599999999995
Q1226,2025-06-03 10:00:00,道士冲,武汉市,黄陂区,31.2664,114.2336,106.9,993.7,27.0,67,23.891202896012857,43.48650000000008
Q1227,2025-06-03 10:00:00,姚家老屋,武汉市,黄陂区,31.2417,114.2836,87.3,996.0,26.8,69,24.316493242750933,39.97350000000004
Q1228,2025-06-03 10:00:00,双墩,武汉市,黄陂区,30.8536,114.1789,22.0,1001.9,27.1,67,24.032052463783703,39.79400000000002
Q1229,2025-06-03 10:00:00,红旗,武汉市,黄陂区,30.9553,114.1625,21.6,1001.9,26.6,68,23.683279267560508,43.35649999999997
Q1230,2025-06-03 10:00:00,同兴集,武汉市,黄陂区,31.1272,114.4814,46.7,999.0,28.0,60,22.68601987181785,45.36349999999995
Q1231,2025-06-03 10:00:00,磨盘,武汉市,黄陂区,31.1839,114.4325,61.2,997.4,26.8,62,21.849602623921133,36.424999999999976
Q1232,2025-06-03 10:00:00,吊箭楼,武汉市,黄陂区,31.1419,114.4219,73.8,995.9,26.5,62,21.466552555682583,41.03399999999994
Q1233,2025-06-03 10:00:00,卧虎,武汉市,黄陂区,31.035,114.3906,29.0,1001.1,26.8,63,22.202015569468248,37.0245
Q1234,2025-06-03 10:00:00,院基寺水库,武汉市,黄陂区,31.0972,114.315,48.5,998.8,27.3,65,23.59008223664047,38.97299999999996
Q1235,2025-06-03 10:00:00,彭家冲,武汉市,黄陂区,31.0725,114.2422,86.4,996.9,27.1,63,22.5973030629608,45.11850000000001
Q1236,2025-06-03 10:00:00,红十月水库,武汉市,黄陂区,30.9511,114.4708,49.0,998.9,26.5,58,20.081613681122416,26.5895
Q1237,2025-06-03 10:00:00,北新,武汉市,黄陂区,31.0414,114.3053,60.4,997.5,26.6,65,22.63842871163872,43.31100000000003
Q1238,2025-06-03 10:00:00,余家冲水库,武汉市,黄陂区,31.3386,114.2825,96.0,993.1,28.4,65,25.15622951209602,38.18850000000003
Q1239,2025-06-03 10:00:00,官家砦,武汉市,黄陂区,31.0269,114.1628,34.0,1000.6,27.0,66,23.53461777816192,42.77449999999995
Q1243,2025-06-03 10:00:00,定正,武汉市,黄陂区,30.9133,114.4825,21.0,1001.6,27.0,57,20.325351717503477,28.948500000000003
Q1244,2025-06-03 10:00:00,黄陂石门,武汉市,黄陂区,31.1486,114.3,62.7,997.7,27.3,64,23.227157894538305,39.38249999999998
Q1245,2025-06-03 10:00:00,仁和,武汉市,黄陂区,31.25,114.3386,27.9,1000.5,27.2,65,23.45202660122917,43.08449999999996
Q1246,2025-06-03 10:00:00,帽子村,武汉市,黄陂区,31.1961,114.4222,55.1,998.0,26.7,65,22.77228929130197,36.57350000000004
Q1247,2025-06-03 10:00:00,白庙集,武汉市,黄陂区,30.9967,114.2653,53.0,1000.7,27.2,65,23.45202660122917,40.17599999999998
Q1248,2025-06-03 10:00:00,白龙寺,武汉市,黄陂区,30.9969,114.4553,28.8,1002.3,27.2,65,23.45202660122917,37.835000000000015
Q1250,2025-06-03 10:00:00,童家湖,武汉市,黄陂区,30.7614,114.1772,14.3,1003.1,27.2,63,22.730425782729817,37.74399999999997
Q1251,2025-06-03 10:00:00,艾馆,武汉市,黄陂区,30.9539,114.6003,55.1,997.9,27.1,60,21.52124101234361,48.9635
Q1252,2025-06-03 10:00:00,全华,武汉市,黄陂区,30.8608,114.2969,43.9,999.5,26.9,67,23.75107557035457,40.62100000000005
Q1253,2025-06-03 10:00:00,下店,武汉市,黄陂区,30.9294,114.3856,35.8,1000.4,26.9,66,23.396581905125394,40.2695
Q1254,2025-06-03 10:00:00,黄陂郑店,武汉市,黄陂区,30.9661,114.2142,32.9,1000.3,27.0,73,26.030713603118485,40.23200000000001
Q1255,2025-06-03 10:00:00,茶庙,武汉市,黄陂区,31.2994,114.4211,65.4,996.9,26.8,67,23.611667351656703,31.74000000000001
Q1270,2025-06-03 10:00:00,木兰天池,武汉市,黄陂区,31.1797,114.2817,337.8,969.8,24.0,76,22.67273271661791,40.79899999999997
Q1271,2025-06-03 10:00:00,云雾山,武汉市,黄陂区,31.1264,114.2086,122.0,992.5,25.9,69,23.057164882018743,42.52049999999998
Q1301,2025-06-03 10:00:00,老屋汤,武汉市,江夏区,30.3508,114.4364,20.5,1003.7,26.8,58,20.43995084173267,32.41250000000005
Q1302,2025-06-03 10:00:00,安山,武汉市,江夏区,30.1533,114.2303,42.0,1001.4,26.6,60,20.89701111843574,30.868999999999986
Q1303,2025-06-03 10:00:00,金口,武汉市,江夏区,30.3481,114.1275,27.6,1003.3,27.1,60,21.52124101234361,34.16399999999999
Q1304,2025-06-03 10:00:00,郑店,武汉市,江夏区,30.285,114.2281,32.6,1003.0,27.1,56,20.08649161152071,32.7795
Q1305,2025-06-03 10:00:00,法泗,武汉市,江夏区,30.1131,114.1917,24.0,1003.3,27.3,53,19.23499013141453,30.304500000000026
Q1306,2025-06-03 10:00:00,五里界,武汉市,江夏区,30.3058,114.4239,38.2,1001.9,26.8,61,21.497189678374017,40.6405
Q1307,2025-06-03 10:00:00,山坡,武汉市,江夏区,30.0333,114.3808,40.0,1000.9,27.0,63,22.464862424609105,43.02049999999998
Q1308,2025-06-03 10:00:00,湖泗,武汉市,江夏区,30.0231,114.4622,40.8,1001.4,26.7,68,23.8233180278236,38.57800000000004
Q1309,2025-06-03 10:00:00,舒安,武汉市,江夏区,30.1494,114.5,32.3,1001.9,26.8,62,21.849602623921133,40.32750000000003
Q1310,2025-06-03 10:00:00,乌龙泉,武汉市,江夏区,30.2106,114.3286,35.0,1001.9,26.9,61,21.62411357897953,40.20500000000002
Q1311,2025-06-03 10:00:00,庙山,武汉市,江夏区,30.4372,114.3781,19.7,1003.7,25.4,67,21.733728571228536,35.27250000000002
Q1313,2025-06-03 10:00:00,梁子湖,武汉市,江夏区,30.2603,114.4494,22.8,1003.7,26.4,64,22.028573825677817,37.62149999999996
Q1314,2025-06-03 10:00:00,庙山天玺湾,武汉市,江夏区,30.3864,114.38,22.0,1003.8,26.9,57,20.20613891806284,30.04700000000001
Q1316,2025-06-03 10:00:00,中央大公园,武汉市,江夏区,30.3872,114.3056,26.0,1003.7,27.1,55,19.727804261314983,29.30149999999999
Q1317,2025-06-03 10:00:00,郑店海吉星,武汉市,江夏区,30.3178,114.2592,28.0,1003.5,26.3,63,21.55662903327916,34.001000000000026
Q1318,2025-06-03 10:00:00,五里界锦绣,武汉市,江夏区,30.3278,114.3869,27.0,1001.9,26.8,60,21.1447767328269,30.324500000000004
Q1319,2025-06-03 10:00:00,舒安未来家园,武汉市,江夏区,30.1294,114.4775,35.0,1003.3,26.5,67,23.197726148882797,45.75150000000001
Q1320,2025-06-03 10:00:00,湖泗祝祠,武汉市,江夏区,30.005,114.5111,55.0,1000.7,26.6,63,21.94186167435753,36.9625
Q1321,2025-06-03 10:00:00,舒安嗣孟,武汉市,江夏区,30.0417,114.5383,49.0,1001.4,26.5,67,23.197726148882797,41.48649999999999
Q1322,2025-06-03 10:00:00,乌龙泉茗泉谷,武汉市,江夏区,30.2406,114.3142,66.0,1000.0,26.1,61,20.62681654077157,32.484500000000004
Q1323,2025-06-03 10:00:00,山坡光星,武汉市,江夏区,30.0956,114.3458,24.0,1003.7,26.5,63,21.812787274322627,41.28550000000001
Q1324,2025-06-03 10:00:00,乌龙泉杨湖,武汉市,江夏区,30.2308,114.4347,24.0,1003.8,26.9,62,21.978607244208703,35.5565
Q1325,2025-06-03 10:00:00,金口南岸,武汉市,江夏区,30.2164,114.0742,24.0,1003.8,26.7,61,21.370917642606464,35.00550000000003
Q1326,2025-06-03 10:00:00,金水花篮棚,武汉市,江夏区,30.2019,114.1539,21.0,1003.8,26.8,56,19.735124950638443,29.99099999999999
Q1327,2025-06-03 10:00:00,法泗花莲湖,武汉市,江夏区,30.2031,114.1856,23.0,1003.8,27.2,57,20.565623327231737,28.43700000000004
Q1328,2025-06-03 10:00:00,东湖路学校,武汉市,江夏区,30.3664,114.3228,23.0,1003.7,27.4,54,19.713196586492653,28.83350000000002
Q1329,2025-06-03 10:00:00,金口长江,武汉市,江夏区,30.2903,114.0978,21.1,1003.6,26.7,69,24.173660939997472,45.029000000000096
Q1330,2025-06-03 10:00:00,马蹄口,武汉市,江夏区,30.2444,114.1503,23.7,1003.6,26.4,64,22.028573825677817,37.09399999999997
Q1331,2025-06-03 10:00:00,三门口,武汉市,江夏区,30.2861,114.1775,43.3,1001.2,25.0,71,22.48874899692973,37.62849999999997
Q1332,2025-06-03 10:00:00,塘口,武汉市,江夏区,30.1914,114.4686,20.9,1003.7,26.1,72,24.346406408779565,44.48900000000004
Q1333,2025-06-03 10:00:00,三合,武汉市,江夏区,30.1481,114.36,34.1,1002.3,26.3,63,21.55662903327916,36.03650000000002
Q1334,2025-06-03 10:00:00,乌龙泉五星,武汉市,江夏区,30.1872,114.3167,41.0,1001.5,26.3,67,22.92530389253498,39.58300000000005
Q1335,2025-06-03 10:00:00,邓家洲,武汉市,江夏区,30.0183,114.25,21.7,1003.6,26.3,65,22.24096646290707,39.342000000000006
Q1336,2025-06-03 10:00:00,前途,武汉市,江夏区,30.0481,114.3033,35.5,1002.0,26.4,65,22.37277029170404,39.57199999999997
Q1337,2025-06-03 10:00:00,涂洲,武汉市,江夏区,30.2183,114.2303,28.3,1002.9,26.8,61,21.497189678374017,36.85849999999997
Q1338,2025-06-03 10:00:00,合心,武汉市,江夏区,30.1039,114.2444,31.2,1002.6,26.5,62,21.466552555682583,37.72299999999999
Q1339,2025-06-03 10:00:00,沿湖,武汉市,江夏区,30.1778,114.3586,32.5,1002.4,26.0,70,23.53036084973921,40.167500000000025
Q1340,2025-06-03 10:00:00,长岭,武汉市,江夏区,30.2194,114.3758,21.5,1003.6,26.3,64,21.89879774809312,36.970999999999975
Q1341,2025-06-03 10:00:00,祝庙,武汉市,江夏区,30.1742,114.5003,39.8,1001.5,26.8,64,22.554428515015363,43.159
Q1342,2025-06-03 10:00:00,陈六,武汉市,江夏区,30.0381,114.4119,39.1,1001.7,25.9,74,24.727973931440392,49.78899999999998
Q1343,2025-06-03 10:00:00,金口花园,武汉市,江夏区,30.3275,114.1272,27.9,1003.1,26.6,61,21.24529463707633,35.18499999999995
Q1344,2025-06-03 10:00:00,安山青春,武汉市,江夏区,30.1744,114.2619,26.9,1003.0,26.7,60,21.020574730432585,31.10149999999997
Q1345,2025-06-03 10:00:00,安山英雄,武汉市,江夏区,30.1472,114.3175,41.3,1001.5,26.3,64,21.89879774809312,38.52300000000001
Q1346,2025-06-03 10:00:00,周李家,武汉市,江夏区,30.0914,114.3069,40.7,1001.5,26.4,63,21.6843773596516,37.30199999999997
Q1347,2025-06-03 10:00:00,狮子山,武汉市,江夏区,30.2844,114.3825,35.2,1001.9,25.5,71,23.16866959812979,44.18499999999999
Q1348,2025-06-03 10:00:00,凉亭,武汉市,江夏区,30.3039,114.1303,26.0,1003.6,26.8,57,20.087537896185555,30.24250000000001
Q1349,2025-06-03 10:00:00,金港,武汉市,江夏区,30.3728,114.1886,24.9,1003.5,26.9,57,20.20613891806284,32.217500000000015
Q1350,2025-06-03 10:00:00,山坡东方红,武汉市,江夏区,30.0536,114.2386,22.2,1003.6,26.9,58,20.56063258329201,39.18949999999997
Q1351,2025-06-03 10:00:00,新生,武汉市,江夏区,30.1067,114.4064,42.6,1001.3,26.2,64,21.7696908274262,39.21200000000001
Q1352,2025-06-03 10:00:00,官堤,武汉市,江夏区,30.0669,114.4333,38.5,1001.8,26.7,65,22.77228929130197,43.8855
Q1353,2025-06-03 10:00:00,八分山,武汉市,江夏区,30.3608,114.2928,262.0,976.5,24.6,64,19.792631694115524,38.76649999999994
Q1354,2025-06-03 10:00:00,普生园,武汉市,江夏区,30.4092,114.3656,20.7,1002.5,27.2,58,20.92642373648141,28.41250000000001
Q1401,2025-06-03 10:00:00,东山,武汉市,东西湖区,30.7736,114.0089,20.9,1003.7,27.1,62,22.238615712755067,40.45700000000007
Q1402,2025-06-03 10:00:00,柏泉,武汉市,东西湖区,30.7692,114.1272,33.6,1002.7,26.7,76,26.62606132521461,45.383499999999984
Q1403,2025-06-03 10:00:00,郁金香公园,武汉市,东西湖区,30.7053,114.0806,21.0,1004.0,27.0,66,23.53461777816192,43.84689285714284
Q1404,2025-06-03 10:00:00,走马岭,武汉市,东西湖区,30.6506,114.0136,13.0,1003.4,27.4,61,22.26861095881577,40.07849999999993
Q1405,2025-06-03 10:00:00,辛安渡,武汉市,东西湖区,30.7461,113.9286,31.3,1003.4,26.4,75,25.81473495196619,43.55750000000005
Q1406,2025-06-03 10:00:00,径河,武汉市,东西湖区,30.6808,114.1228,23.0,1003.3,26.9,66,23.396581905125394,39.103416666666696
Q1407,2025-06-03 10:00:00,将军路,武汉市,东西湖区,30.6642,114.2636,16.0,1003.3,26.8,54,19.030299059544213,33.225
Q1408,2025-06-03 10:00:00,杜公湖,武汉市,东西湖区,30.7228,114.145,25.0,1003.6,27.6,59,21.792349572510187,36.93299999999998
Q1410,2025-06-03 10:00:00,新沟,武汉市,东西湖区,30.6897,113.9931,22.0,1003.7,26.4,69,23.749556155808893,43.05399999999998
Q1411,2025-06-03 10:00:00,塔尔头,武汉市,东西湖区,30.6919,114.1892,32.0,1003.6,27.7,56,20.805666544315603,34.91549999999999
Q1412,2025-06-03 10:00:00,金银湖,武汉市,东西湖区,30.6422,114.1814,23.0,1003.6,27.3,55,19.960838815618857,31.688000000000034
Q1413,2025-06-03 10:00:00,红星合作社,武汉市,东西湖区,30.7642,113.9464,32.0,1003.6,26.5,74,25.62136917936309,45.97749999999999
Q1501,2025-06-03 10:00:00,成功闸,武汉市,蔡甸区,30.3908,113.7656,21.0,1003.5,27.1,61,21.879928362549343,36.470999999999975
Q1502,2025-06-03 10:00:00,大集,武汉市,蔡甸区,30.5081,114.0531,30.0,1002.8,27.0,61,21.751692188907228,37.68450000000002
Q1503,2025-06-03 10:00:00,索河,武汉市,蔡甸区,30.5236,113.8964,41.3,1001.8,27.0,59,21.03852195320535,35.498499999999964
Q1504,2025-06-03 10:00:00,桐湖农场,武汉市,蔡甸区,30.3917,113.9786,35.0,1003.6,27.2,61,22.008824964230456,38.204999999999984
Q1506,2025-06-03 10:00:00,消泗,武汉市,蔡甸区,30.3169,113.7728,27.0,1003.9,27.2,62,22.369625373480137,37.80949999999995
Q1507,2025-06-03 10:00:00,永安,武汉市,蔡甸区,30.4617,113.9281,48.6,1000.9,26.7,67,23.47297511564972,50.6099999999999
Q1509,2025-06-03 10:00:00,奓山,武汉市,蔡甸区,30.4297,114.0436,31.3,1002.5,27.4,61,22.26861095881577,42.37599999999996
Q1510,2025-06-03 10:00:00,侏儒,武汉市,蔡甸区,30.4525,113.8792,26.5,1003.4,27.2,64,23.09122619197949,34.24450000000005
Q1512,2025-06-03 10:00:00,沉湖湿地,武汉市,蔡甸区,30.3242,113.8619,25.0,1003.3,26.7,63,22.071603466954212,34.336
Q1513,2025-06-03 10:00:00,千子山,武汉市,蔡甸区,30.4078,114.0333,37.2,1001.9,26.7,64,22.42194637912809,38.432499999999976
Q1514,2025-06-03 10:00:00,九真山,武汉市,蔡甸区,30.4839,113.9544,122.0,992.5,25.0,77,24.38920665864209,54.15849999999998
Q1515,2025-06-03 10:00:00,绿茵园,武汉市,蔡甸区,30.4467,114.0142,27.3,1003.1,27.2,61,22.008824964230456,34.848500000000016
Q1516,2025-06-03 10:00:00,时光农场,武汉市,蔡甸区,30.4086,113.8017,21.5,1003.8,27.6,62,22.900435143993757,36.6895
Q1517,2025-06-03 10:00:00,农耕园,武汉市,蔡甸区,30.4275,113.9525,22.7,1003.7,27.4,62,22.63367015486193,43.13799999999996
Q1518,2025-06-03 10:00:00,花博汇,武汉市,蔡甸区,30.4956,114.0656,32.4,1003.9,27.4,62,22.63367015486193,43.62149999999999
Q1519,2025-06-03 10:00:00,鸽翅岭,武汉市,蔡甸区,30.5394,113.9619,32.0,1002.5,27.4,62,22.63367015486193,42.85649999999996
Q1520,2025-06-03 10:00:00,景秀大地,武汉市,蔡甸区,30.4989,113.9781,22.3,1003.7,27.0,62,22.108277306758165,41.1695
Q1521,2025-06-03 10:00:00,七沟,武汉市,蔡甸区,30.4289,113.7733,23.2,1003.6,26.9,65,23.042088239896223,37.83887500000001
Q1522,2025-06-03 10:00:00,香草花田,武汉市,蔡甸区,30.5133,113.8858,27.1,1003.0,27.2,65,23.45202660122917,35.03500000000001
Q1523,2025-06-03 10:00:00,金龙水寨,武汉市,蔡甸区,30.54,113.9247,22.2,1003.6,26.7,68,23.8233180278236,41.91474999999995
Q1524,2025-06-03 10:00:00,谢八家,武汉市,蔡甸区,30.6244,113.9264,24.8,1003.3,27.1,64,22.95599041316652,35.813000000000024
Q1525,2025-06-03 10:00:00,蔡甸野生动物王国,武汉市,蔡甸区,30.5567,113.9353,23.3,1003.5,27.0,67,23.891202896012857,42.21324999999998
Q1526,2025-06-03 10:00:00,长江大学,武汉市,蔡甸区,30.5292,114.0256,21.5,1003.8,27.1,62,22.238615712755067,41.23799999999992
Q1527,2025-06-03 10:00:00,蔡甸汉江堤防,武汉市,蔡甸区,30.6311,113.9797,26.1,1003.2,27.8,59,22.0488176746362,33.113
Q1528,2025-06-03 10:00:00,后官湖湿地公园,武汉市,蔡甸区,30.5306,114.0786,24.3,1003.5,26.9,63,22.33310090943788,44.30099999999997
Q1529,2025-06-03 10:00:00,张家大湖,武汉市,蔡甸区,30.3156,113.8164,23.3,1003.8,26.9,65,23.042088239896223,39.12054166666668
Q1599,2025-06-03 10:00:00,孙家畈,武汉市,蔡甸区,30.5664,114.0289,17.8,1003.3,27.1,60,21.52124101234361,35.37550000000001
Q1701,2025-06-03 10:00:00,藏龙岛,武汉市,江夏区,30.4017,114.4189,30.0,1003.1,25.4,56,18.16550447744475,31.949999999999974
Q1702,2025-06-03 10:00:00,东湖高新射击场,武汉市,洪山区,30.5039,114.4608,40.0,1002.1,26.0,45,15.126660546260926,23.61900000000004
Q1703,2025-06-03 10:00:00,武汉欢乐谷,武汉市,洪山区,30.5972,114.3886,30.0,1003.7,27.8,42,15.695768514147804,29.671500000000016
Q1704,2025-06-03 10:00:00,东湖湖心亭,武汉市,武昌区,30.57,114.39,30.0,1003.6,26.6,52,18.110742969310973,30.58449999999995
Q1706,2025-06-03 10:00:00,青山沙排中心,武汉市,青山区,30.6508,114.3919,30.0,1003.3,27.2,50,18.04002046248398,28.072500000000023
Q1707,2025-06-03 10:00:00,驿山高尔夫,武汉市,洪山区,30.5,114.5006,50.0,999.5,24.9,52,16.372588581056206,25.69050000000002
Q1708,2025-06-03 10:00:00,华科,武汉市,武昌区,30.5094,114.4117,40.0,1002.2,27.1,44,15.782243409051985,28.872500000000024
Q1709,2025-06-03 10:00:00,省奥体中心,武汉市,市辖区,30.4739,114.4547,40.0,1001.0,27.9,42,15.787755839002298,29.41000000000003
Q1710,2025-06-03 10:00:00,洪山体育馆,武汉市,武昌区,30.5489,114.3281,30.0,1002.1,27.8,47,17.564312384879685,28.49450000000004
Q1711,2025-06-03 10:00:00,武汉体育学院,武汉市,洪山区,30.5219,114.3725,30.0,1003.2,27.6,36,13.297026857802823,21.87550000000001
Q1712,2025-06-03 10:00:00,武大,武汉市,武昌区,30.5383,114.3511,30.0,1003.3,27.8,36,13.453515869269546,21.11749999999998
Q1713,2025-06-03 10:00:00,武汉软件职院,武汉市,市辖区,30.4508,114.4231,30.0,1002.4,27.2,43,15.51441759773622,28.258000000000006
Q1714,2025-06-03 10:00:00,武汉理工大学,武汉市,洪山区,30.5058,114.325,30.0,1003.7,27.8,47,17.564312384879685,29.25400000000001
Q1715,2025-06-03 10:00:00,武汉城市职院,武汉市,洪山区,30.4414,114.3086,20.0,1003.8,27.3,58,21.049611841925337,30.51400000000001
Q1716,2025-06-03 10:00:00,武汉体育中心,武汉市,汉南区,30.5061,114.1683,30.0,1003.7,27.8,51,19.05914748146519,32.726499999999994
Q1717,2025-06-03 10:00:00,武汉商学院,武汉市,汉南区,30.4664,114.08,30.0,1003.7,27.4,56,20.44331497858497,35.483999999999995
Q1718,2025-06-03 10:00:00,江汉大学,武汉市,汉南区,30.5208,114.1497,30.0,1003.7,27.2,63,22.730425782729817,42.22699999999997
Q1720,2025-06-03 10:00:00,全民健身中心,武汉市,江岸区,30.6472,114.2831,30.0,1004.0,28.6,45,17.6196026078297,28.552
Q1721,2025-06-03 10:00:00,汉口文体中心,武汉市,江汉区,30.6028,114.2636,30.0,1003.8,27.9,50,18.79494742738369,31.880500000000016
Q1722,2025-06-03 10:00:00,汉阳沙排中心,武汉市,汉阳区,30.5017,114.2308,30.0,1003.1,27.0,56,19.96876659965254,33.43599999999994
Q1723,2025-06-03 10:00:00,军山,武汉市,汉南区,30.3978,114.1156,40.0,1001.6,26.9,57,20.20613891806284,39.23799999999992
Q1724,2025-06-03 10:00:00,蔡甸国防园,武汉市,蔡甸区,30.4764,113.9647,60.0,1000.5,27.0,57,20.325351717503477,38.09899999999994
Q1725,2025-06-03 10:00:00,海工大木兰校区,武汉市,黄陂区,31.1183,114.4642,50.0,1000.2,27.0,64,22.82144754246004,42.03746666666668
Q1726,2025-06-03 10:00:00,体育中心,武汉市,东西湖区,30.6378,114.1269,20.0,1002.9,27.4,51,18.61801899835417,28.71999999999996
Q1727,2025-06-03 10:00:00,东湖帆船基地,武汉市,武昌区,30.5425,114.3689,30.0,1003.9,25.7,59,19.482990736199877,30.399499999999996
Q1728,2025-06-03 10:00:00,雷神山,武汉市,江夏区,30.4408,114.2756,20.0,1003.7,27.2,60,21.648024554980772,31.951499999999992
Q1729,2025-06-03 10:00:00,桂子米业,武汉市,江夏区,30.1603,114.1839,47.0,1001.2,26.4,66,22.71696675773025,42.18300000000006
Q1745,2025-06-03 10:00:00,中法生态城,武汉市,蔡甸区,30.5631,114.07,22.1,1003.3,27.2,61,22.008824964230456,35.56249999999999
Q1753,2025-06-03 10:00:00,高新大道,武汉市,市辖区,30.4872,114.4561,50.0,1000.3,26.0,58,19.49658470406964,30.77550000000001
Q1754,2025-06-03 10:00:00,天兴洲大桥,武汉市,洪山区,30.6575,114.4003,60.0,998.5,28.3,38,14.621344126802384,20.77449999999997
Q1755,2025-06-03 10:00:00,知音桥,武汉市,硚口区,30.5811,114.2161,35.0,1002.4,27.8,54,20.18027380390432,34.80499999999999
Q1756,2025-06-03 10:00:00,晴川桥,武汉市,硚口区,30.5656,114.2783,15.0,1001.7,27.6,53,19.57617842954305,30.667499999999947
Q1759,2025-06-03 10:00:00,长江二桥,武汉市,江岸区,30.6036,114.3217,20.0,1000.0,27.8,41,15.322059740001423,25.829
Q1760,2025-06-03 10:00:00,二七长江大桥,武汉市,江岸区,30.6294,114.3394,25.0,999.5,28.2,33,12.623718200435,19.210999999999974
Q1761,2025-06-03 10:00:00,杨泗港长江大桥,武汉市,汉阳区,30.5069,114.2625,30.0,998.9,26.6,53,18.45902648795157,34.26900000000001
Q1762,2025-06-03 10:00:00,鹦鹉洲大桥,武汉市,汉阳区,30.5339,114.2764,40.0,999.8,26.7,52,18.21783143304157,30.499000000000013
Q1763,2025-06-03 10:00:00,古田桥,武汉市,硚口区,30.5872,114.1797,25.0,1001.7,27.4,50,18.25295980230801,37.17000000000005
Q1764,2025-06-03 10:00:00,月湖桥,武汉市,硚口区,30.5644,114.2483,35.0,1002.2,27.3,52,18.872065789312373,31.45250000000002
Q1766,2025-06-03 10:00:00,青化立交,武汉市,洪山区,30.6058,114.43,20.0,1002.2,28.2,41,15.684013521752574,21.39650000000001
Q1767,2025-06-03 10:00:00,欢乐大道,武汉市,市辖区,30.6017,114.41,22.0,1002.5,28.0,40,15.12401324787857,25.769000000000005
Q1768,2025-06-03 10:00:00,姑嫂树立交,武汉市,东西湖区,30.6386,114.2514,26.0,1001.9,28.7,41,16.146945158009174,29.273999999999983
Q1769,2025-06-03 10:00:00,楚康路出口,武汉市,洪山区,30.5097,114.3594,18.0,1002.1,27.8,43,16.069477288294177,27.394
Q1770,2025-06-03 10:00:00,长丰大道,武汉市,硚口区,30.6083,114.2083,22.0,1002.4,27.6,49,18.09873100089829,30.68099999999996
Q1771,2025-06-03 10:00:00,雄楚大道光谷大道入口,武汉市,洪山区,30.4992,114.4108,27.0,1000.0,28.5,35,13.6246974288779,16.870999999999977
Q1773,2025-06-03 10:00:00,野芷湖立交线,武汉市,洪山区,30.4556,114.3156,6.0,1003.8,27.7,56,20.805666544315603,28.097000000000055
Q1775,2025-06-03 10:00:00,汪家咀立交,武汉市,汉阳区,30.5186,114.1814,17.0,1002.1,28.2,53,20.27445650372894,35.572999999999986
Q1779,2025-06-03 10:00:00,青菱立交,武汉市,洪山区,30.4628,114.2886,13.0,1002.9,26.9,57,20.20613891806284,31.560999999999996
Q2004,2025-06-03 10:00:00,红卫,十堰市,张湾区,32.6525,110.7253,336.4,967.8,27.6,46,16.990645429414723,30.40149999999996
Q2022,2025-06-03 10:00:00,小川,十堰市,茅箭区,32.4628,110.7172,643.8,935.5,25.0,56,17.737604842648796,27.343499999999977
Q2023,2025-06-03 10:00:00,黄龙,十堰市,张湾区,32.6861,110.5586,186.4,983.9,28.6,56,21.92661657863252,38.485500000000044
Q2031,2025-06-03 10:00:00,紫霄宫,十堰市,丹江口市,32.4253,111.0228,851.0,913.4,22.6,85,23.30007677486053,38.82950000000007
Q2032,2025-06-03 10:00:00,八仙观,十堰市,丹江口市,32.4308,111.0567,588.0,943.5,25.0,70,22.17200605331099,42.276000000000025
Q2033,2025-06-03 10:00:00,太子坡,十堰市,丹江口市,32.4489,111.0708,558.0,944.9,24.3,77,23.388717285860277,39.84050000000001
Q2034,2025-06-03 10:00:00,元和观,十堰市,丹江口市,32.4978,111.0942,396.0,961.1,26.0,63,21.1773247647653,35.78450000000003
Q2050,2025-06-03 10:00:00,火车站小学,十堰市,茅箭区,32.6017,110.7742,310.0,971.7,28.3,49,18.853838479297814,27.51699999999998
Q2204,2025-06-03 10:00:00,习家店,十堰市,丹江口市,32.7708,111.1592,253.1,977.1,27.8,54,20.18027380390432,37.15174999999997
Q2205,2025-06-03 10:00:00,石鼓,十堰市,丹江口市,32.7553,111.3811,297.0,972.5,27.3,55,19.960838815618857,33.3335
Q2206,2025-06-03 10:00:00,丁家营,十堰市,丹江口市,32.4447,111.2453,186.0,985.0,27.8,67,25.03848786780721,46.113000000000014
Q2236,2025-06-03 10:00:00,蒿口新村,十堰市,丹江口市,32.5219,111.0364,179.1,985.5,28.0,63,23.820320865408743,40.535499999999935
Q2261,2025-06-03 10:00:00,马鞍山,十堰市,丹江口市,32.3306,111.1797,503.1,950.6,26.2,64,21.7696908274262,31.719999999999978
Q2266,2025-06-03 10:00:00,大坝街道,十堰市,丹江口市,32.5486,111.5125,133.4,990.5,28.6,50,19.57733623092189,34.2055
Q2309,2025-06-03 10:00:00,茶店,十堰市,郧阳区,32.7992,110.8847,212.2,981.8,27.9,57,21.426240067217403,40.58450000000004
Q2324,2025-06-03 10:00:00,安阳,十堰市,郧阳区,32.8525,111.0044,221.0,979.8,27.8,66,24.664779093660837,47.287499999999966
Q2326,2025-06-03 10:00:00,五峰,十堰市,郧阳区,32.8278,110.3708,193.5,984.1,27.3,59,21.4125361840275,40.363499999999945
Q2334,2025-06-03 10:00:00,塘上,十堰市,郧阳区,33.0756,110.735,834.7,914.4,24.7,47,14.622451031889604,23.67049999999999
Q2350,2025-06-03 10:00:00,韩家沟,十堰市,郧阳区,32.8653,110.6186,244.8,978.9,26.9,64,22.68759457466705,41.99199999999999
Q2353,2025-06-03 10:00:00,毛河,十堰市,郧阳区,32.5125,110.4669,537.4,946.7,24.6,66,20.411151434556636,34.653999999999975
Q2401,2025-06-03 10:00:00,上津,十堰市,郧西县,33.0742,110.0211,273.4,974.9,27.3,60,21.77546052612966,43.41050000000001
Q2402,2025-06-03 10:00:00,马安,十堰市,郧西县,33.0053,110.2311,374.2,964.5,24.8,65,20.34381911004052,38.29750000000007
Q2403,2025-06-03 10:00:00,土门,十堰市,郧西县,33.0589,110.3233,364.3,965.2,26.0,70,23.53036084973921,47.01800000000001
Q2405,2025-06-03 10:00:00,六郎,十堰市,郧西县,32.9978,110.0711,264.9,973.2,26.3,68,23.26747260734894,45.52149999999994
Q2409,2025-06-03 10:00:00,三官,十堰市,郧西县,33.1683,110.5619,838.1,913.9,22.2,66,17.656747115027823,33.79599999999998
Q2411,2025-06-03 10:00:00,槐树,十堰市,郧西县,33.2025,109.9003,794.0,919.2,24.3,66,20.047471959308805,36.14550000000005
Q2423,2025-06-03 10:00:00,河夹,十堰市,郧西县,32.9303,110.5283,273.0,972.7,27.8,53,19.80656502975794,34.39049999999993
Q2424,2025-06-03 10:00:00,湖北口,十堰市,郧西县,33.1942,109.575,890.6,909.1,24.2,50,15.096600571586952,22.24100000000002
Q2433,2025-06-03 10:00:00,包耳场,十堰市,郧西县,33.1864,109.75,640.0,935.4,24.6,56,17.318552732351087,32.75449999999999
Q2502,2025-06-03 10:00:00,土城,十堰市,房县,32.2775,110.6972,669.3,932.5,25.2,67,21.476417986197223,33.271499999999946
Q2503,2025-06-03 10:00:00,沙河,十堰市,房县,32.1378,111.0931,843.6,914.1,23.2,65,18.477781282573837,31.722
Q2504,2025-06-03 10:00:00,卧牛观,十堰市,房县,32.2108,110.9142,711.4,927.9,25.0,65,20.588291335217352,35.259500000000024
Q2505,2025-06-03 10:00:00,门古寺,十堰市,房县,32.0058,110.4417,624.2,938.1,24.2,72,21.739104823085214,53.17399999999998
Q2507,2025-06-03 10:00:00,军店,十堰市,房县,32.0336,110.6253,495.7,951.4,24.6,66,20.411151434556636,32.883500000000026
Q2509,2025-06-03 10:00:00,中坝,十堰市,房县,32.0064,110.28,795.4,919.2,23.0,70,19.65967782131166,57.85099999999997
Q2524,2025-06-03 10:00:00,三里坪,十堰市,房县,31.9419,110.9697,415.0,960.1,24.9,73,22.98459550802121,46.6145
Q2528,2025-06-03 10:00:00,白鹤,十堰市,房县,32.0997,110.7728,464.5,954.7,26.1,57,19.274238406950488,35.6825
Q2530,2025-06-03 10:00:00,汪家河,十堰市,房县,32.1044,110.5331,563.7,944.2,25.5,59,19.25283811675574,35.098
Q2532,2025-06-03 10:00:00,对寺河,十堰市,房县,32.3347,110.3903,265.0,977.7,26.5,68,23.54396086752284,50.00499999999998
Q2541,2025-06-03 10:00:00,三座庵,十堰市,房县,31.8828,110.5647,991.9,900.5,22.3,80,21.532906153388183,41.12500000000002
Q2546,2025-06-03 10:00:00,南潭,十堰市,房县,31.9833,110.7353,737.0,925.6,22.2,82,21.93717065806487,39.65700000000002
Q2548,2025-06-03 10:00:00,白鸡,十堰市,房县,32.2303,110.7133,592.3,940.7,25.0,64,20.271548391598625,35.548999999999985
Q2559,2025-06-03 10:00:00,东蒿,十堰市,房县,31.8842,110.7753,1359.0,861.6,19.5,82,18.57722174715196,38.54599999999997
Q2605,2025-06-03 10:00:00,柳林,十堰市,竹山县,31.7169,110.0508,523.7,949.1,23.2,78,22.1733375390886,36.59700000000009
Q2623,2025-06-03 10:00:00,秦古,十堰市,竹山县,32.4331,109.82,580.3,942.2,25.5,65,21.210753857442764,40.82099999999996
Q2624,2025-06-03 10:00:00,擂鼓,十堰市,竹山县,32.3533,109.9286,513.9,949.4,25.9,62,20.71803221282844,41.18549999999996
Q2626,2025-06-03 10:00:00,溢水,十堰市,竹山县,32.2786,110.0842,508.8,950.0,25.1,68,21.667403638432614,40.739000000000026
Q2628,2025-06-03 10:00:00,深河,十堰市,竹山县,32.1117,110.2306,361.0,966.6,26.0,72,24.20265687401748,38.67200000000003
Q2655,2025-06-03 10:00:00,潘口,十堰市,竹山县,32.23,110.1844,273.8,975.8,27.1,60,21.52124101234361,46.03600000000003
Q2676,2025-06-03 10:00:00,北大街,十堰市,竹山县,32.2256,110.2261,307.0,972.2,27.3,56,20.323763157721014,38.75499999999994
Q2701,2025-06-03 10:00:00,龙坝,十堰市,竹溪县,32.3569,109.6453,563.6,943.7,26.3,55,18.819279314767524,39.20949999999996
Q2721,2025-06-03 10:00:00,泉溪,十堰市,竹溪县,32.0428,109.6986,849.5,913.7,22.8,71,19.700202848186567,57.20099999999999
Q2745,2025-06-03 10:00:00,界牌沟,十堰市,竹溪县,32.1683,109.5989,655.4,935.2,23.6,77,22.42434599801801,54.87300000000001
Q2748,2025-06-03 10:00:00,天宝,十堰市,竹溪县,31.9983,109.7814,498.9,949.9,23.1,81,22.88723959153109,39.79850000000002
Q2757,2025-06-03 10:00:00,高子河,十堰市,竹溪县,31.8119,109.7686,1063.6,892.4,20.2,85,20.111584392578404,57.75600000000003
Q2903,2025-06-03 10:00:00,新华,省直辖县级行政区划,神农架林区,31.5953,110.8861,716.7,927.8,23.6,66,19.220867998301152,35.401000000000025
Q2906,2025-06-03 10:00:00,徐家庄,省直辖县级行政区划,神农架林区,31.5622,110.5533,1398.1,858.0,17.5,81,16.18853273119903,26.08699999999997
Q2910,2025-06-03 10:00:00,木鱼,省直辖县级行政区划,神农架林区,31.4828,110.3786,1245.0,871.7,19.9,70,16.25753232190989,25.577499999999983
Q2912,2025-06-03 10:00:00,神农架机场,省直辖县级行政区划,神农架林区,31.6119,110.3383,2597.4,744.7,10.8,44,5.695691387783275,9.599999999999998
Q2916,2025-06-03 10:00:00,板桥,省直辖县级行政区划,神农架林区,31.4089,110.1781,1026.6,895.8,20.0,88,20.5651346859767,35.585000000000015
Q2923,2025-06-03 10:00:00,牛场坪,省直辖县级行政区划,神农架林区,31.5508,110.3911,2285.0,772.7,12.3,66,9.434665073004709,16.62999999999998
Q2925,2025-06-03 10:00:00,九冲,省直辖县级行政区划,神农架林区,31.4083,110.5553,699.8,930.0,21.5,82,21.018581645086574,36.01800000000002
Q2933,2025-06-03 10:00:00,大九湖,省直辖县级行政区划,神农架林区,31.4958,109.9953,1752.0,823.8,16.3,63,11.667934733042555,22.787000000000013
Q2940,2025-06-03 10:00:00,红花,省直辖县级行政区划,神农架林区,31.3992,110.475,819.5,917.3,20.8,80,19.64282417435245,33.779
Q2950,2025-06-03 10:00:00,阳日,省直辖县级行政区划,神农架林区,31.7328,110.8061,498.0,951.1,24.0,72,21.47943099469065,36.74400000000005
Q2957,2025-06-03 10:00:00,青天袍,省直辖县级行政区划,神农架林区,31.5144,110.3881,1569.0,843.2,18.4,64,13.536467485115503,24.46800000000003
Q3005,2025-06-03 10:00:00,隆中,襄阳市,襄城区,31.9889,112.0322,107.3,994.0,26.1,69,23.33197280841375,38.43400000000009
Q3008,2025-06-03 10:00:00,襄阳老站,襄阳市,襄城区,32.0283,112.1664,68.6,998.4,28.6,42,16.444962433974386,28.1915
Q3012,2025-06-03 10:00:00,刘集小学,襄阳市,襄州区,32.1517,112.2992,70.1,997.8,28.5,53,20.63168467801511,40.53549999999996
Q3100,2025-06-03 10:00:00,东津,襄阳市,襄州区,32.0631,112.2203,69.7,997.9,28.6,56,21.92661657863252,38.83899999999998
Q3101,2025-06-03 10:00:00,朱集,襄阳市,襄州区,32.2967,112.3483,79.0,997.3,28.0,46,17.392615235060354,36.19549999999998
Q3103,2025-06-03 10:00:00,峪山,襄阳市,襄州区,31.9919,112.3706,93.0,996.4,28.6,48,18.79424278168501,34.976500000000016
Q3104,2025-06-03 10:00:00,龙王,襄阳市,襄州区,32.2089,111.9589,86.0,994.7,29.3,53,21.611307833561217,38.79950000000001
Q3106,2025-06-03 10:00:00,黄龙,襄阳市,襄州区,31.9858,112.4556,84.6,993.9,28.6,54,21.143523129395643,34.81800000000001
Q3107,2025-06-03 10:00:00,石桥,襄阳市,襄州区,32.3633,111.9611,110.7,993.3,30.0,38,16.133186682878094,28.055
Q3108,2025-06-03 10:00:00,程河,襄阳市,襄州区,32.2664,112.4508,114.6,993.9,29.1,43,17.331978104143882,32.34949999999999
Q3109,2025-06-03 10:00:00,伙牌,襄阳市,襄州区,32.1878,112.1847,108.3,993.5,29.9,38,16.040620801848508,28.6285
Q3112,2025-06-03 10:00:00,张湾,襄阳市,襄州区,32.0886,112.1903,65.4,998.3,29.5,40,16.499975967423218,29.72499999999999
Q3113,2025-06-03 10:00:00,黄集,襄阳市,襄州区,32.3253,112.1328,142.2,989.9,29.3,40,16.310421006461297,27.637500000000003
Q3202,2025-06-03 10:00:00,枣阳吴店,襄阳市,枣阳市,31.9703,112.75,167.5,986.9,27.3,55,19.960838815618857,30.85000000000004
Q3203,2025-06-03 10:00:00,七方,襄阳市,枣阳市,32.2017,112.5589,131.0,990.8,29.3,41,16.718181531622825,31.099500000000017
Q3206,2025-06-03 10:00:00,枣阳新市,襄阳市,枣阳市,32.3414,112.9942,241.1,978.4,29.4,32,13.123967548853992,21.47499999999996
Q3207,2025-06-03 10:00:00,刘升榆树,襄阳市,枣阳市,32.12,112.8781,156.0,987.6,28.9,48,19.1244093107672,27.61200000000002
Q3212,2025-06-03 10:00:00,琚湾,襄阳市,枣阳市,32.0417,112.5906,72.0,995.8,28.3,56,21.54724397634036,39.315500000000064
Q3217,2025-06-03 10:00:00,姚棚水库,襄阳市,枣阳市,32.3253,112.8719,177.3,985.5,29.5,46,18.9749723625367,32.231999999999985
Q3218,2025-06-03 10:00:00,唐店,襄阳市,枣阳市,31.8503,112.8028,140.0,989.7,27.7,62,23.03484510263513,36.833999999999925
Q3237,2025-06-03 10:00:00,王城,襄阳市,枣阳市,31.9519,112.9217,115.0,992.6,29.0,56,22.44151565275426,41.70049999999999
Q3240,2025-06-03 10:00:00,北城,襄阳市,枣阳市,32.1411,112.7553,125.5,991.5,29.0,48,19.23558484521793,29.995999999999984
Q3305,2025-06-03 10:00:00,老河口半店,襄阳市,老河口市,32.4536,111.7536,153.1,987.8,28.6,50,19.57733623092189,25.436
Q3309,2025-06-03 10:00:00,方营,襄阳市,老河口市,32.3367,111.7022,90.0,995.8,28.6,60,23.492803477106268,43.05300000000005
Q3311,2025-06-03 10:00:00,老河口黄营,襄阳市,老河口市,32.3472,111.6742,80.3,996.1,27.8,70,26.159614190246337,49.11199999999999
Q3314,2025-06-03 10:00:00,农垦示范园,襄阳市,老河口市,32.4319,111.8458,148.3,989.0,29.3,41,16.718181531622825,22.06249999999998
Q3315,2025-06-03 10:00:00,老河口黑虎山水库,襄阳市,老河口市,32.5408,111.6622,163.3,987.0,29.0,47,18.83484349427589,27.82000000000001
Q3317,2025-06-03 10:00:00,古城水库,襄阳市,老河口市,32.5203,111.7786,145.2,989.0,29.0,46,18.434102143333853,25.701999999999984
Q3318,2025-06-03 10:00:00,老河口西关,襄阳市,老河口市,32.4217,111.6878,84.4,995.0,27.9,63,23.681633758503448,44.79900000000002
Q3321,2025-06-03 10:00:00,老河口老站,襄阳市,老河口市,32.38,111.67,90.0,995.5,29.2,51,20.67585727380065,34.27399999999999
Q3326,2025-06-03 10:00:00,白鹤岗,襄阳市,老河口市,32.2931,111.7247,89.0,995.8,28.1,52,19.77627446775925,38.97499999999995
Q3401,2025-06-03 10:00:00,五山,襄阳市,谷城县,32.2931,111.3314,180.0,986.2,27.9,64,24.05753270705112,39.67500000000003
Q3404,2025-06-03 10:00:00,谷城南河,襄阳市,谷城县,32.1678,111.4981,146.4,989.0,28.4,61,23.608153849813185,43.619000000000014
Q3405,2025-06-03 10:00:00,赵湾,襄阳市,谷城县,31.9917,111.4303,518.0,948.9,24.9,71,22.354880562595973,40.14799999999997
Q3409,2025-06-03 10:00:00,薤山,襄阳市,谷城县,32.1725,111.4061,701.7,928.8,24.3,72,21.86996941015506,32.23549999999996
Q3413,2025-06-03 10:00:00,茨河,襄阳市,谷城县,32.0483,111.8314,158.0,987.7,27.1,63,22.5973030629608,33.822499999999984
Q3420,2025-06-03 10:00:00,紫金,襄阳市,谷城县,32.1342,111.3078,247.7,975.4,27.9,63,23.681633758503448,47.016500000000015
Q3501,2025-06-03 10:00:00,寺坪,襄阳市,保康县,31.9906,111.1233,275.0,975.4,26.7,69,24.173660939997472,49.54449999999998
Q3516,2025-06-03 10:00:00,两峪,襄阳市,保康县,31.5581,111.3953,660.0,932.7,25.5,58,18.926518826641235,33.051
Q3517,2025-06-03 10:00:00,歇马毛家岭,襄阳市,保康县,31.6419,111.1967,796.0,918.1,24.8,49,15.33610979064593,25.71349999999997
Q3520,2025-06-03 10:00:00,保康天宝寨,襄阳市,保康县,31.4017,111.2936,997.0,898.5,23.2,67,19.04632839896072,33.757000000000005
Q3525,2025-06-03 10:00:00,马良产业园,襄阳市,保康县,31.4942,111.3539,292.0,973.8,26.6,87,30.300666121731822,52.12399999999998
Q3545,2025-06-03 10:00:00,尧治河,襄阳市,保康县,31.8447,110.8022,1576.0,840.5,18.6,65,13.92140579632716,24.707499999999985
Q3555,2025-06-03 10:00:00,团结,襄阳市,保康县,31.68,111.0128,1064.0,889.0,22.1,66,17.549421517812743,29.862
Q3606,2025-06-03 10:00:00,武镇,襄阳市,南漳县,31.6647,111.9922,120.0,992.7,26.7,68,23.8233180278236,42.22900000000002
Q3608,2025-06-03 10:00:00,东巩,襄阳市,南漳县,31.3292,111.8253,183.0,982.0,26.1,75,25.360840009145377,51.78949999999996
Q3617,2025-06-03 10:00:00,薛坪,襄阳市,南漳县,31.6231,111.6778,820.0,917.0,23.2,70,19.899149073541047,35.17200000000001
Q3618,2025-06-03 10:00:00,长坪,襄阳市,南漳县,31.7775,111.5617,254.0,979.2,24.2,78,23.55069689167565,55.5445000000001
Q3623,2025-06-03 10:00:00,南漳大坪,襄阳市,南漳县,31.5489,111.8342,343.2,967.6,25.4,75,24.328800639434924,51.13549999999999
Q3632,2025-06-03 10:00:00,赵店,襄阳市,南漳县,31.9058,111.6194,271.6,975.3,26.3,69,23.60964132216289,56.30150000000008
Q3641,2025-06-03 10:00:00,漫云,襄阳市,南漳县,31.4556,111.6847,342.0,967.4,26.6,65,22.63842871163872,39.18650000000005
Q3748,2025-06-03 10:00:00,高楼,襄阳市,宜城市,31.6356,112.5942,141.0,990.2,26.9,64,22.68759457466705,24.523499999999995
Q3750,2025-06-03 10:00:00,孔湾,襄阳市,宜城市,31.5681,112.2661,55.0,1000.0,27.6,61,22.53107328683257,37.442999999999934
Q3751,2025-06-03 10:00:00,二库,襄阳市,宜城市,31.7467,112.4303,89.0,995.6,27.6,55,20.314902143865428,29.918000000000028
Q3752,2025-06-03 10:00:00,小南河,襄阳市,宜城市,31.4622,111.9878,177.5,986.2,26.1,73,24.68455094223484,48.81850000000004
Q3760,2025-06-03 10:00:00,刘猴,襄阳市,宜城市,31.4853,112.0169,159.0,988.8,27.1,72,25.82548921481234,52.28350000000001
Q3770,2025-06-03 10:00:00,谭湾,襄阳市,宜城市,31.7736,112.0389,94.0,994.9,28.5,52,20.2424076086186,28.946999999999992
Q3782,2025-06-03 10:00:00,联合,襄阳市,宜城市,31.8692,112.2653,86.0,996.1,28.0,64,24.19842119660571,41.53800000000003
Q3792,2025-06-03 10:00:00,流水,襄阳市,宜城市,31.5683,112.455,62.0,999.8,26.4,70,24.093752621835108,45.317000000000014
Q3802,2025-06-03 10:00:00,殷店,随州市,随县,32.0808,113.5014,145.6,988.9,28.0,58,21.92981920942392,39.689
Q3803,2025-06-03 10:00:00,洪山,随州市,随县,31.6611,112.9072,154.4,988.6,28.1,59,22.43846526149607,40.54849999999997
Q3804,2025-06-03 10:00:00,柳林,随州市,随县,31.5336,113.2278,120.0,992.1,28.1,62,23.579404173097565,41.75599999999994
Q3805,2025-06-03 10:00:00,唐镇,随州市,随县,32.0003,113.105,127.7,991.7,28.1,62,23.579404173097565,43.134999999999984
Q3807,2025-06-03 10:00:00,厉山,随州市,随县,31.8839,113.3125,92.0,995.9,28.2,60,22.952214909881818,39.62850000000004
Q3809,2025-06-03 10:00:00,淮河,随州市,随县,32.3436,113.6333,153.8,988.1,28.8,58,22.975002757981517,38.49099999999999
Q3812,2025-06-03 10:00:00,万店,随州市,曾都区,31.8386,113.5169,115.0,992.4,29.2,57,23.108311070718376,41.779
Q3815,2025-06-03 10:00:00,澴潭,随州市,随县,31.8106,113.0514,115.3,992.8,28.2,64,24.482362570540605,39.67349999999997
Q3820,2025-06-03 10:00:00,吴山,随州市,随县,32.1531,113.0822,215.4,981.6,29.4,43,17.63533139377255,26.22800000000002
Q3823,2025-06-03 10:00:00,南郊,随州市,曾都区,31.7278,113.2831,64.1,998.5,28.1,62,23.579404173097565,38.74149999999997
Q3829,2025-06-03 10:00:00,大堰坡,随州市,曾都区,31.61,113.4317,85.0,996.9,28.6,67,26.233630549435333,44.54399999999999
Q3830,2025-06-03 10:00:00,长岗,随州市,随县,31.53,112.9711,228.2,980.4,26.3,77,26.34699104067453,51.658500000000025
Q3831,2025-06-03 10:00:00,雷达站,随州市,曾都区,31.7164,113.3869,96.2,995.0,29.0,54,21.64003295087017,36.94100000000004
Q3832,2025-06-03 10:00:00,府河,随州市,曾都区,31.4911,113.5678,65.8,998.4,28.0,65,24.57652152780268,47.56499999999998
Q3836,2025-06-03 10:00:00,新城,随州市,随县,32.3561,113.1931,215.4,981.4,26.6,61,21.24529463707633,43.5365
Q3844,2025-06-03 10:00:00,东庄畈,随州市,随县,31.5131,113.0106,274.3,975.3,25.9,68,22.72300307213442,39.618
Q3845,2025-06-03 10:00:00,城南新区,随州市,曾都区,31.6922,113.3744,78.4,996.9,29.4,58,23.787191182297857,42.36050000000001
Q3847,2025-06-03 10:00:00,金顶,随州市,随县,31.4867,112.9781,1042.0,892.8,21.0,28,6.960139582975363,12.441499999999992
Q3852,2025-06-03 10:00:00,王家河,随州市,随县,31.9353,113.3081,122.2,992.0,27.8,65,24.29107031951446,37.44800000000003
Q3853,2025-06-03 10:00:00,银杏谷,随州市,曾都区,31.4347,113.2972,175.7,985.7,27.2,69,24.89522823822789,43.150499999999965
Q3854,2025-06-03 10:00:00,自在谷,随州市,随县,31.4703,112.9844,467.3,954.2,22.3,58,15.611356961206427,23.037999999999972
Q3855,2025-06-03 10:00:00,状元台,随州市,随县,31.4778,112.9647,981.1,899.7,21.9,27,7.0921982102641925,12.310499999999998
Q3856,2025-06-03 10:00:00,北郊,随州市,曾都区,31.7839,113.3958,105.4,993.9,28.1,63,23.9597171436314,38.29050000000002
Q3857,2025-06-03 10:00:00,西城,随州市,曾都区,31.7206,113.3617,64.5,998.4,28.4,60,23.221134934242475,38.73499999999996
Q3901,2025-06-03 10:00:00,余店,随州市,广水市,31.7872,113.6322,109.6,993.2,28.2,63,24.09982565537591,35.350000000000016
Q3902,2025-06-03 10:00:00,长岭,随州市,广水市,31.4711,113.5781,47.3,1000.4,27.8,70,26.159614190246337,48.56083333333334
Q3909,2025-06-03 10:00:00,蔡河,随州市,广水市,31.7264,113.8322,120.0,992.5,28.5,62,24.135178302583714,39.77000000000001
Q3911,2025-06-03 10:00:00,太平,随州市,广水市,31.4608,113.9217,46.4,998.7,28.0,65,24.57652152780268,38.84749999999996
Q3913,2025-06-03 10:00:00,武胜关,随州市,广水市,31.7358,114.0353,100.0,993.6,27.7,66,24.520964141514817,37.61800000000003
Q3918,2025-06-03 10:00:00,应山,随州市,广水市,31.62,113.82,93.3,995.1,28.5,55,21.410238816808132,36.70500000000003
Q3924,2025-06-03 10:00:00,尹家湾,随州市,广水市,32.0019,113.7164,203.6,982.6,25.5,68,22.18971172778628,44.18349999999999
Q4000,2025-06-03 10:00:00,葛洲坝,宜昌市,西陵区,30.7433,111.2694,67.8,998.8,26.2,73,24.831053600033,40.69000000000005
Q4001,2025-06-03 10:00:00,王家河公园,宜昌市,伍家岗区,30.6589,111.3303,56.3,1000.6,27.6,54,19.94554028670424,37.77349999999995
Q4002,2025-06-03 10:00:00,窑湾,宜昌市,西陵区,30.7186,111.3436,160.0,987.1,27.2,61,22.008824964230456,46.91249999999989
Q4003,2025-06-03 10:00:00,猇亭,宜昌市,猇亭区,30.5061,111.4444,42.6,1001.1,27.6,53,19.57617842954305,34.99699999999994
Q4005,2025-06-03 10:00:00,土城,宜昌市,点军区,30.6931,111.0022,615.0,938.5,23.7,83,24.317862201110948,43.66150000000004
Q4015,2025-06-03 10:00:00,白龙岗公园,宜昌市,西陵区,30.7067,111.2972,116.6,991.8,28.1,54,20.536900408826916,35.24600000000001
Q4019,2025-06-03 10:00:00,艾家小学,宜昌市,点军区,30.6183,111.3422,87.0,996.7,28.2,53,20.27445650372894,35.3585
Q4022,2025-06-03 10:00:00,猇亭古战场,宜昌市,猇亭区,30.5697,111.3964,78.5,997.6,28.3,58,22.316788404066795,43.69099999999993
Q4023,2025-06-03 10:00:00,长岭,宜昌市,点军区,30.6519,111.205,100.0,995.0,27.8,70,26.159614190246337,51.0139999999999
Q4025,2025-06-03 10:00:00,鸣翠谷,宜昌市,点军区,30.7389,111.2333,98.8,995.3,25.6,81,26.5894379792575,42.44000000000002
Q4026,2025-06-03 10:00:00,沙河公园,宜昌市,西陵区,30.7417,111.3144,86.3,996.8,27.6,70,25.855330001283267,54.59699999999992
Q4032,2025-06-03 10:00:00,宜昌一中,宜昌市,点军区,30.7086,111.2361,78.9,997.5,28.0,63,23.820320865408743,32.66750000000005
Q4033,2025-06-03 10:00:00,水井湾,宜昌市,伍家岗区,30.6853,111.3367,84.3,997.0,26.2,76,25.85150785756861,47.16049999999999
Q4034,2025-06-03 10:00:00,龙盘湖,宜昌市,伍家岗区,30.6161,111.4,62.5,999.4,27.0,72,25.67412848526755,50.02099999999995
Q4035,2025-06-03 10:00:00,碧桂园公园,宜昌市,伍家岗区,30.6478,111.3658,88.6,996.5,28.0,55,20.795518215833035,35.20550000000003
Q4036,2025-06-03 10:00:00,夷陵中学,宜昌市,夷陵区,30.6967,111.3817,113.0,993.8,26.3,63,21.55662903327916,32.35349999999997
Q4037,2025-06-03 10:00:00,李家咀,宜昌市,点军区,30.7214,111.1625,389.1,963.1,25.8,71,23.58519758677957,52.27999999999998
Q4105,2025-06-03 10:00:00,太平溪,宜昌市,夷陵区,30.8789,110.9697,215.0,982.5,25.3,73,23.539490738951837,49.81699999999994
Q4109,2025-06-03 10:00:00,樟村坪林场,宜昌市,夷陵区,31.2667,111.15,1162.0,882.9,18.8,78,16.916106174914557,33.2085
Q4111,2025-06-03 10:00:00,鸦鹊岭,宜昌市,夷陵区,30.6117,111.5211,109.2,994.2,27.5,57,20.930686056135357,31.53099999999998
Q4112,2025-06-03 10:00:00,王家垭,宜昌市,夷陵区,30.9667,110.9878,990.0,899.8,20.8,77,18.906218267814232,27.05349999999997
Q4113,2025-06-03 10:00:00,古村坪,宜昌市,夷陵区,30.9228,110.9672,855.0,913.1,21.9,59,15.497766459466195,28.04250000000001
Q4115,2025-06-03 10:00:00,百里荒,宜昌市,夷陵区,30.96,111.5114,1251.8,871.7,19.5,43,9.74171384301871,16.058500000000002
Q4120,2025-06-03 10:00:00,秀水,宜昌市,夷陵区,31.1456,111.0747,1068.2,890.9,21.0,69,17.151772543760714,30.669999999999973
Q4127,2025-06-03 10:00:00,十字沟,宜昌市,夷陵区,31.0511,111.4406,402.0,962.1,24.2,71,21.437172811653475,43.436000000000014
Q4131,2025-06-03 10:00:00,二户坪,宜昌市,夷陵区,31.0117,111.3114,945.0,905.3,21.9,50,13.133700389378133,23.62650000000001
Q4140,2025-06-03 10:00:00,三峡大瀑布,宜昌市,夷陵区,30.9325,111.3158,169.1,985.4,23.9,84,24.90905160269692,46.71849999999998
Q4146,2025-06-03 10:00:00,沙坪,宜昌市,夷陵区,30.9192,111.0428,403.0,961.9,24.5,70,21.518942323240005,40.7265
Q4148,2025-06-03 10:00:00,黄金河,宜昌市,夷陵区,31.0078,110.9369,705.9,929.1,23.2,73,20.75196974812138,40.85400000000005
Q4150,2025-06-03 10:00:00,古村,宜昌市,夷陵区,31.4353,111.2158,1098.9,887.9,21.8,67,17.49194168642184,28.55
Q4153,2025-06-03 10:00:00,马卧泥,宜昌市,夷陵区,31.2117,111.2406,1073.1,890.7,21.2,62,15.602331629614769,28.525500000000008
Q4154,2025-06-03 10:00:00,青龙,宜昌市,夷陵区,30.7428,111.5075,108.8,994.2,27.0,59,21.03852195320535,32.07099999999997
Q4201,2025-06-03 10:00:00,傅家堰,宜昌市,五峰土家族自治县,30.3053,110.4817,705.3,927.8,23.5,71,20.552620725213757,35.9325
Q4202,2025-06-03 10:00:00,长乐坪,宜昌市,五峰土家族自治县,30.1778,110.8722,1004.1,897.9,22.0,55,14.535556818291354,23.20300000000001
Q4203,2025-06-03 10:00:00,湾潭,宜昌市,五峰土家族自治县,30.0528,110.4344,1139.2,881.8,22.2,56,14.981482400629671,20.026999999999955
Q4204,2025-06-03 10:00:00,仁和坪,宜昌市,五峰土家族自治县,30.1022,111.2453,591.9,941.2,24.3,57,17.31372578303942,32.677
Q4205,2025-06-03 10:00:00,牛庄,宜昌市,五峰土家族自治县,30.2381,110.3611,1830.5,815.5,16.3,47,8.704649721476192,16.936499999999995
Q4206,2025-06-03 10:00:00,采花,宜昌市,五峰土家族自治县,30.2056,110.445,506.8,950.5,24.1,75,22.509298300763422,41.98600000000005
Q4207,2025-06-03 10:00:00,渔关,宜昌市,五峰土家族自治县,30.1831,111.075,255.1,977.6,27.9,47,17.667250581740667,32.98600000000003
Q4208,2025-06-03 10:00:00,清水湾,宜昌市,五峰土家族自治县,30.0797,110.9669,853.1,912.6,23.2,57,16.203592817026284,30.900000000000052
Q4209,2025-06-03 10:00:00,后河,宜昌市,五峰土家族自治县,30.0789,110.6214,952.7,903.2,18.7,79,17.026128073214267,30.544
Q4210,2025-06-03 10:00:00,水浕司,宜昌市,五峰土家族自治县,30.2494,110.6283,564.8,944.1,25.2,65,20.83533088213164,27.7995
Q4213,2025-06-03 10:00:00,北风垭,宜昌市,五峰土家族自治县,30.14,110.5681,2213.7,779.3,12.6,61,8.893435768153322,17.366500000000045
Q4214,2025-06-03 10:00:00,涨水坪,宜昌市,五峰土家族自治县,30.2553,111.02,737.6,925.9,22.6,60,16.44711301754861,30.451000000000032
Q4215,2025-06-03 10:00:00,三教庙,宜昌市,五峰土家族自治县,30.2011,110.9022,1031.0,894.1,21.9,57,14.97241844389107,25.1835
Q4218,2025-06-03 10:00:00,大龙坪,宜昌市,五峰土家族自治县,30.3589,110.4706,1157.3,882.2,21.6,54,13.926539229278175,24.83299999999999
Q4238,2025-06-03 10:00:00,万里,宜昌市,五峰土家族自治县,30.1997,110.4069,1174.1,880.4,21.5,57,14.610477484999205,21.41949999999997
Q4249,2025-06-03 10:00:00,柴埠溪,宜昌市,五峰土家族自治县,30.2219,110.8947,1259.0,872.3,19.2,59,13.119132138460134,26.0105
Q4252,2025-06-03 10:00:00,万马池,宜昌市,五峰土家族自治县,30.2056,110.665,619.4,938.3,25.8,56,18.602409364220517,31.12350000000001
Q4309,2025-06-03 10:00:00,胡家畈,宜昌市,枝江市,30.5808,111.6733,125.7,991.7,27.4,63,22.998729350908093,46.64350000000002
Q4321,2025-06-03 10:00:00,雅畈,宜昌市,枝江市,30.3967,111.5886,68.0,998.8,27.8,56,20.927691352197076,36.3175
Q4323,2025-06-03 10:00:00,马家店,宜昌市,枝江市,30.43,111.7592,44.5,1001.6,28.3,50,19.238610693161032,31.55249999999995
Q4325,2025-06-03 10:00:00,万福垴,宜昌市,枝江市,30.4386,111.4522,55.9,1000.2,28.8,51,20.20215759753547,35.06649999999999
Q4326,2025-06-03 10:00:00,田家河,宜昌市,枝江市,30.3369,111.5311,57.0,1000.1,29.5,47,19.38747176172228,27.853000000000016
Q4327,2025-06-03 10:00:00,姚家港工业园,宜昌市,枝江市,30.4011,111.6131,87.7,996.6,28.0,46,17.392615235060354,19.93599999999999
Q4401,2025-06-03 10:00:00,社坪,宜昌市,长阳土家族自治县,30.63,110.5428,506.0,950.1,23.9,72,21.3506156594545,38.9115
Q4403,2025-06-03 10:00:00,渔峡口,宜昌市,长阳土家族自治县,30.4286,110.4992,380.0,965.0,25.8,68,22.588639942267765,40.93949999999998
Q4404,2025-06-03 10:00:00,高家堰,宜昌市,长阳土家族自治县,30.6069,111.0583,167.0,987.7,25.4,80,25.950720682063924,39.34099999999999
Q4406,2025-06-03 10:00:00,大堰,宜昌市,长阳土家族自治县,30.3353,111.0731,631.0,936.8,24.7,61,18.97807474351629,35.278499999999944
Q4411,2025-06-03 10:00:00,横山,宜昌市,长阳土家族自治县,30.3692,110.9569,473.0,953.7,23.8,66,19.45393755469638,36.904999999999966
Q4415,2025-06-03 10:00:00,火烧坪,宜昌市,长阳土家族自治县,30.4944,110.7997,1546.9,843.2,17.4,47,9.33418046575417,15.64849999999999
Q4425,2025-06-03 10:00:00,榔坪,宜昌市,长阳土家族自治县,30.6219,110.4972,490.0,954.0,23.7,80,23.438903326372,42.40899999999998
Q4437,2025-06-03 10:00:00,中岭,宜昌市,长阳土家族自治县,30.6211,110.8139,1055.0,892.8,20.0,73,17.059714000867036,32.40199999999999
Q4441,2025-06-03 10:00:00,龙池山,宜昌市,长阳土家族自治县,30.5814,111.0614,680.0,931.3,23.8,68,20.04345081392961,30.419000000000004
Q4443,2025-06-03 10:00:00,清江画廊,宜昌市,长阳土家族自治县,30.4703,111.1336,190.3,985.2,26.6,59,20.548727599795143,33.36049999999998
Q4446,2025-06-03 10:00:00,三洞水,宜昌市,长阳土家族自治县,30.3936,111.1128,220.0,983.2,27.4,63,22.998729350908093,37.04900000000001
Q4447,2025-06-03 10:00:00,都镇湾,宜昌市,长阳土家族自治县,30.4117,110.97,290.0,975.3,27.1,62,22.238615712755067,40.93799999999996
Q4453,2025-06-03 10:00:00,崩尖子,宜昌市,长阳土家族自治县,30.3731,110.7244,283.3,974.8,24.4,82,25.057290303459048,51.882999999999896
Q4510,2025-06-03 10:00:00,九道河,宜昌市,宜都市,30.1967,111.4717,199.8,984.2,27.7,58,21.54872606375544,43.85050000000008
Q4519,2025-06-03 10:00:00,陆城,宜昌市,宜都市,30.3839,111.4547,74.1,998.3,29.3,41,16.718181531622825,33.164000000000044
Q4604,2025-06-03 10:00:00,草埠湖,宜昌市,当阳市,30.5725,111.9686,74.0,1000.1,27.5,59,21.665096093192737,38.803
Q4606,2025-06-03 10:00:00,王店,宜昌市,当阳市,30.7075,111.675,158.6,988.2,26.7,68,23.8233180278236,44.48400000000001
Q4610,2025-06-03 10:00:00,红旗岗,宜昌市,当阳市,31.0844,111.9219,102.3,992.5,26.7,70,24.524003852171347,44.821
Q4611,2025-06-03 10:00:00,淯溪光明,宜昌市,当阳市,30.9275,111.9269,58.0,1000.1,25.9,76,25.396297551209056,51.61649999999999
Q4612,2025-06-03 10:00:00,向家草坝,宜昌市,当阳市,30.9167,111.685,96.0,995.7,25.9,70,23.391326691903075,44.7675
Q4614,2025-06-03 10:00:00,长坂雄风,宜昌市,当阳市,30.8369,111.7611,70.0,998.6,27.5,60,22.032301111721427,39.743
Q4701,2025-06-03 10:00:00,嫘祖,宜昌市,远安县,31.1906,111.4081,553.8,945.2,24.7,66,20.53365464052583,37.21050000000002
Q4708,2025-06-03 10:00:00,茅坪场,宜昌市,远安县,31.1481,111.6794,179.8,985.6,24.6,76,23.503750136762186,50.35400000000004
Q4709,2025-06-03 10:00:00,洋坪,宜昌市,远安县,31.2208,111.5594,152.4,989.7,26.2,70,23.8105993424974,45.92499999999992
Q4710,2025-06-03 10:00:00,晓坪水库,宜昌市,远安县,31.1881,111.7553,391.9,962.7,23.1,75,21.19188851067693,43.749000000000045
Q4718,2025-06-03 10:00:00,芭芒店,宜昌市,远安县,31.2361,111.5361,186.0,983.6,26.7,61,21.370917642606464,34.525000000000034
Q4801,2025-06-03 10:00:00,高桥,宜昌市,兴山县,31.2092,110.53,992.5,898.8,19.6,72,16.413451009270595,31.448000000000057
Q4802,2025-06-03 10:00:00,昭君,宜昌市,兴山县,31.2261,110.7697,286.0,975.2,24.1,76,22.80942227810694,34.963375000000035
Q4804,2025-06-03 10:00:00,峡口,宜昌市,兴山县,31.1192,110.7786,266.0,978.3,25.0,70,22.17200605331099,36.69400000000002
Q4806,2025-06-03 10:00:00,榛子,宜昌市,兴山县,31.5008,111.0083,1281.0,869.1,19.7,68,15.598209947522788,24.26350000000001
Q4808,2025-06-03 10:00:00,南对河,宜昌市,兴山县,31.1778,111.0017,644.1,936.1,21.6,84,21.663505467766047,33.59949999999994
Q4818,2025-06-03 10:00:00,观音河,宜昌市,兴山县,31.5183,110.8078,498.7,954.3,23.4,73,21.0043648984714,36.93800000000006
Q4837,2025-06-03 10:00:00,和平,宜昌市,兴山县,31.4728,110.9975,1301.6,868.0,20.6,64,15.521719956136106,23.24100000000001
Q4901,2025-06-03 10:00:00,彭家坡,宜昌市,秭归县,31.0306,110.6972,190.3,984.5,24.9,70,22.040023089883352,50.01199999999998
Q4902,2025-06-03 10:00:00,郭家坝,宜昌市,秭归县,30.9564,110.7569,351.0,968.7,23.7,74,21.6809855768941,37.86399999999998
Q4903,2025-06-03 10:00:00,两河口,宜昌市,秭归县,30.8722,110.5756,620.5,938.5,23.2,77,21.889063980895155,38.97649999999997
Q4905,2025-06-03 10:00:00,杨林桥,宜昌市,秭归县,30.7458,110.7553,421.8,960.6,24.4,80,24.446136881423467,48.53949999999997
Q4909,2025-06-03 10:00:00,沙镇溪,宜昌市,秭归县,30.9614,110.6022,420.0,960.7,23.5,73,21.13156778789583,39.47600000000009
Q4911,2025-06-03 10:00:00,九畹溪,宜昌市,秭归县,30.8442,110.7836,499.0,952.0,23.4,82,23.593944132529515,51.59700000000004
Q4918,2025-06-03 10:00:00,金缸城,宜昌市,秭归县,30.8361,110.9464,547.7,945.7,23.1,74,20.90932999720124,40.28950000000007
Q4920,2025-06-03 10:00:00,烟墩堡,宜昌市,秭归县,30.9039,110.7792,918.0,906.8,20.3,80,19.045988848380915,28.23899999999996
Q4921,2025-06-03 10:00:00,芝兰,宜昌市,秭归县,30.7814,110.7939,271.1,976.6,25.8,67,22.256454060763826,41.33699999999997
Q4932,2025-06-03 10:00:00,九岭头,宜昌市,秭归县,30.9803,110.8039,1385.0,859.5,17.0,94,18.201558949757207,43.47700000000003
Q4941,2025-06-03 10:00:00,高潮,宜昌市,秭归县,30.9881,110.4783,753.0,925.9,21.6,80,20.631909969301,35.98950000000007
Q4945,2025-06-03 10:00:00,七甲,宜昌市,秭归县,30.7944,110.4961,1330.0,865.1,18.9,75,16.367486343623387,32.02400000000002
Q4950,2025-06-03 10:00:00,雁落坪,宜昌市,秭归县,30.8117,110.3497,985.0,899.6,21.3,75,18.99000169066708,36.72800000000003
Q4957,2025-06-03 10:00:00,三台寺,宜昌市,秭归县,30.6814,110.7139,1085.0,890.7,20.5,70,16.87243762277529,34.5645
Q4962,2025-06-03 10:00:00,吴家沟,宜昌市,秭归县,30.9811,110.7606,209.2,981.7,24.5,70,21.518942323240005,49.33342500000003
Q5102,2025-06-03 10:00:00,白杨坪,恩施土家族苗族自治州,恩施市,30.4808,109.5828,638.9,936.2,23.9,81,24.01944261688632,46.713
Q5106,2025-06-03 10:00:00,三岔,恩施土家族苗族自治州,恩施市,30.2978,109.6278,1054.7,892.7,21.1,74,18.508089670582255,37.036725000000025
Q5109,2025-06-03 10:00:00,芭蕉,恩施土家族苗族自治州,恩施市,30.1222,109.3956,599.8,940.5,24.6,67,20.720411304777187,39.60550000000005
Q5116,2025-06-03 10:00:00,金龙坝,恩施土家族苗族自治州,恩施市,30.0906,109.1692,881.0,911.6,22.3,76,20.456260845718774,38.088
Q5122,2025-06-03 10:00:00,望城坡,恩施土家族苗族自治州,恩施市,30.3303,109.4231,1113.0,886.8,20.8,69,16.941935850378986,29.94400000000004
Q5133,2025-06-03 10:00:00,小卫家山,恩施土家族苗族自治州,恩施市,30.3539,109.6558,1312.4,867.2,19.9,66,15.32853047494361,31.06799999999997
Q5135,2025-06-03 10:00:00,神堂,恩施土家族苗族自治州,恩施市,30.3583,109.8217,1567.0,841.7,18.0,67,13.819313134084984,25.444000000000003
Q5150,2025-06-03 10:00:00,大峡谷顶,恩施土家族苗族自治州,恩施市,30.4167,109.1628,1615.0,834.7,17.0,61,11.811649956757336,20.58200000000001
Q5153,2025-06-03 10:00:00,马者滑坡点,恩施土家族苗族自治州,恩施市,30.3733,109.3019,946.0,905.1,23.0,67,18.817120200398307,37.20775000000004
Q5206,2025-06-03 10:00:00,宜影古镇,恩施土家族苗族自治州,利川市,30.3353,109.1053,1025.3,896.7,22.2,71,18.994379472226903,33.70899999999998
Q5207,2025-06-03 10:00:00,元堡,恩施土家族苗族自治州,利川市,30.2233,109.0339,1088.3,887.7,20.3,73,17.379464824147583,30.60249999999997
Q5208,2025-06-03 10:00:00,黄泥塘,恩施土家族苗族自治州,利川市,30.0775,108.8592,1469.7,856.0,19.2,66,14.675639341328289,26.988499999999974
Q5209,2025-06-03 10:00:00,龙桥,恩施土家族苗族自治州,利川市,29.9294,108.7097,474.0,953.9,23.4,85,24.45713721054889,47.701
Q5211,2025-06-03 10:00:00,建南,恩施土家族苗族自治州,利川市,30.4353,108.5392,676.0,932.7,23.1,82,23.16979810500678,43.922225000000026
Q5214,2025-06-03 10:00:00,南坪,恩施土家族苗族自治州,利川市,30.43,108.7925,1129.0,885.3,20.8,73,17.92407705909661,30.051000000000023
Q5222,2025-06-03 10:00:00,凉雾,恩施土家族苗族自治州,利川市,30.2664,108.805,1092.5,887.6,22.0,67,17.706951033191284,30.6945
Q5226,2025-06-03 10:00:00,利川团堡,恩施土家族苗族自治州,利川市,30.3353,109.1494,986.8,899.1,21.9,76,19.96322459185476,38.65899999999999
Q5241,2025-06-03 10:00:00,小河,恩施土家族苗族自治州,利川市,30.0786,108.6025,1074.0,891.6,20.5,76,18.31864656187032,32.771000000000015
Q5249,2025-06-03 10:00:00,铁峰,恩施土家族苗族自治州,利川市,30.4533,108.6578,1558.5,841.7,16.0,90,16.352377587920913,31.386499999999952
Q5250,2025-06-03 10:00:00,药材,恩施土家族苗族自治州,利川市,30.4922,108.7469,1406.0,855.3,17.3,96,18.94538042620303,37.08749999999997
Q5301,2025-06-03 10:00:00,黄金洞,恩施土家族苗族自治州,咸丰县,29.9539,109.0781,788.1,919.5,21.8,85,22.191269303669497,41.12100000000005
Q5307,2025-06-03 10:00:00,朝阳寺,恩施土家族苗族自治州,咸丰县,29.6125,108.9175,468.0,954.9,24.7,79,24.57816237275061,47.01799999999993
Q5309,2025-06-03 10:00:00,坪坝营,恩施土家族苗族自治州,咸丰县,29.3997,108.9803,1268.8,870.9,18.8,75,16.26548670664861,25.272999999999964
Q5310,2025-06-03 10:00:00,茅坝,恩施土家族苗族自治州,咸丰县,29.7658,108.8233,723.6,927.3,22.8,83,23.029814597175847,42.81099999999993
Q5326,2025-06-03 10:00:00,李子溪,恩施土家族苗族自治州,咸丰县,29.8839,108.9089,832.0,916.4,21.7,82,21.277528789774795,42.70799999999998
Q5327,2025-06-03 10:00:00,中心场,恩施土家族苗族自治州,咸丰县,29.9194,108.9083,847.0,914.7,20.5,88,21.21106444006037,48.67300000000001
Q5330,2025-06-03 10:00:00,八家台,恩施土家族苗族自治州,咸丰县,29.8736,108.8114,869.0,909.9,22.3,81,21.80206748030553,41.07549999999996
Q5338,2025-06-03 10:00:00,柏杨坪,恩施土家族苗族自治州,咸丰县,29.8175,109.0397,872.4,909.1,22.8,69,19.145267556688356,30.84500000000001
Q5409,2025-06-03 10:00:00,翔凤,恩施土家族苗族自治州,来凤县,29.4669,109.4019,458.0,956.0,26.0,68,22.85806482546096,35.8365
Q5421,2025-06-03 10:00:00,兴隆坳,恩施土家族苗族自治州,来凤县,29.3261,109.2883,602.0,938.3,24.3,76,23.08496771071923,47.39999999999996
Q5422,2025-06-03 10:00:00,沙坝水库,恩施土家族苗族自治州,来凤县,29.4094,109.3228,512.0,949.6,25.1,71,22.62331850483405,35.02500000000008
Q5508,2025-06-03 10:00:00,沙道,恩施土家族苗族自治州,宣恩县,29.6986,109.5653,589.0,941.2,24.4,74,22.612676615316705,43.05699999999997
Q5509,2025-06-03 10:00:00,椿木营,恩施土家族苗族自治州,宣恩县,30.0575,109.8269,1681.0,830.0,17.0,74,14.328886832787587,23.641000000000005
Q5515,2025-06-03 10:00:00,中间河,恩施土家族苗族自治州,宣恩县,30.1294,109.6347,664.8,933.3,23.9,77,22.83329730247217,45.56500000000001
Q5516,2025-06-03 10:00:00,长潭北,恩施土家族苗族自治州,宣恩县,30.0081,109.5883,490.9,952.0,23.8,83,24.464800258178784,47.848999999999975
Q5517,2025-06-03 10:00:00,荆竹坪,恩施土家族苗族自治州,宣恩县,29.96,109.3461,1134.7,884.4,19.6,79,18.009203190727458,31.1565
Q5530,2025-06-03 10:00:00,洗草坝,恩施土家族苗族自治州,宣恩县,29.9867,109.3608,743.4,925.3,20.7,88,21.474377895515502,41.95500000000001
Q5532,2025-06-03 10:00:00,金盆村,恩施土家族苗族自治州,宣恩县,29.8356,109.6717,655.8,934.4,23.2,86,24.447526004636146,56.7455
Q5539,2025-06-03 10:00:00,竹园,恩施土家族苗族自治州,宣恩县,29.9019,109.26,1180.2,880.3,19.7,80,18.35083523237975,32.91099999999999
Q5543,2025-06-03 10:00:00,彭家寨,恩施土家族苗族自治州,宣恩县,29.6717,109.6153,582.9,941.3,23.3,87,24.8818012359029,48.95149999999998
Q5601,2025-06-03 10:00:00,江坪河,恩施土家族苗族自治州,鹤峰县,29.7383,110.3472,467.0,953.7,23.2,77,21.889063980895155,42.41549999999996
Q5603,2025-06-03 10:00:00,蛤蟆颈,恩施土家族苗族自治州,鹤峰县,30.0658,110.2706,1382.0,857.5,19.5,65,14.725846506888749,21.237500000000008
Q5605,2025-06-03 10:00:00,清湖,恩施土家族苗族自治州,鹤峰县,30.0139,110.2697,1300.0,865.5,20.3,55,13.09411733326188,23.57049999999999
Q5610,2025-06-03 10:00:00,五里,恩施土家族苗族自治州,鹤峰县,29.8969,110.3406,1142.0,884.2,21.3,63,15.951601420160353,28.786500000000025
Q5620,2025-06-03 10:00:00,堰塘,恩施土家族苗族自治州,鹤峰县,29.8628,109.8564,1175.0,880.1,19.8,86,19.85000828608092,37.77449999999999
Q5621,2025-06-03 10:00:00,云蒙,恩施土家族苗族自治州,鹤峰县,30.0564,110.0675,1011.3,896.5,18.4,92,19.458672009853537,38.66149999999994
Q5626,2025-06-03 10:00:00,龚家垭,恩施土家族苗族自治州,鹤峰县,30.1083,110.1294,1215.7,876.0,20.0,75,17.527103425548322,36.42975000000001
Q5628,2025-06-03 10:00:00,马家,恩施土家族苗族自治州,鹤峰县,29.7681,110.5636,509.0,948.1,24.0,77,22.971058147099725,44.456
Q5629,2025-06-03 10:00:00,细杉,恩施土家族苗族自治州,鹤峰县,29.8014,110.6133,673.7,931.9,21.8,84,21.93019554715574,40.75750000000004
Q5630,2025-06-03 10:00:00,堰垭,恩施土家族苗族自治州,鹤峰县,29.7203,110.2667,912.3,907.0,22.2,80,21.402117715185245,32.226000000000035
Q5632,2025-06-03 10:00:00,上六峰,恩施土家族苗族自治州,鹤峰县,29.9206,110.4636,1194.0,878.0,18.7,85,18.319251724344465,33.16799999999997
Q5633,2025-06-03 10:00:00,中坪,恩施土家族苗族自治州,鹤峰县,29.9917,110.4858,1137.0,881.7,18.9,73,15.931020041126764,26.458500000000004
Q5634,2025-06-03 10:00:00,水泉,恩施土家族苗族自治州,鹤峰县,29.9133,110.2561,606.5,938.9,24.0,81,24.164359869026985,48.770000000000046
Q5706,2025-06-03 10:00:00,溪丘湾,恩施土家族苗族自治州,巴东县,31.1572,110.4386,741.0,925.0,21.5,85,21.78755414429706,39.45940000000003
Q5707,2025-06-03 10:00:00,大支坪,恩施土家族苗族自治州,巴东县,30.6875,110.1708,1411.0,856.6,18.7,55,11.853633468693475,24.121
Q5708,2025-06-03 10:00:00,朱砂土,恩施土家族苗族自治州,巴东县,30.8936,110.3064,1166.0,879.8,19.5,80,18.12411877770923,33.412500000000016
Q5709,2025-06-03 10:00:00,玉米塘,恩施土家族苗族自治州,巴东县,30.6925,110.2486,1570.6,839.1,17.2,61,11.962269641800203,24.596000000000004
Q5710,2025-06-03 10:00:00,茅山岭,恩施土家族苗族自治州,巴东县,31.2233,110.2003,942.7,902.4,20.1,100,23.514683799663736,48.01849999999997
Q5712,2025-06-03 10:00:00,税家,恩施土家族苗族自治州,巴东县,30.9331,110.2219,1150.3,883.3,18.8,82,17.783598799269146,32.348499999999994
Q5720,2025-06-03 10:00:00,高家坡,恩施土家族苗族自治州,巴东县,31.1225,110.4797,735.0,926.0,21.9,84,22.064616654155262,42.16700000000006
Q5730,2025-06-03 10:00:00,麻沙坪,恩施土家族苗族自治州,巴东县,30.7125,110.4111,1234.0,873.2,19.9,67,15.56078093668518,28.087
Q5732,2025-06-03 10:00:00,庙坪,恩施土家族苗族自治州,巴东县,30.6672,110.2142,1261.9,870.5,18.6,71,15.206458639065051,25.195500000000024
Q5736,2025-06-03 10:00:00,倒卜龙,恩施土家族苗族自治州,巴东县,30.4069,110.1308,950.0,902.2,22.0,52,13.742708264566373,25.2955
Q5751,2025-06-03 10:00:00,绿葱坡滑雪场,恩施土家族苗族自治州,巴东县,30.8117,110.2419,1663.0,830.9,17.1,58,11.302155863764844,21.53849999999999
Q5802,2025-06-03 10:00:00,茅田,恩施土家族苗族自治州,建始县,30.8097,109.8839,1364.3,861.1,17.6,84,16.89443944101863,33.53949999999992
Q5804,2025-06-03 10:00:00,高坪,恩施土家族苗族自治州,建始县,30.5989,110.0597,1239.1,870.8,19.9,52,12.077024010561631,26.188000000000034
Q5819,2025-06-03 10:00:00,封竹,恩施土家族苗族自治州,建始县,30.8222,109.9811,1731.3,825.0,14.9,79,13.375554865153184,28.049000000000014
Q5823,2025-06-03 10:00:00,石垭子,恩施土家族苗族自治州,建始县,30.6128,110.0208,777.3,920.7,22.8,65,18.035396973691928,32.355
Q5824,2025-06-03 10:00:00,落水洞,恩施土家族苗族自治州,建始县,30.5825,109.9603,917.0,905.1,21.1,71,17.75776171096406,31.28199999999999
Q5827,2025-06-03 10:00:00,冷竹,恩施土家族苗族自治州,建始县,30.5347,109.9972,1227.8,873.7,18.7,68,14.655401379475574,24.718500000000017
Q5829,2025-06-03 10:00:00,粟谷坝,恩施土家族苗族自治州,建始县,30.3572,110.0744,754.5,921.7,23.1,68,19.21397891634709,37.307000000000045
Q5831,2025-06-03 10:00:00,竹园坝,恩施土家族苗族自治州,建始县,30.2125,109.9622,1551.0,842.5,18.5,60,12.770263035956509,25.310999999999968
Q5836,2025-06-03 10:00:00,野三河景区,恩施土家族苗族自治州,建始县,30.6983,110.0806,896.7,909.5,20.7,84,20.498269809355712,40.87699999999993
Q6080,2025-06-03 10:00:00,掇刀,荆门市,掇刀区,30.975,112.2028,108.5,993.6,27.7,54,20.06260702487576,37.99199999999998
Q6082,2025-06-03 10:00:00,麻城,荆门市,掇刀区,30.9114,112.2447,85.0,996.7,26.6,72,25.076413342122887,27.31250000000006
Q6083,2025-06-03 10:00:00,樊桥,荆门市,掇刀区,30.7958,112.2522,82.0,997.5,26.7,73,25.57503258869298,32.48350000000002
Q6084,2025-06-03 10:00:00,凤凰,荆门市,掇刀区,30.9525,112.1789,106.0,994.4,26.4,77,26.503127884018625,35.8399999999999
Q6085,2025-06-03 10:00:00,龙泉,荆门市,掇刀区,30.8675,112.0964,97.5,995.4,26.2,71,24.150750761675937,24.835500000000035
Q6086,2025-06-03 10:00:00,仙女,荆门市,掇刀区,31.0422,112.1217,190.0,985.0,25.8,72,23.91738346828351,41.647000000000006
Q6111,2025-06-03 10:00:00,后港,荆门市,沙洋县,30.5242,112.3883,31.2,1003.1,27.1,69,24.749427164195158,43.77949999999994
Q6113,2025-06-03 10:00:00,高阳,荆门市,沙洋县,30.7592,112.46,65.0,999.2,26.6,75,26.12126389804467,49.004000000000005
Q6114,2025-06-03 10:00:00,五里,荆门市,沙洋县,30.7297,112.2397,67.0,999.1,26.6,70,24.37984630484169,24.84300000000004
Q6115,2025-06-03 10:00:00,十里,荆门市,沙洋县,30.6244,112.1758,56.2,1000.2,26.4,71,24.43794908786133,43.79333333333327
Q6117,2025-06-03 10:00:00,拾回桥,荆门市,沙洋县,30.5508,112.275,36.5,1002.6,27.5,63,23.1339161673075,44.7375
Q6118,2025-06-03 10:00:00,曾集,荆门市,沙洋县,30.7172,112.3717,71.0,998.6,26.7,70,24.524003852171347,40.57900000000004
Q6122,2025-06-03 10:00:00,雷集,荆门市,掇刀区,30.8122,112.2886,104.0,994.6,26.3,73,24.97831618141871,33.46700000000008
Q6125,2025-06-03 10:00:00,双堰,荆门市,沙洋县,30.8186,112.4253,60.1,999.8,26.7,76,26.62606132521461,45.87999999999999
Q6128,2025-06-03 10:00:00,港口,荆门市,沙洋县,30.4275,112.3442,40.0,1002.2,27.3,70,25.40470394715127,53.351000000000106
Q6129,2025-06-03 10:00:00,姚集,荆门市,沙洋县,30.8017,112.6122,40.0,1002.0,27.0,71,25.31754336741661,44.28099999999994
Q6160,2025-06-03 10:00:00,石桥驿,荆门市,东宝区,31.2861,112.1533,98.0,995.2,26.9,69,24.46006290081291,24.956500000000027
Q6162,2025-06-03 10:00:00,仙居,荆门市,东宝区,31.3903,112.0286,129.0,991.5,26.3,66,22.583135177721022,40.85299999999997
Q6163,2025-06-03 10:00:00,马河,荆门市,东宝区,31.1444,111.935,134.0,991.2,24.6,77,23.81301000698274,51.02800000000006
Q6164,2025-06-03 10:00:00,栗溪,荆门市,东宝区,31.2678,111.9847,231.2,980.2,25.7,73,24.106073283772723,46.59850000000003
Q6167,2025-06-03 10:00:00,观音寺,荆门市,东宝区,31.0697,111.925,129.0,991.5,26.3,74,25.320484896232664,39.085000000000086
Q6168,2025-06-03 10:00:00,东宝,荆门市,东宝区,31.0633,112.2033,110.0,993.8,27.4,55,20.07825578253881,38.53750000000004
Q6169,2025-06-03 10:00:00,岩垱,荆门市,东宝区,31.2031,112.1422,112.5,993.7,26.4,67,23.061163223756463,42.19649999999998
Q6170,2025-06-03 10:00:00,象河,荆门市,东宝区,31.3072,112.1028,121.0,992.5,26.0,74,24.874952898295746,48.23599999999997
Q6171,2025-06-03 10:00:00,安河,荆门市,东宝区,31.0814,112.1022,246.3,978.8,25.8,70,23.253011705275632,51.148500000000006
Q6172,2025-06-03 10:00:00,圣境山,荆门市,东宝区,31.12,112.1464,355.3,966.6,25.1,55,17.525105884026377,24.58000000000002
Q6173,2025-06-03 10:00:00,东宝八角,荆门市,东宝区,31.1497,112.2619,70.8,997.8,27.1,64,22.95599041316652,38.56499999999998
Q6174,2025-06-03 10:00:00,文丰,荆门市,东宝区,31.1786,112.0386,179.5,985.8,25.1,74,23.57923337123549,39.570500000000045
Q6175,2025-06-03 10:00:00,琵琶洲,荆门市,东宝区,31.135,111.9811,156.5,988.4,25.1,68,21.667403638432614,36.697
Q6176,2025-06-03 10:00:00,铁坪,荆门市,东宝区,31.2347,111.9575,270.2,975.9,25.0,70,22.17200605331099,39.87100000000002
Q6210,2025-06-03 10:00:00,长寿,荆门市,钟祥市,31.4994,112.5936,124.4,991.9,26.3,69,23.60964132216289,38.85299999999997
Q6213,2025-06-03 10:00:00,客店,荆门市,钟祥市,31.4353,112.8739,207.8,982.7,26.7,61,21.370917642606464,37.248000000000026
Q6217,2025-06-03 10:00:00,张集,荆门市,钟祥市,31.5064,112.72,136.9,990.5,27.0,66,23.53461777816192,42.87600000000002
Q6218,2025-06-03 10:00:00,洋梓,荆门市,钟祥市,31.2917,112.6356,56.0,1000.9,26.8,69,24.316493242750933,45.894
Q6219,2025-06-03 10:00:00,柴湖,荆门市,钟祥市,30.9944,112.5881,40.0,1001.7,27.1,72,25.82548921481234,42.51049999999997
Q6220,2025-06-03 10:00:00,磷矿,荆门市,钟祥市,31.2944,112.4272,47.9,1000.7,25.5,81,26.431862499274832,54.001500000000014
Q6223,2025-06-03 10:00:00,九里,荆门市,钟祥市,31.1669,112.6503,53.0,1001.1,27.3,65,23.59008223664047,42.786499999999954
Q6224,2025-06-03 10:00:00,文集,荆门市,钟祥市,31.1594,112.5319,54.6,1001.0,26.2,76,25.85150785756861,49.89100000000005
Q6235,2025-06-03 10:00:00,洪山寺,荆门市,钟祥市,31.4969,112.5197,56.0,998.9,27.4,65,23.72884774300041,43.24199999999997
Q6236,2025-06-03 10:00:00,北山,荆门市,钟祥市,31.2022,112.4103,93.0,995.9,26.6,65,22.63842871163872,39.033500000000046
Q6237,2025-06-03 10:00:00,陈坡,荆门市,钟祥市,31.0467,112.4686,43.0,1000.6,27.2,67,24.173627419728533,45.1135
Q6260,2025-06-03 10:00:00,钟祥杨集,荆门市,钟祥市,31.3961,112.4883,59.0,1000.3,27.3,67,24.31593092084479,45.39599999999996
Q6263,2025-06-03 10:00:00,明显陵,荆门市,钟祥市,31.2106,112.6344,65.0,999.4,25.0,86,27.239893151210648,54.462499999999984
Q6264,2025-06-03 10:00:00,郢中,荆门市,钟祥市,31.1667,112.5667,65.8,999.2,26.9,64,22.68759457466705,37.61299999999994
Q6317,2025-06-03 10:00:00,宋河,荆门市,京山市,31.1814,113.3008,77.2,997.1,26.8,73,25.726145024939395,50.4095
Q6319,2025-06-03 10:00:00,永兴,荆门市,京山市,30.9697,113.2225,63.0,998.3,27.1,72,25.82548921481234,49.216499999999925
Q6320,2025-06-03 10:00:00,钱场,荆门市,京山市,30.8547,113.0992,49.6,1000.6,27.4,64,23.36378854695425,41.06933333333332
Q6321,2025-06-03 10:00:00,石龙,荆门市,京山市,30.8972,112.8411,34.0,1001.7,27.3,69,25.041779605049108,50.58900000000005
Q6322,2025-06-03 10:00:00,永漋,荆门市,京山市,30.7744,112.8278,33.9,1002.5,27.1,66,23.673365113577976,40.58650000000003
Q6323,2025-06-03 10:00:00,坪坝,荆门市,京山市,31.2839,113.3547,73.0,997.1,27.3,71,25.767628289253437,42.37599999999998
Q6324,2025-06-03 10:00:00,屈家岭,荆门市,市辖区,30.8344,112.945,77.0,997.6,26.5,71,24.58266502344296,48.35549999999999
Q6333,2025-06-03 10:00:00,三阳,荆门市,京山市,31.3436,113.1756,203.2,982.9,26.8,64,22.554428515015363,37.79549999999998
Q6335,2025-06-03 10:00:00,三台,荆门市,京山市,31.2819,112.9369,174.2,985.8,25.5,79,25.77922391904582,48.52200000000007
Q6336,2025-06-03 10:00:00,将军岭,荆门市,京山市,31.2428,112.9794,208.9,982.5,26.8,70,24.66890618829805,43.528999999999954
Q6339,2025-06-03 10:00:00,空山洞,荆门市,京山市,30.9928,113.045,105.0,994.3,26.3,70,23.95181003697684,39.56299999999996
Q6343,2025-06-03 10:00:00,四股泉,荆门市,京山市,31.1531,113.2286,226.5,980.2,25.8,74,24.581755231291385,41.14999999999996
Q6344,2025-06-03 10:00:00,马岭,荆门市,京山市,31.0558,113.4464,45.0,1000.1,26.9,70,24.81455656604208,43.435
Q6349,2025-06-03 10:00:00,中南山,荆门市,京山市,30.9269,113.0072,111.0,993.8,26.2,70,23.8105993424974,40.53949999999995
Q6353,2025-06-03 10:00:00,黄台,荆门市,京山市,31.1539,112.8736,115.4,993.1,26.7,71,24.87434676434523,49.58349999999995
Q6358,2025-06-03 10:00:00,绿林寨,荆门市,京山市,31.3367,113.0661,174.0,987.1,27.7,66,24.520964141514817,42.30849999999994
Q6370,2025-06-03 10:00:00,罗汉寺,荆门市,市辖区,30.9961,112.6831,38.0,1001.9,27.0,76,27.1004689566713,42.47349999999992
Q6371,2025-06-03 10:00:00,长滩办事处,荆门市,市辖区,30.9972,112.7556,57.0,1000.1,26.9,73,25.8780375617296,52.93600000000006
Q6372,2025-06-03 10:00:00,月宝山,荆门市,市辖区,30.9675,112.7822,89.0,996.1,26.2,75,25.51135643839007,48.52350000000001
Q6373,2025-06-03 10:00:00,牙谷山,荆门市,市辖区,30.9711,112.8208,105.0,994.4,26.3,75,25.66265361104662,43.84837499999993
Q6374,2025-06-03 10:00:00,刘台,荆门市,市辖区,30.8964,112.7422,38.5,1002.2,27.1,73,26.184176565018063,48.02150000000002
Q6375,2025-06-03 10:00:00,种业基地,荆门市,市辖区,30.8661,112.8697,73.3,998.3,26.7,71,24.87434676434523,52.454000000000015
Q6376,2025-06-03 10:00:00,蔡垱,荆门市,市辖区,30.7656,112.8836,33.1,1002.5,27.0,68,24.2477880138638,42.017499999999984
Q6401,2025-06-03 10:00:00,洈水,荆州市,松滋市,29.9694,111.5644,100.3,996.1,28.2,48,18.36177192790545,32.18149999999999
Q6402,2025-06-03 10:00:00,沙道观,荆州市,松滋市,30.1794,111.9433,38.4,1001.9,28.4,52,20.12498360967681,42.65349999999992
Q6403,2025-06-03 10:00:00,纸厂河,荆州市,松滋市,30.0286,111.8453,52.1,1001.4,27.4,61,22.26861095881577,38.91650000000001
Q6404,2025-06-03 10:00:00,南海,荆州市,松滋市,30.1169,111.85,48.2,1002.2,27.6,53,19.57617842954305,35.504000000000005
Q6406,2025-06-03 10:00:00,卸甲坪,荆州市,松滋市,30.03,111.37,136.0,992.5,28.6,45,17.6196026078297,26.405999999999977
Q6407,2025-06-03 10:00:00,北干渠,荆州市,松滋市,30.0261,111.6894,43.0,1000.2,28.5,51,19.85313053922209,31.763499999999983
Q6408,2025-06-03 10:00:00,北河,荆州市,松滋市,30.0728,111.6294,164.0,988.0,27.5,52,19.094660963491904,19.926
Q6409,2025-06-03 10:00:00,陈店,荆州市,松滋市,30.2792,111.6517,122.0,991.9,27.9,52,19.54674532447904,26.55700000000003
Q6411,2025-06-03 10:00:00,涴市,荆州市,松滋市,30.2714,112.0189,50.1,1002.0,27.3,50,18.14621710510805,25.574500000000008
Q6412,2025-06-03 10:00:00,杨林市,荆州市,松滋市,29.9758,111.7756,69.2,998.9,28.2,54,20.65699341889364,46.106500000000025
Q6414,2025-06-03 10:00:00,八宝,荆州市,松滋市,30.18,111.8686,46.1,1002.0,28.5,53,20.63168467801511,41.01200000000003
Q6415,2025-06-03 10:00:00,万家,荆州市,松滋市,29.9686,111.6961,76.2,999.5,28.3,54,20.77769954861392,40.908500000000025
Q6417,2025-06-03 10:00:00,三堰淌,荆州市,松滋市,30.0903,111.4008,626.8,937.6,23.7,63,18.45813636951795,26.028499999999987
Q6418,2025-06-03 10:00:00,卸甲坪村,荆州市,松滋市,30.0397,111.3681,220.0,981.3,27.4,54,19.713196586492653,26.263500000000043
Q6426,2025-06-03 10:00:00,新江口,荆州市,松滋市,30.1769,111.7736,69.5,998.9,28.3,51,19.62338290702425,34.59249999999999
Q6494,2025-06-03 10:00:00,南平,荆州市,公安县,29.9206,112.0969,44.0,1002.1,28.2,61,23.334751825046517,45.94649999999999
Q6495,2025-06-03 10:00:00,狮子口,荆州市,公安县,29.99,112.0072,48.0,1001.6,26.8,64,22.554428515015363,33.30999999999995
Q6496,2025-06-03 10:00:00,杨家厂,荆州市,公安县,30.0592,112.3197,30.0,1002.7,27.9,63,23.681633758503448,39.41400000000003
Q6497,2025-06-03 10:00:00,孟家溪,荆州市,公安县,29.8575,112.0914,40.0,1002.7,27.7,64,23.77790462207497,34.22750000000002
Q6498,2025-06-03 10:00:00,麻豪口,荆州市,公安县,29.9631,112.3392,40.0,1002.7,28.4,57,22.06007818753035,38.9295
Q6499,2025-06-03 10:00:00,夹竹园,荆州市,公安县,29.99,112.1083,37.0,1002.6,27.9,61,22.9298358614081,40.41350000000001
Q6500,2025-06-03 10:00:00,甘厂,荆州市,公安县,29.7447,112.0739,36.9,1002.7,27.7,64,23.77790462207497,38.74300000000004
Q6502,2025-06-03 10:00:00,斑竹垱,荆州市,公安县,30.0544,112.0081,39.5,1002.4,28.1,52,19.77627446775925,29.96000000000002
Q6503,2025-06-03 10:00:00,埠河,荆州市,公安县,30.2919,112.2406,44.0,1001.9,28.0,53,20.039317553439105,32.47300000000003
Q6577,2025-06-03 10:00:00,大垸,荆州市,石首市,29.8425,112.4731,35.7,1002.6,28.6,53,20.751976404777203,27.540666666666684
Q6651,2025-06-03 10:00:00,监利汪桥,荆州市,监利市,29.98,112.7044,26.1,1003.3,28.1,59,22.43846526149607,35.91850000000004
Q6656,2025-06-03 10:00:00,监利上车,荆州市,监利市,29.8086,113.0083,26.5,1003.3,27.8,57,21.301400126343445,37.69449999999994
Q6657,2025-06-03 10:00:00,监利周老嘴,荆州市,监利市,30.0322,112.9767,25.1,1003.1,26.6,63,21.94186167435753,47.4515
Q6658,2025-06-03 10:00:00,监利朱河,荆州市,监利市,29.7317,113.1064,24.9,1003.4,27.5,61,22.39950613025012,38.76749999999994
Q6659,2025-06-03 10:00:00,监利福田,荆州市,监利市,29.9039,113.0831,24.7,1003.4,27.1,66,23.673365113577976,39.26199999999995
Q6660,2025-06-03 10:00:00,监利黄歇口,荆州市,监利市,30.0361,112.8011,26.1,1003.4,28.7,54,21.266708256890137,33.77000000000001
Q6661,2025-06-03 10:00:00,监利大垸,荆州市,监利市,29.8486,112.7075,24.2,1002.8,28.0,59,22.30791954062089,31.872500000000016
Q6662,2025-06-03 10:00:00,监利网市,荆州市,监利市,30.1097,113.1147,25.8,1003.4,28.1,62,23.579404173097565,35.142500000000034
Q6665,2025-06-03 10:00:00,监利分盐,荆州市,监利市,29.9844,113.0503,31.9,1003.2,27.4,59,21.53849256672345,29.41249999999998
Q6667,2025-06-03 10:00:00,监利柘木,荆州市,监利市,29.59,113.1403,26.4,1003.4,27.4,57,20.80837417463113,36.24550000000003
Q6668,2025-06-03 10:00:00,监利汴河,荆州市,监利市,29.8086,113.0872,25.1,1003.5,28.0,59,22.30791954062089,37.79100000000001
Q6670,2025-06-03 10:00:00,三洲,荆州市,监利市,29.545,112.9406,29.0,1003.1,27.7,56,20.805666544315603,30.45700000000003
Q6750,2025-06-03 10:00:00,曹市,荆州市,洪湖市,29.8625,113.5478,29.8,1003.4,28.4,63,24.3821916809546,44.67749999999997
Q6751,2025-06-03 10:00:00,黄家口,荆州市,洪湖市,30.0486,113.5617,20.0,1003.6,27.9,67,25.185229552694143,40.654500000000034
Q6753,2025-06-03 10:00:00,瞿家湾渡口,荆州市,洪湖市,29.9325,113.2267,30.0,1003.4,27.6,63,23.269797001154945,39.392499999999934
Q6754,2025-06-03 10:00:00,洪狮渔场,荆州市,洪湖市,29.9217,113.29,20.0,1003.6,27.0,63,22.464862424609105,35.91499999999996
Q6755,2025-06-03 10:00:00,瞿家湾,荆州市,洪湖市,29.9614,113.1831,23.5,1003.4,27.2,62,22.369625373480137,40.77749999999992
Q6756,2025-06-03 10:00:00,八卦洲,荆州市,洪湖市,29.8175,113.4078,34.0,1003.9,27.2,63,22.730425782729817,43.62900000000004
Q6757,2025-06-03 10:00:00,螺山,荆州市,洪湖市,29.6706,113.3161,26.7,1003.5,26.8,53,18.677886113997097,24.9145
Q6758,2025-06-03 10:00:00,乌林,荆州市,洪湖市,29.9078,113.6072,30.0,1003.5,26.9,69,24.46006290081291,39.47200000000007
Q6759,2025-06-03 10:00:00,大沙,荆州市,洪湖市,30.0072,113.8642,30.0,1003.5,27.4,61,22.26861095881577,39.24549999999998
Q6760,2025-06-03 10:00:00,燕窝,荆州市,洪湖市,30.0958,113.9672,30.0,1003.2,26.8,60,21.1447767328269,36.87250000000004
Q6761,2025-06-03 10:00:00,汊河,荆州市,洪湖市,29.9578,113.4517,27.6,1003.6,27.1,62,22.238615712755067,38.019999999999946
Q6764,2025-06-03 10:00:00,大同湖,荆州市,洪湖市,30.0467,113.7133,23.7,1003.7,27.7,63,23.40637486235505,39.71050000000003
Q6767,2025-06-03 10:00:00,峰口,荆州市,洪湖市,30.1211,113.3494,25.3,1003.6,28.1,60,22.818778232029903,42.53499999999998
Q6769,2025-06-03 10:00:00,土地湖,荆州市,洪湖市,29.9361,113.3403,20.0,1003.6,26.7,68,23.8233180278236,35.78749999999994
Q6770,2025-06-03 10:00:00,袁新泵站,荆州市,洪湖市,29.7106,113.3156,20.0,1003.6,26.6,69,24.031562786201096,36.88599999999997
Q6771,2025-06-03 10:00:00,府场,荆州市,洪湖市,30.1222,113.1589,31.2,1003.4,28.3,61,23.471105045656454,44.42299999999992
Q6772,2025-06-03 10:00:00,洪湖龙口,荆州市,洪湖市,29.9878,113.7756,25.1,1003.4,26.6,61,21.24529463707633,41.13900000000005
Q6773,2025-06-03 10:00:00,洪湖经开区,荆州市,洪湖市,29.8489,113.4908,23.2,1003.5,27.0,63,22.464862424609105,36.17149999999996
Q6847,2025-06-03 10:00:00,江滩公园,荆州市,洪湖市,29.8033,113.4594,28.5,1002.7,27.0,60,21.395107071056287,28.73899999999998
Q6853,2025-06-03 10:00:00,纪南,荆州市,荆州区,30.4272,112.2525,33.0,1002.6,27.3,71,25.767628289253437,50.79200000000004
Q6856,2025-06-03 10:00:00,荆州中学,荆州市,荆州区,30.3653,112.2097,32.0,1003.0,27.8,60,22.422526448782573,42.50750000000001
Q6862,2025-06-03 10:00:00,乐居,荆州市,荆州区,30.3531,112.1147,38.6,1003.1,27.8,67,25.03848786780721,47.919500000000006
Q6863,2025-06-03 10:00:00,麋鹿,荆州市,石首市,29.7822,112.5547,35.4,1002.8,26.1,84,28.404140810242826,50.05275000000006
Q6901,2025-06-03 10:00:00,观音垱,荆州市,沙市区,30.3797,112.4003,28.0,1002.9,27.1,65,23.31467776337225,46.578
Q6951,2025-06-03 10:00:00,秦市,荆州市,江陵县,29.9672,112.6025,30.3,1003.3,28.2,59,22.56967799471712,34.77800000000004
Q6953,2025-06-03 10:00:00,沙岗,荆州市,江陵县,30.0603,112.6308,30.0,1003.0,28.1,59,22.43846526149607,36.67749999999994
Q6954,2025-06-03 10:00:00,熊河,荆州市,江陵县,30.1106,112.44,30.1,1003.1,27.9,55,20.67444217012206,28.54337500000004
Q6957,2025-06-03 10:00:00,三湖,荆州市,江陵县,30.1967,112.5561,26.0,1003.4,28.1,55,20.917213379360746,31.25137500000001
Q6958,2025-06-03 10:00:00,郝穴,荆州市,江陵县,29.9919,112.4553,31.3,1003.0,28.3,58,22.316788404066795,34.13899999999993
Q6960,2025-06-03 10:00:00,江北农场,荆州市,江陵县,30.1814,112.3494,30.0,1003.0,27.6,65,24.008520715477324,37.508500000000026
Q7030,2025-06-03 10:00:00,悟峰山,孝感市,大悟县,31.7775,114.1636,92.4,995.2,28.4,63,24.3821916809546,41.65199999999994
Q7038,2025-06-03 10:00:00,新城,孝感市,大悟县,31.4925,114.2794,120.0,990.8,27.4,65,23.72884774300041,45.69550000000001
Q7087,2025-06-03 10:00:00,河口茶园,孝感市,大悟县,31.3186,114.3764,56.4,997.8,27.2,66,23.812827010478856,38.032500000000006
Q7092,2025-06-03 10:00:00,大悟城关,孝感市,大悟县,31.5711,114.1214,74.9,996.4,27.6,65,24.008520715477324,45.63849999999992
Q7138,2025-06-03 10:00:00,雷公,孝感市,安陆市,31.2953,113.515,101.0,994.6,27.0,69,24.60437313171473,41.963500000000025
Q7165,2025-06-03 10:00:00,接官,孝感市,安陆市,31.4175,113.7522,68.6,998.1,27.7,64,23.77790462207497,43.984833333333306
Q7166,2025-06-03 10:00:00,辛榨,孝感市,安陆市,31.1122,113.6156,45.9,1000.8,27.3,68,24.678855262946957,40.158
Q7167,2025-06-03 10:00:00,府河,孝感市,安陆市,31.2575,113.6686,36.4,1001.8,27.8,69,25.78590541609996,53.12324999999998
Q7218,2025-06-03 10:00:00,田店,孝感市,应城市,31.0317,113.4494,52.5,1000.3,26.9,67,23.75107557035457,30.79000000000001
Q7266,2025-06-03 10:00:00,义和,孝感市,应城市,30.7686,113.4944,28.9,1002.8,27.0,66,23.53461777816192,35.08400000000005
Q7315,2025-06-03 10:00:00,城隍,孝感市,汉川市,30.6261,113.7594,24.9,1003.2,27.6,63,23.269797001154945,34.918000000000035
Q7316,2025-06-03 10:00:00,华严农场,孝感市,汉川市,30.6256,113.6964,24.1,1003.5,27.3,66,23.953006578742627,41.27099999999999
Q7317,2025-06-03 10:00:00,回龙,孝感市,汉川市,30.565,113.4961,24.3,1003.2,27.1,67,24.032052463783703,41.25150000000007
Q7318,2025-06-03 10:00:00,脉旺,孝感市,汉川市,30.5175,113.5933,23.9,1003.1,26.8,70,24.66890618829805,34.401
Q7350,2025-06-03 10:00:00,庙头,孝感市,汉川市,30.5944,113.7875,27.0,1003.2,27.0,66,23.53461777816192,40.06924999999998
Q7354,2025-06-03 10:00:00,刘家隔,孝感市,汉川市,30.7539,113.8008,25.0,1003.4,26.7,71,24.87434676434523,43.96259523809519
Q7358,2025-06-03 10:00:00,麻河,孝感市,汉川市,30.775,113.6914,22.2,1003.5,27.2,66,23.812827010478856,33.30000000000006
Q7378,2025-06-03 10:00:00,南河,孝感市,汉川市,30.4967,113.7769,25.0,1002.9,26.7,67,23.47297511564972,38.13424999999996
Q7387,2025-06-03 10:00:00,新河,孝感市,汉川市,30.6956,113.9111,30.0,1003.3,27.0,61,21.751692188907228,37.645
Q7392,2025-06-03 10:00:00,西江,孝感市,汉川市,30.4806,113.6775,24.0,1003.3,27.7,66,24.520964141514817,36.68750000000001
Q7393,2025-06-03 10:00:00,韩集,孝感市,汉川市,30.6742,113.5964,28.0,1003.5,27.7,61,22.663315342915208,41.867
Q7426,2025-06-03 10:00:00,周巷,孝感市,孝昌县,31.2169,114.1108,105.8,994.1,26.4,68,23.405359689782685,40.16649999999991
Q7432,2025-06-03 10:00:00,丰和,孝感市,孝昌县,31.1422,114.1475,85.0,996.2,27.2,64,23.09122619197949,46.47749999999994
Q7442,2025-06-03 10:00:00,花西,孝感市,孝昌县,31.1939,113.8561,72.2,997.8,27.0,75,26.74388383882036,41.81900000000002
Q7461,2025-06-03 10:00:00,双峰山景区,孝感市,孝昌县,31.2011,114.1914,582.5,942.3,22.1,80,21.272026082197268,53.601000000000006
Q7538,2025-06-03 10:00:00,隔蒲潭,孝感市,云梦县,30.9461,113.7253,28.7,1002.9,27.0,67,23.891202896012857,31.84750000000004
Q7546,2025-06-03 10:00:00,倒店,孝感市,云梦县,31.1844,113.7389,58.9,999.3,27.2,70,25.25602864747757,47.03150000000003
Q7554,2025-06-03 10:00:00,清明河,孝感市,云梦县,31.0272,113.6944,34.0,1002.6,27.1,66,23.673365113577976,36.10750000000003
Q7618,2025-06-03 10:00:00,杨店,孝感市,孝南区,31.025,114.1083,52.0,1000.9,27.5,62,22.766711148778807,45.62950000000003
Q7622,2025-06-03 10:00:00,陡岗,孝感市,孝南区,31.0397,113.8556,30.1,1002.0,27.2,67,24.173627419728533,46.478
Q7626,2025-06-03 10:00:00,肖港,孝感市,孝南区,31.0981,113.975,46.5,1000.3,27.0,66,23.53461777816192,47.173999999999936
Q7630,2025-06-03 10:00:00,毛陈,孝感市,孝南区,30.8239,113.9908,23.2,1003.4,27.2,67,24.173627419728533,42.971500000000006
Q7642,2025-06-03 10:00:00,新铺,孝感市,孝南区,30.9806,113.98,46.2,1000.7,26.6,65,22.63842871163872,49.03099999999995
Q7650,2025-06-03 10:00:00,卧龙,孝感市,孝南区,30.8961,113.9025,27.1,1003.3,27.4,62,22.63367015486193,42.93750000000003
Q7654,2025-06-03 10:00:00,闵集,孝感市,孝南区,30.8508,114.1303,46.2,1002.2,26.9,69,24.46006290081291,47.50199999999998
Q7658,2025-06-03 10:00:00,东山头,孝感市,孝南区,30.7981,114.0183,25.3,1003.3,27.0,66,23.53461777816192,40.42099999999999
Q7659,2025-06-03 10:00:00,朱湖,孝感市,孝南区,30.8081,113.9397,19.7,1003.5,27.2,64,23.09122619197949,47.25599999999996
Q7663,2025-06-03 10:00:00,郑家河,孝感市,市辖区,31.3603,113.2903,96.0,994.6,27.7,71,26.378612940114422,42.41199999999998
Q7701,2025-06-03 10:00:00,拖市,省直辖县级行政区划,天门市,30.7267,112.8314,40.0,1002.6,27.2,65,23.45202660122917,40.83949999999997
Q7704,2025-06-03 10:00:00,佛子山,省直辖县级行政区划,天门市,30.7503,113.0092,35.2,1002.2,26.8,71,25.021319133845168,43.51000000000003
Q7705,2025-06-03 10:00:00,汪场,省直辖县级行政区划,天门市,30.61,113.0192,26.7,1003.0,27.0,71,25.31754336741661,46.87620000000005
Q7708,2025-06-03 10:00:00,岳口,省直辖县级行政区划,天门市,30.5239,113.0894,38.0,1002.6,27.2,66,23.812827010478856,36.58049999999993
Q7709,2025-06-03 10:00:00,九真,省直辖县级行政区划,天门市,30.7694,113.2297,29.7,1003.0,27.1,67,24.032052463783703,41.36900000000001
Q7712,2025-06-03 10:00:00,皂市,省直辖县级行政区划,天门市,30.8636,113.3256,39.0,1002.9,27.2,67,24.173627419728533,44.952000000000055
Q7713,2025-06-03 10:00:00,净潭,省直辖县级行政区划,天门市,30.6522,113.4097,30.0,1003.2,27.5,63,23.1339161673075,43.13449999999997
Q7716,2025-06-03 10:00:00,麻洋,省直辖县级行政区划,天门市,30.4411,113.2611,33.5,1002.9,26.9,69,24.46006290081291,46.03350000000007
Q7725,2025-06-03 10:00:00,石家河,省直辖县级行政区划,天门市,30.7561,113.0772,27.0,1003.1,27.4,68,24.8240253311389,43.69350000000004
Q7726,2025-06-03 10:00:00,沉湖,省直辖县级行政区划,天门市,30.5094,113.3708,24.6,1003.4,27.0,81,28.88339454592599,52.04200000000002
Q7727,2025-06-03 10:00:00,卢市,省直辖县级行政区划,天门市,30.6589,113.3403,25.7,1003.1,26.3,75,25.66265361104662,55.0395
Q7729,2025-06-03 10:00:00,蒋湖,省直辖县级行政区划,天门市,30.6411,112.8431,31.2,1002.7,27.0,70,24.960958249565667,48.632499999999936
Q7799,2025-06-03 10:00:00,竟陵,省直辖县级行政区划,天门市,30.67,113.17,34.1,1002.7,27.8,58,21.67510890048982,35.14300000000003
Q7800,2025-06-03 10:00:00,高石碑,省直辖县级行政区划,潜江市,30.5497,112.6531,30.0,1002.6,26.6,71,24.72812982348229,44.56149999999996
Q7802,2025-06-03 10:00:00,浩口,省直辖县级行政区划,潜江市,30.375,112.6408,28.0,1003.2,27.6,64,23.639158858316133,35.78700000000007
Q7807,2025-06-03 10:00:00,白鹭湖,省直辖县级行政区划,潜江市,30.1111,112.7681,27.0,1003.5,28.3,56,21.54724397634036,38.03549999999997
Q7811,2025-06-03 10:00:00,后湖农场,省直辖县级行政区划,潜江市,30.3944,112.7186,29.0,1003.2,27.6,58,21.422987715348995,41.38649999999997
Q7814,2025-06-03 10:00:00,熊农,省直辖县级行政区划,潜江市,30.2667,112.7583,29.0,1003.2,28.2,61,23.334751825046517,39.28400000000004
Q7816,2025-06-03 10:00:00,园林,省直辖县级行政区划,潜江市,30.435,112.8725,32.0,1002.8,27.2,67,24.173627419728533,48.461000000000006
Q7817,2025-06-03 10:00:00,经济开发区,省直辖县级行政区划,潜江市,30.4786,112.87,30.0,1002.8,27.4,61,22.26861095881577,47.33300000000001
Q7818,2025-06-03 10:00:00,广华,省直辖县级行政区划,潜江市,30.4772,112.6597,28.0,1002.9,27.4,63,22.998729350908093,45.99649999999993
