Station_Id_C,Datetime,Lat,Lon,Alti,City,Station_Name,Cnty,PRS,TEM,RHU,PWV,VAP
57544,2025-06-03 02:00:00,29.4583,109.4433,485.4,湘西土家族苗族自治州,龙山,龙山县,955.2,21.2,85,40.4,21.390293363181534
57554,2025-06-03 02:00:00,29.4011,110.1622,318.8,张家界市,桑植,桑植县,972.9,21.5,85,42.4,21.78755414429706
57558,2025-06-03 02:00:00,29.1183,110.4172,218.5,张家界市,张家界,永定区,984.1,22.9,80,45.2,22.332447834385583
57562,2025-06-03 02:00:00,29.5833,111.3633,119,常德市,石门,石门县,995.0,25.0,70,41.1,22.17200605331099
57564,2025-06-03 02:00:00,29.4317,111.0892,168.7,张家界市,慈利,慈利县,988.6,24.0,82,40.3,24.462685299508795
57565,2025-06-03 02:00:00,29.6669,111.7253,40.2,常德市,澧县,澧县,1004.1,25.2,74,41.2,23.720222850426783
57566,2025-06-03 02:00:00,29.4692,111.67,86,常德市,临澧,临澧县,998.4,24.3,80.0,41.622003696602725,24.299966011283402
57574,2025-06-03 02:00:00,29.3517,112.4317,40.3,益阳市,南县,南县,1004.2,25.4,79.0,51.406950272019316,25.626336673538123
57575,2025-06-03 02:00:00,29.525,112.5567,49.4,岳阳市,华容,华容县,1003.1,25.7,67,39.7,22.12475219195579
57577,2025-06-03 02:00:00,29.4103,112.205,42.2,常德市,安乡,安乡县,1004.8,25.3,72,40.5,23.21703196170592
57584,2025-06-03 02:00:00,29.3808,113.088,52.7,岳阳市,岳阳,岳阳楼区,1003.0,24.3,79,37.9,23.996216436142358
57585,2025-06-03 02:00:00,29.4814,113.4478,64,岳阳市,临湘,临湘市,1001.7,25.4,60,36.9,19.46304051154794
57587,2025-06-03 02:00:00,29.1914,113.1092,48.4,岳阳市,洞庭湖,岳阳县,1003.1,24.1,80.0,36.928339860372304,24.00991818748099
57640,2025-06-03 02:00:00,28.5364,109.4625,532.8,湘西土家族苗族自治州,花垣,花垣县,949.6,21.1,81.0,44.08355882420674,20.258854909691394
57642,2025-06-03 02:00:00,28.6808,109.6481,438.1,湘西土家族苗族自治州,保靖,保靖县,960.3,21.2,85.0,47.06901158711736,21.390293363181534
57643,2025-06-03 02:00:00,29.0083,109.8383,272.6,湘西土家族苗族自治州,永顺,永顺县,978.8,22.0,83,42.9,21.93547665305786
57646,2025-06-03 02:00:00,28.6222,109.9469,318,湘西土家族苗族自治州,古丈,古丈县,973.3,23.2,84,44.4,23.87897888824926
57649,2025-06-03 02:00:00,28.2381,109.6825,253.6,湘西土家族苗族自治州,吉首,吉首市,980.3,21.9,83,47.1,21.8019426463677
57655,2025-06-03 02:00:00,28.4633,110.4031,151.6,怀化市,沅陵县,沅陵县,992.2,22.0,88,44.6,23.25689090926617
57657,2025-06-03 02:00:00,28.21,110.2286,216.4,湘西土家族苗族自治州,泸溪,泸溪县,984.7,21.7,95.0,55.71374150693341,24.650795549129338
57658,2025-06-03 02:00:00,28.0069,110.1928,155.3,怀化市,辰溪,辰溪县,992.0,22.1,83,47.9,22.06972706027966
57661,2025-06-03 02:00:00,28.9133,111.4797,51.1,常德市,桃源,桃源县,1003.4,25.2,75,41.8,24.040766402459575
57662,2025-06-03 02:00:00,29.1164,111.6767,151.4,常德市,常德,武陵区,991.4,24.2,74,41.5,22.34296884594869
57663,2025-06-03 02:00:00,28.9203,111.9583,36.2,常德市,汉寿,汉寿县,1004.9,24.6,75,41.6,23.194490266541628
57666,2025-06-03 02:00:00,28.5159,112.1366,139.4,益阳市,桃江,桃江县,993.2,24.2,71,42.9,21.437172811653475
57669,2025-06-03 02:00:00,28.3847,111.2203,129.8,益阳市,安化,安化县,986.7,22.7,75,47.4,20.68414824798442
57671,2025-06-03 02:00:00,28.84,112.3722,43.7,益阳市,沅江,沅江市,1004.1,24.6,86,40,26.59634883896773
57673,2025-06-03 02:00:00,28.7283,112.9253,63,岳阳市,湘阴,湘阴县,1001.4,23.9,84.0,47.112101538508504,24.909051602696916
57674,2025-06-03 02:00:00,28.5722,112.3783,49.6,益阳市,赫山,赫山区,995.4,24.6,75,47.9,23.194490266541628
57678,2025-06-03 02:00:00,28.2514,112.5433,60.9,长沙市,宁乡,宁乡市,1000.3,24.6,71,45.6,21.95745078565941
57679,2025-06-03 02:00:00,28.2117,113.1972,103.6,长沙市,长沙黄花,长沙县,997.1,24.3,69,47.6,20.95872068473193
57680,2025-06-03 02:00:00,28.8565,113.1071,82,岳阳市,汨罗,汨罗市,999.6,24.9,68,43.7,21.41030814445812
57682,2025-06-03 02:00:00,28.7117,113.5717,106.9,岳阳市,平江,平江县,996.6,23.8,76,44.2,22.4015038508625
57687,2025-06-03 02:00:00,28.1086,112.7864,119,长沙市,长沙,岳麓区,995.0,24.4,70.0,34.23105253119468,21.390369771245528
57688,2025-06-03 02:00:00,28.1561,113.6308,102.6,长沙市,浏阳,浏阳市,997.0,24.8,66,52.4,20.65680094250268
57740,2025-06-03 02:00:00,27.9528,109.5953,353,湘西土家族苗族自治州,凤凰,凤凰县,969.7,21.9,77,48.5,20.225898599642324
57743,2025-06-03 02:00:00,27.8586,109.8139,176.8,怀化市,麻阳国家基本观测站,麻阳苗族自治县,987.0,21.4,85,50.6,21.654421091330303
57744,2025-06-03 02:00:00,27.3682,109.1635,353,怀化市,新晃,新晃侗族自治县,969.7,21.7,85,48.4,22.05597496501046
57745,2025-06-03 02:00:00,27.4547,109.6811,272.2,怀化市,芷江,芷江侗族自治县,978.6,21.5,86.0,47.971912092385104,22.043878310700553
57749,2025-06-03 02:00:00,27.6069,110.0306,286.9,怀化市,怀化,鹤城区,976.7,21.6,92.0,53.97414955423282,23.72669646469615
57752,2025-06-03 02:00:00,27.9125,110.6008,207.4,怀化市,溆浦,溆浦县,986.2,21.0,91,46.8,22.62045364466993
57754,2025-06-03 02:00:00,27.2117,109.8353,252,怀化市,洪江,洪江市,980.6,22.0,79.0,43.42575597308445,20.878345248091218
57758,2025-06-03 02:00:00,27.0253,110.6067,342.2,邵阳市,洞口,洞口县,970.4,22.5,78,46.9,21.25167147041905
57760,2025-06-03 02:00:00,27.6964,111.4367,249.2,娄底市,冷水江,冷水江市,980.7,22.9,80.0,39.84661418763554,22.332447834385583
57761,2025-06-03 02:00:00,27.7467,111.2939,215.4,娄底市,新化,新化县,985.1,23.1,70,44.9,19.77909594329847
57762,2025-06-03 02:00:00,27.6961,111.7033,167.2,娄底市,涟源,涟源市,980.6,23.7,68,48.3,19.9230678274162
57763,2025-06-03 02:00:00,27.6911,112.0019,155.5,娄底市,娄底,娄底市,985.7,23.8,66,46.2,19.45393755469638
57765,2025-06-03 02:00:00,27.325,110.4072,1386.6,怀化市,雪峰山,洪江市,857.9,16.7,78.0,26.8853396835638,14.818523878262871
57766,2025-06-03 02:00:00,27.185,111.4536,311,邵阳市,邵阳,大祥区,974.0,22.7,75.0,46.37287938808501,20.68414824798442
57767,2025-06-03 02:00:00,27.1133,111.0325,310.8,邵阳市,隆回,隆回县,974.2,22.6,74,46.3,20.284772721643286
57768,2025-06-03 02:00:00,27.3411,111.4464,294.1,邵阳市,新邵,新邵县,975.7,22.9,79,45.5,22.05329223645576
57769,2025-06-03 02:00:00,27.2375,111.7361,253.9,邵阳市,邵东,邵东市,974.9,22.9,74,48,20.65751424680666
57771,2025-06-03 02:00:00,27.8867,112.5925,127.6,湘潭市,韶山,韶山市,994.5,24.7,59.0,38.375129453237676,18.355842784712483
57772,2025-06-03 02:00:00,27.751,112.5059,86.9,湘潭市,湘乡,湘乡市,999.1,24.6,63,47.7,19.48337182389497
57773,2025-06-03 02:00:00,27.8756,112.8275,63.8,湘潭市,湘潭观测站,雨湖区,1001.5,25.1,62.0,34.14694673247573,19.755573905629735
57774,2025-06-03 02:00:00,27.4486,112.1733,103.1,娄底市,双峰,双峰县,991.7,23.6,70,51.2,20.38576908910728
57776,2025-06-03 02:00:00,27.2961,112.6936,1265.9,衡阳市,南岳,南岳区,871.2,14.6,100.0,35.01044733978939,16.606544501194428
57777,2025-06-03 02:00:00,27.2581,112.8372,159.1,衡阳市,衡山,衡山县,990.9,24.3,69.0,42.968610993109415,20.95872068473193
57778,2025-06-03 02:00:00,27.0525,112.9847,112.4,衡阳市,衡东,衡东县,996.4,23.4,82,52.7,23.593944132529515
57779,2025-06-03 02:00:00,27.0556,113.3528,115.2,株洲市,攸县,攸县,995.5,22.6,91,52.9,24.944788076615396
57780,2025-06-03 02:00:00,27.8689,113.1736,74.6,株洲市,株洲,荷塘区,1000.1,24.6,68.0,40.93451021931039,21.02967117499775
57781,2025-06-03 02:00:00,27.6406,113.5069,75.9,株洲市,醴陵,醴陵市,1000.3,23.6,69,52.6,20.09454381640575
57841,2025-06-03 02:00:00,26.5619,109.6736,322.5,怀化市,靖州,靖州苗族侗族自治县,972.9,21.8,79,50.7,20.624826764586945
57842,2025-06-03 02:00:00,26.8767,109.7208,287.8,怀化市,会同,会同县,977.1,22.1,74,51.3,19.67662412603247
57845,2025-06-03 02:00:00,26.1589,109.7778,400.2,怀化市,通道,通道侗族自治县,964.0,22.4,73,47.7,19.768760039131564
57846,2025-06-03 02:00:00,26.5867,110.1419,382.7,邵阳市,绥宁,绥宁县,965.9,21.0,84,48.6,20.880418748926086
57851,2025-06-03 02:00:00,26.4418,110.8528,348.4,邵阳市,新宁,新宁县,969.9,21.8,97,50.3,25.324154381834603
57853,2025-06-03 02:00:00,26.7386,110.6371,340.1,邵阳市,武冈,武冈市,970.7,22.8,67,47.7,18.59033226519014
57857,2025-06-03 02:00:00,26.3726,110.311,479.1,邵阳市,城步,城步苗族自治县,955.4,20.4,81,49.6,19.40361730782878
57860,2025-06-03 02:00:00,27.0022,111.2884,288.5,邵阳市,邵阳县,邵阳县,968.8,22.3,82,49.9,22.071228807222884
57865,2025-06-03 02:00:00,26.4956,111.6161,192.8,永州市,冷水滩,冷水滩区,987.5,22.7,80.0,52.641752023150936,22.06309146451672
57866,2025-06-03 02:00:00,26.226,111.6167,173.4,永州市,永州,零陵区,989.8,22.0,78,52.8,20.614062396849558
57867,2025-06-03 02:00:00,26.4025,111.2892,174.9,永州市,东安,东安县,989.7,22.8,82,51.1,22.752346951426734
57868,2025-06-03 02:00:00,26.5494,111.8622,163.3,永州市,祁阳,祁阳市,990.5,23.2,73.0,45.471928985995284,20.75196974812138
57870,2025-06-03 02:00:00,26.7633,112.0825,218.9,衡阳市,祁东,祁东县,984.0,24.1,71,49.1,21.308802391389378
57871,2025-06-03 02:00:00,26.9742,112.3669,90.8,衡阳市,衡阳县,衡阳县,998.5,24.7,68.0,45.50657946237324,21.155886599329644
57872,2025-06-03 02:00:00,26.9775,112.5942,122.1,衡阳市,衡阳,石鼓区,995.3,23.5,67,52.7,19.394726599849598
57874,2025-06-03 02:00:00,26.4092,112.3939,119,衡阳市,常宁,常宁市,996.0,24.2,68,54.5,20.53137677735826
57875,2025-06-03 02:00:00,26.755,112.6914,137,衡阳市,衡南,衡南县,993.2,23.5,78.0,47.935792518904776,22.578935444601026
57876,2025-06-03 02:00:00,26.4278,112.8292,138,衡阳市,耒阳,耒阳市,993.7,22.9,79,54.3,22.05329223645576
57881,2025-06-03 02:00:00,26.7139,113.2586,104.8,郴州市,安仁,安仁县,986.9,22.2,88,56.6,23.542329486703768
57882,2025-06-03 02:00:00,26.7892,113.545,133.2,株洲市,茶陵,茶陵县,992.9,22.8,80.0,29.778356849581264,22.197411659928527
57886,2025-06-03 02:00:00,26.4778,113.7922,273.2,株洲市,炎陵,炎陵县,978.0,22.2,67,52.3,17.92427358646764
57887,2025-06-03 02:00:00,26.1192,113.1144,169.4,郴州市,永兴,永兴县,989.5,23.5,77,54.4,22.289461913259984
57889,2025-06-03 02:00:00,26.0797,113.9447,834.1,郴州市,桂东,桂东县,914.6,23.3,63.0,33.21766867927992,18.01785606737796
57962,2025-06-03 02:00:00,25.9617,111.6544,206.7,永州市,双牌,双牌县,985.8,22.4,87,51.7,23.56002908773214
57965,2025-06-03 02:00:00,25.5339,111.5958,192.7,永州市,道县,道县,986.9,22.4,81,54.4,21.935199495474752
57966,2025-06-03 02:00:00,25.5947,111.9594,243.1,永州市,宁远,宁远县,981.0,21.6,81,55.5,20.889808843917262
57969,2025-06-03 02:00:00,25.2758,111.3106,259.4,永州市,江永,江永县,978.1,22.4,81.0,43.12949037804675,21.935199495474752
57971,2025-06-03 02:00:00,25.9117,112.2067,227.4,永州市,新田,新田县,983.7,22.7,78,53.7,21.5115141779038
57972,2025-06-03 02:00:00,25.7356,112.9772,368.6,郴州市,郴州,北湖区,966.9,21.0,82.0,42.87073638261781,20.3832659215707
57973,2025-06-03 02:00:00,25.7494,112.7247,329.8,郴州市,桂阳,桂阳县,971.6,21.8,77,52.9,20.10267925155943
57974,2025-06-03 02:00:00,25.5814,112.3653,214.5,郴州市,嘉禾,嘉禾县,984.4,23.1,78.0,38.24939983052219,22.039564051104012
57975,2025-06-03 02:00:00,25.4006,112.1678,345.9,永州市,蓝山,蓝山县,969.6,21.9,82.0,45.52317989027045,21.539268638580133
57976,2025-06-03 02:00:00,25.4058,112.9406,225.2,郴州市,宜章,宜章县,982.7,23.3,75,56,21.449828651640427
57978,2025-06-03 02:00:00,25.2731,112.5461,295.7,郴州市,临武,临武县,975.0,22.0,79,54,20.878345248091218
57981,2025-06-03 02:00:00,25.9744,113.2169,142.2,郴州市,资兴,资兴市,992.5,23.3,79,54.8,22.59381951306125
57985,2025-06-03 02:00:00,25.5558,113.6881,648.2,郴州市,汝城,汝城县,935.9,19.5,95,53.8,21.52239104852971
59063,2025-06-03 02:00:00,25.1819,111.5703,265.7,永州市,江华,江华瑶族自治县,977.9,22.0,82.0,36.76026261230862,21.671193801816198
CDAX,2025-06-03 02:00:00,29.41,112.2047,15.95,常德市,深柳镇,安乡县,1010.8155,24.7719,999999,39.0882,
CDHP,2025-06-03 02:00:00,29.9381,110.7792,224.54,常德市,东山峰管理区,石门县,986.8153,23.4174,999999,35.9845,
CDHS,2025-06-03 02:00:00,28.92,111.9583,15.82,常德市,龙阳街道,汉寿县,1010.8115,24.8258,999999,39.6573,
CDLL,2025-06-03 02:00:00,29.4619,111.7386,37.82,常德市,烽火乡,临澧县,1008.1598,24.6239,999999,42.2472,
CDLX,2025-06-03 02:00:00,29.6564,111.7517,31.69,常德市,澧阳街道,澧县,1010.2215,24.7117,999999,40.9665,
CDSM,2025-06-03 02:00:00,29.5833,111.3631,97.51,常德市,楚江街道,石门县,1001.2575,24.2393,999999,40.8852,
CDSQ,2025-06-03 02:00:00,29.1164,111.6764,130.04,常德市,柳叶湖街道,柳叶湖旅游度假区,997.5964,24.0927,999999,40.8957,
CDTY,2025-06-03 02:00:00,28.9133,111.4797,29.45,常德市,漳江街道,桃源县,1009.1605,24.7381,999999,39.0479,
CSDY,2025-06-03 02:00:00,28.0314,113.6667,135.48,长沙市,大瑶镇,浏阳市,997.7249,24.2183,999999,51.899,
CSHH,2025-06-03 02:00:00,28.2114,113.1969,88.32,长沙市,黄花镇,长沙县,1002.9098,24.479,999999,48.768,
CSKC,2025-06-03 02:00:00,28.1825,112.9964,66.33,长沙市,左家塘街道,雨花区,1005.3172,24.6121,999999,48.0685,
CSLY,2025-06-03 02:00:00,28.1561,113.6306,89.16,长沙市,淮川街道,浏阳市,1003.0215,24.4912,999999,50.6132,
CSNX,2025-06-03 02:00:00,28.1425,112.2319,94.42,长沙市,横市镇,宁乡市,1001.8265,24.4281,999999,44.7116,
CSXZ,2025-06-03 02:00:00,28.1014,111.9017,432.31,长沙市,巷子口镇,宁乡市,963.5835,22.3331,999999,39.568,
CSYH,2025-06-03 02:00:00,28.2939,113.8503,120.74,长沙市,永和镇,浏阳市,999.5084,24.2862,999999,51.7091,
CZAR,2025-06-03 02:00:00,26.7136,113.2586,91.8,郴州市,永乐江镇,安仁县,1002.594,24.6265,999999,52.6134,
CZBL,2025-06-03 02:00:00,26.3425,113.2789,185.29,郴州市,柏林镇,永兴县,991.9743,24.0897,999999,52.746,
CZGY,2025-06-03 02:00:00,25.7494,112.7244,316.5,郴州市,鹿峰街道,桂阳县,976.9593,23.3282,999999,52.045,
CZJH,2025-06-03 02:00:00,25.5519,112.3736,203.17,郴州市,珠泉镇,嘉禾县,989.3684,24.0315,999999,54.9615,
CZLT,2025-06-03 02:00:00,26.0797,112.4703,270.37,郴州市,莲塘镇,桂阳县,982.009,23.5715,999999,52.4539,
CZLW,2025-06-03 02:00:00,25.2731,112.5461,282.88,郴州市,武水镇,临武县,980.7441,23.5888,999999,54.0913,
CZRC,2025-06-03 02:00:00,25.5144,113.6819,639.65,郴州市,卢阳镇,汝城县,941.6855,21.37,999999,51.9838,
CZYX,2025-06-03 02:00:00,26.1189,113.1144,156.86,郴州市,便江街道,永兴县,995.1638,24.2881,999999,53.5781,
CZYZ,2025-06-03 02:00:00,25.4058,112.9406,213.64,郴州市,玉溪镇,宜章县,988.7389,24.0145,999999,55.2463,
CZZX,2025-06-03 02:00:00,25.9744,113.2167,130.28,郴州市,唐洞街道,资兴市,998.2954,24.4744,999999,54.6309,
GQZX,2025-06-03 02:00:00,28.4664,113.3325,63.76,长沙市,高桥镇,长沙县,1005.7753,24.6055,999999,45.5955,
HHCX,2025-06-03 02:00:00,28.0069,110.1928,133.26,怀化市,辰阳镇,辰溪县,997.0079,24.1821,999999,49.5281,
HHGZ,2025-06-03 02:00:00,28.5353,110.9139,219.4,怀化市,官庄镇,沅陵县,987.3493,23.5987,999999,43.5846,
HHHJ,2025-06-03 02:00:00,27.1053,109.9964,181.65,怀化市,桂花园乡,洪江区,980.9869,23.4055,999999,53.9927,
HHHT,2025-06-03 02:00:00,26.8767,109.7206,265.29,怀化市,林城镇,会同县,981.8283,23.4754,999999,50.8115,
HHJZ,2025-06-03 02:00:00,26.5617,109.6733,299.9,怀化市,渠阳镇,靖州苗族侗族自治县,977.9226,23.294,999999,51.6049,
HHSA,2025-06-03 02:00:00,28.1744,110.7831,239.99,怀化市,深子湖镇,溆浦县,989.7753,23.774,999999,51.321,
HHSQ,2025-06-03 02:00:00,27.5461,109.9483,229.59,怀化市,城中街道,鹤城区,985.9633,23.6301,999999,47.7739,
HHTD,2025-06-03 02:00:00,26.1589,109.7778,378.48,怀化市,双江镇,通道侗族自治县,969.1172,22.8487,999999,48.6699,
HHXH,2025-06-03 02:00:00,27.3681,109.1633,328.57,怀化市,晃州镇,新晃侗族自治县,974.5454,23.0206,999999,49.9681,
HHXP,2025-06-03 02:00:00,27.9122,110.6006,186.58,怀化市,卢峰镇,溆浦县,991.0235,23.8669,999999,47.6533,
HHZF,2025-06-03 02:00:00,27.5883,110.2794,172.54,怀化市,铜湾镇,中方县,992.5466,23.9852,999999,50.4255,
HNCL,2025-06-03 02:00:00,26.7883,113.5608,114.74,株洲市,洣江街道,茶陵县,1000.1011,24.4833,999999,52.6251,
HNHJ,2025-06-03 02:00:00,27.1164,109.7269,201.81,怀化市,江市镇,洪江市,989.0134,23.8437,999999,52.7444,
HNHY,2025-06-03 02:00:00,27.1492,112.3297,116.16,衡阳市,三湖镇,衡阳县,999.3982,24.4056,999999,48.543,
HNJH,2025-06-03 02:00:00,25.1503,111.6225,271.71,永州市,涔天河镇,江华瑶族自治县,981.6998,23.6549,999999,53.2553,
P1000,2025-06-03 02:00:00,29.5819,109.5853,523,湘西土家族苗族自治州,石牌,龙山县,946.3,20.9,81.0,40.01320873820072,20.01119204909277
P1001,2025-06-03 02:00:00,29.4103,109.5969,803.2,湘西土家族苗族自治州,茨岩塘,龙山县,920.2,19.2,89.0,37.54967001033398,19.789877293609354
P1003,2025-06-03 02:00:00,29.3381,109.4894,848,湘西土家族苗族自治州,茅坪,龙山县,912.9,19.4,100.0,45.57782599701619,22.514606669494402
P1006,2025-06-03 02:00:00,29.2897,109.4136,1224,湘西土家族苗族自治州,可立坡,龙山县,874.8,18.1,75.0,26.489193010246648,15.566983897318032
P1009,2025-06-03 02:00:00,28.8125,109.3497,330.2,湘西土家族苗族自治州,树木,龙山县,970.5,21.3,100.0,64.44953290641294,25.320002254222782
P1016,2025-06-03 02:00:00,28.2761,109.6769,243.7,湘西土家族苗族自治州,红枫林场,吉首市,979.1,21.4,92.0,48.551757349027305,23.437726357675153
P1018,2025-06-03 02:00:00,29.1372,109.3714,791.6,湘西土家族苗族自治州,喳啦坪,龙山县,918.2,18.7,100.0,47.9581028543809,21.55206085216996
P1021,2025-06-03 02:00:00,29.0394,109.3542,338,湘西土家族苗族自治州,咱果,龙山县,969.4,22.0,82.0,42.131860378040756,21.671193801816198
P1060,2025-06-03 02:00:00,29.1431,109.6892,372,湘西土家族苗族自治州,两岔,永顺县,965.5,22.5,88.0,44.270393448338716,23.976244735857392
P1062,2025-06-03 02:00:00,29.0975,109.7117,307.2,湘西土家族苗族自治州,首车,永顺县,970.1,23.0,82.0,45.633035897751796,23.02990830496509
P1063,2025-06-03 02:00:00,28.9867,109.6683,434.2,湘西土家族苗族自治州,西歧,永顺县,960.4,21.9,88.0,41.25934849692348,23.115312685305515
P1066,2025-06-03 02:00:00,28.8458,110.1953,845.2,湘西土家族苗族自治州,三合,永顺县,913.4,19.8,91.0,36.74499488909519,21.004078535271674
P1069,2025-06-03 02:00:00,29.0336,110.2889,352.2,湘西土家族苗族自治州,永茂,永顺县,962.0,22.5,78.0,35.73355029664324,21.25167147041905
P1070,2025-06-03 02:00:00,29.0189,110.1378,543.6,湘西土家族苗族自治州,五里,永顺县,947.8,21.3,88.0,42.693443327944145,22.281601983716047
P1073,2025-06-03 02:00:00,28.8172,110.1172,218.7,湘西土家族苗族自治州,长官,永顺县,981.1,22.4,81.0,43.61341155869238,21.935199495474752
P1074,2025-06-03 02:00:00,28.8608,109.9961,615.3,湘西土家族苗族自治州,马鞍,永顺县,946.2,21.3,70.0,37.663202966849134,17.724001577955946
P1075,2025-06-03 02:00:00,29.2,109.8333,561.1,湘西土家族苗族自治州,李家,永顺县,943.2,21.3,83.0,40.2332417578368,21.015601871004908
P1076,2025-06-03 02:00:00,29.2864,109.8842,447.4,湘西土家族苗族自治州,毛坝,永顺县,956.4,21.0,88.0,43.09419251058954,21.874724403636854
P1077,2025-06-03 02:00:00,29.2017,109.9564,405.1,湘西土家族苗族自治州,隆发,永顺县,961.0,21.9,84.0,41.83794159434234,22.064616654155262
P1083,2025-06-03 02:00:00,29.1953,109.7719,750.7,湘西土家族苗族自治州,岩门,永顺县,924.2,19.9,100.0,43.32457046971609,23.225046174156986
P1084,2025-06-03 02:00:00,29.0697,110.2394,416,湘西土家族苗族自治州,青坪,永顺县,960.9,23.4,92.0,44.531370518625415,26.471254392594094
P1086,2025-06-03 02:00:00,29.1339,110.1864,401.2,湘西土家族苗族自治州,柯溪,永顺县,962.5,23.7,92.0,58.30676861414369,26.954738825327798
P1089,2025-06-03 02:00:00,29.0811,109.9828,625.8,湘西土家族苗族自治州,天堂,永顺县,937.6,20.0,89.0,40.96031880016079,20.798829398317345
P1091,2025-06-03 02:00:00,28.7372,109.965,486.3,湘西土家族苗族自治州,新区,永顺县,952.1,20.8,87.0,44.854079619447354,21.36157128960829
P1093,2025-06-03 02:00:00,28.8628,109.7828,399.7,湘西土家族苗族自治州,西那司,永顺县,962.5,22.0,87.0,41.98833996117137,22.99260805802451
P1095,2025-06-03 02:00:00,29.2839,110.0114,435.2,湘西土家族苗族自治州,砂坝,永顺县,957.0,20.8,88.0,40.713202833627975,21.607106591787694
P1096,2025-06-03 02:00:00,28.9219,110.3042,576.2,湘西土家族苗族自治州,朗溪,永顺县,941.7,21.6,81.0,38.81801846379862,20.889808843917262
P1097,2025-06-03 02:00:00,28.8928,109.6961,441.7,湘西土家族苗族自治州,宝石,永顺县,955.3,21.1,88.0,43.79151872215532,22.009620148800526
P1098,2025-06-03 02:00:00,28.8408,109.2558,1225,湘西土家族苗族自治州,八面山景区,龙山县,873.6,19.0,67.0,23.87167055949486,14.713242135638897
P1099,2025-06-03 02:00:00,28.2106,109.5614,268.4,湘西土家族苗族自治州,黄石洞水库,吉首市,973.7,21.6,86.0,44.643355730734775,22.179303216998573
P1100,2025-06-03 02:00:00,28.4428,109.4178,544.4,湘西土家族苗族自治州,三塘,花垣县,949.0,21.5,81.0,43.221454419559265,20.762257478683082
P1101,2025-06-03 02:00:00,28.5158,109.5869,675.8,湘西土家族苗族自治州,排力,保靖县,931.1,20.9,86.0,45.70419980071812,21.24645081755528
P1103,2025-06-03 02:00:00,28.5381,109.7606,363,湘西土家族苗族自治州,葫芦,保靖县,967.3,22.3,81.0,48.810109719682266,21.802067480305535
P1104,2025-06-03 02:00:00,28.1497,109.3761,837.6,湘西土家族苗族自治州,两林,凤凰县,914.3,20.7,100.0,51.64842628330016,24.402702153994895
P1113,2025-06-03 02:00:00,28.61,109.3547,325.4,湘西土家族苗族自治州,毛沟,保靖县,970.6,21.4,86.0,42.90112883747589,21.909178986522424
P1127,2025-06-03 02:00:00,28.6269,109.5519,214.7,湘西土家族苗族自治州,复兴,保靖县,982.1,23.1,90.0,46.82729348111657,25.43026621281232
P1152,2025-06-03 02:00:00,28.5181,109.2814,301.4,湘西土家族苗族自治州,曲乐,花垣县,971.8,22.3,81.0,49.69091885258767,21.802067480305535
P1154,2025-06-03 02:00:00,28.4247,109.5,742.3,湘西土家族苗族自治州,排达鲁,花垣县,924.4,19.8,100.0,48.60653572536696,23.081404983815023
P1172,2025-06-03 02:00:00,28.4964,109.3892,520.6,湘西土家族苗族自治州,祥和,花垣县,948.9,22.2,87.0,53.71356874405803,23.274803015263952
P1173,2025-06-03 02:00:00,28.5092,109.4736,478.5,湘西土家族苗族自治州,兄弟河水库,花垣县,954.1,22.7,79.0,43.5596814009799,21.787302821210258
P1203,2025-06-03 02:00:00,28.6939,109.8253,382.8,湘西土家族苗族自治州,米多,古丈县,963.6,21.9,98.0,49.72309842339451,25.742052763181142
P1208,2025-06-03 02:00:00,28.4803,109.8911,271,湘西土家族苗族自治州,中寨,古丈县,975.6,22.2,83.0,42.61649006517333,22.204697129504687
P1231,2025-06-03 02:00:00,28.3511,109.9481,345.4,湘西土家族苗族自治州,大坪,吉首市,967.1,21.9,100.0,53.05867961111604,26.267400778756265
P1232,2025-06-03 02:00:00,28.3381,109.5619,622.2,湘西土家族苗族自治州,排兄,吉首市,936.1,21.1,98.0,65.90199055799445,24.510713347527858
P1233,2025-06-03 02:00:00,28.2128,109.695,265.6,湘西土家族苗族自治州,周家寨,吉首市,976.4,22.2,79.0,45.76038771976112,21.134591243745426
P1236,2025-06-03 02:00:00,28.2122,109.8067,176.6,湘西土家族苗族自治州,河溪,吉首市,986.9,21.9,85.0,44.61976127344358,22.327290661942826
P1240,2025-06-03 02:00:00,28.3172,109.6519,388,湘西土家族苗族自治州,寨阳炮点,吉首市,962.8,20.9,91.0,40.47844275080111,22.481709586017804
P1241,2025-06-03 02:00:00,28.3233,109.5911,212.6,湘西土家族苗族自治州,矮寨,吉首市,982.4,22.0,83.0,45.42795252516637,21.93547665305786
P1246,2025-06-03 02:00:00,28.2561,109.6425,176.2,湘西土家族苗族自治州,八月湖水库,吉首市,984.9,21.8,86.0,43.58729417747813,22.452343060183257
P1248,2025-06-03 02:00:00,28.2953,109.7417,275.3,湘西土家族苗族自治州,镇溪,吉首市,977.2,22.0,86.0,41.294431781658005,22.728325206782845
P1291,2025-06-03 02:00:00,28.2233,110.0886,290.9,湘西土家族苗族自治州,大长坡,泸溪县,973.6,21.8,82.0,46.70132307990999,21.40804803412822
P1295,2025-06-03 02:00:00,28.0111,109.9969,235.1,湘西土家族苗族自治州,公羊,泸溪县,980.3,22.2,87.0,44.83570606529249,23.274803015263952
P1298,2025-06-03 02:00:00,28.1747,109.9475,213.8,湘西土家族苗族自治州,白羊溪,泸溪县,982.1,22.1,84.0,45.47627132975748,22.335627386307127
P1300,2025-06-03 02:00:00,28.1306,109.7322,140.2,湘西土家族苗族自治州,水卡,泸溪县,985.7,22.0,89.0,44.447239257940055,23.52117376050783
P1302,2025-06-03 02:00:00,28.11,109.89,383.2,湘西土家族苗族自治州,永兴场,泸溪县,964.2,20.7,86.0,45.20651898996639,20.986323852435607
P1303,2025-06-03 02:00:00,28.1264,109.8864,345,湘西土家族苗族自治州,小章,泸溪县,967.3,21.6,86.0,54.47843556093088,22.179303216998573
P1304,2025-06-03 02:00:00,28.2622,109.9231,150,湘西土家族苗族自治州,潭溪,泸溪县,992.8,22.4,86.0,52.53662376445271,23.28922415568924
P1306,2025-06-03 02:00:00,28.2403,110.0172,130,湘西土家族苗族自治州,甘溪,泸溪县,993.9,22.9,85.0,49.69522631981953,23.728225824034677
P1307,2025-06-03 02:00:00,28.3397,110.0339,230.1,湘西土家族苗族自治州,梁家潭,泸溪县,982.0,21.8,85.0,50.58693009142689,22.191269303669497
P1321,2025-06-03 02:00:00,28.0744,110.0911,139,湘西土家族苗族自治州,罗家,泸溪县,992.5,21.5,94.0,53.33742874510297,24.094471641928514
P1333,2025-06-03 02:00:00,27.9553,109.9908,172.6,湘西土家族苗族自治州,石榴坪,泸溪县,988.8,21.6,96.0,41.7149304523776,24.7582919631612
P1345,2025-06-03 02:00:00,28.0725,109.3836,799.3,湘西土家族苗族自治州,腊尔山,凤凰县,917.9,21.7,78.0,42.60889517365834,20.239600556127247
P1346,2025-06-03 02:00:00,28.1683,109.6061,226,湘西土家族苗族自治州,拉务,凤凰县,980.9,21.8,87.0,40.62781486052916,22.71341681669702
P1347,2025-06-03 02:00:00,28.0433,109.4572,605.5,湘西土家族苗族自治州,山江,凤凰县,939.2,22.2,90.0,44.78254072945275,24.077382429583395
P1348,2025-06-03 02:00:00,28.095,109.6017,337.4,湘西土家族苗族自治州,吉信,凤凰县,969.6,23.6,84.0,45.1082772693023,24.46292290692874
P1349,2025-06-03 02:00:00,27.9136,109.3144,673.9,湘西土家族苗族自治州,龙塘河水库,凤凰县,931.3,21.3,83.0,46.51459287839569,21.015601871004908
P1357,2025-06-03 02:00:00,27.9906,109.5111,378.5,湘西土家族苗族自治州,长潭岗水库,凤凰县,964.3,22.3,79.0,44.856649941909765,21.263744826470827
P1358,2025-06-03 02:00:00,28.0781,109.7528,401.4,湘西土家族苗族自治州,雷公洞,凤凰县,961.6,21.6,82.0,46.684591307077966,21.14770771853352
P1359,2025-06-03 02:00:00,27.8781,109.4486,427.3,湘西土家族苗族自治州,新场中学,凤凰县,961.0,21.6,85.0,40.17717874083742,21.92140434238231
P1367,2025-06-03 02:00:00,27.8942,109.5522,398.9,湘西土家族苗族自治州,林峰,凤凰县,962.5,22.0,83.0,48.918101706333886,21.93547665305786
P1368,2025-06-03 02:00:00,27.9197,109.6119,322,湘西土家族苗族自治州,古城,凤凰县,969.9,23.0,83.0,51.95916090520119,23.310760845269545
P1370,2025-06-03 02:00:00,28.2753,109.7925,162.3,湘西土家族苗族自治州,马鞍,吉首市,988.6,22.2,84.0,44.85706153633384,22.472223600944503
P1371,2025-06-03 02:00:00,28.1964,109.9825,359.9,湘西土家族苗族自治州,马入田,泸溪县,966.6,22.4,84.0,46.484592497902234,22.747614291603444
P1372,2025-06-03 02:00:00,28.755,109.85,433.1,湘西土家族苗族自治州,红石林,古丈县,959.6,21.4,92.0,42.86223593498733,23.437726357675153
P1373,2025-06-03 02:00:00,28.4178,109.9347,236,湘西土家族苗族自治州,坪坝学校,古丈县,982.0,22.4,90.0,48.07822843470086,24.372443883860832
P1374,2025-06-03 02:00:00,28.1769,109.4631,766.4,湘西土家族苗族自治州,大坪,凤凰县,921.5,20.5,84.0,42.95986880782255,20.24692514733035
P1375,2025-06-03 02:00:00,28.0228,109.5153,444,湘西土家族苗族自治州,建塘,凤凰县,956.9,22.5,77.0,42.440810800609434,20.979214143875218
P1376,2025-06-03 02:00:00,28.4506,109.8275,339.8,湘西土家族苗族自治州,团结,吉首市,969.0,21.7,89.0,49.18415611505283,23.093903198658012
P1383,2025-06-03 02:00:00,28.7953,110.2147,765.7,湘西土家族苗族自治州,竹坪,永顺县,921.5,20.7,81.0,44.56683334971278,19.766188744735867
P1385,2025-06-03 02:00:00,28.4478,109.7886,222.1,湘西土家族苗族自治州,冷寨河茶园,保靖县,982.1,22.1,80.0,43.37277954182091,21.272026082197268
P1386,2025-06-03 02:00:00,28.7764,109.7872,444.3,湘西土家族苗族自治州,友和,永顺县,957.3,21.2,85.0,43.44338804376579,21.390293363181534
P1387,2025-06-03 02:00:00,29.1019,109.9569,411.8,湘西土家族苗族自治州,颗砂,永顺县,960.6,21.5,87.0,41.98009014717536,22.30020247710405
P1390,2025-06-03 02:00:00,29.5056,109.4525,526,湘西土家族苗族自治州,白泥,龙山县,948.8,20.9,91.0,51.98494320132142,22.481709586017804
P1393,2025-06-03 02:00:00,29.5736,109.7031,817.3,湘西土家族苗族自治州,乌鸦,龙山县,918.7,19.2,82.0,33.69351354048285,18.233370090741204
P1395,2025-06-03 02:00:00,29.1778,109.6242,590,湘西土家族苗族自治州,马蹄,龙山县,942.8,20.9,83.0,41.52066015794233,20.505295556477776
P1397,2025-06-03 02:00:00,28.9228,109.4531,327,湘西土家族苗族自治州,金星,龙山县,969.4,21.6,86.0,44.59614970243234,22.179303216998573
P1400,2025-06-03 02:00:00,28.3761,109.6114,780.8,湘西土家族苗族自治州,排料,花垣县,922.2,21.3,79.0,42.462347925837996,20.002801780835995
P1414,2025-06-03 02:00:00,28.9036,110.0658,714.9,湘西土家族苗族自治州,花桥,永顺县,927.8,21.2,82.0,41.6420329827147,20.635341832716303
P1415,2025-06-03 02:00:00,28.4339,109.7911,219,湘西土家族苗族自治州,隘口,吉首市,981.8,22.5,89.0,48.848003012864545,24.248702062401225
P1416,2025-06-03 02:00:00,29.4122,109.9217,352.6,湘西土家族苗族自治州,万民,永顺县,965.6,21.1,86.0,46.9321855363198,21.509401509055056
P1418,2025-06-03 02:00:00,27.8297,109.6186,448.7,湘西土家族苗族自治州,水打田,凤凰县,955.8,21.6,83.0,43.06080406741857,21.405606593149788
P1421,2025-06-03 02:00:00,27.9817,109.3531,650.8,湘西土家族苗族自治州,麻冲,凤凰县,933.6,21.7,75.0,39.651368123776294,19.461154380891582
P1422,2025-06-03 02:00:00,28.1561,109.7278,172.8,湘西土家族苗族自治州,大兴,吉首市,987.7,22.3,93.0,51.716984656437006,25.032003403313762
P1423,2025-06-03 02:00:00,28.3494,109.7561,174.4,湘西土家族苗族自治州,峒河,吉首市,987.1,22.3,81.0,45.55686107006747,21.802067480305535
P1424,2025-06-03 02:00:00,28.3158,109.8158,272.3,湘西土家族苗族自治州,深坳,吉首市,976.2,20.9,99.0,41.34707550314875,24.458123615557827
P1425,2025-06-03 02:00:00,28.3147,109.6806,262.5,湘西土家族苗族自治州,曙光,吉首市,977.3,22.2,86.0,42.026286507867916,23.007276543824133
P1438,2025-06-03 02:00:00,28.2097,109.6703,261.4,湘西土家族苗族自治州,高新区,吉首市,976.4,25.7,83.0,50.865186577653006,27.40827510346762
P1439,2025-06-03 02:00:00,28.2308,109.5711,667.8,湘西土家族苗族自治州,十八湾,吉首市,932.3,20.6,83.0,42.18952371723176,20.129730568114013
P1440,2025-06-03 02:00:00,28.2758,109.8289,166.4,湘西土家族苗族自治州,司马,吉首市,987.1,21.5,89.0,52.204893598593465,22.81285080991104
P1441,2025-06-03 02:00:00,28.3139,109.7672,227,湘西土家族苗族自治州,望江坳,吉首市,980.4,22.3,85.0,47.670955539539776,22.87871278797494
P1442,2025-06-03 02:00:00,28.1961,109.8253,365.1,湘西土家族苗族自治州,楠木,吉首市,965.7,21.6,84.0,39.60338185917172,21.663505467766047
P1443,2025-06-03 02:00:00,28.3708,109.8458,446.9,湘西土家族苗族自治州,檀木,吉首市,955.5,21.6,93.0,44.75535758365372,23.984595339312413
P1444,2025-06-03 02:00:00,28.3614,109.6964,195.1,湘西土家族苗族自治州,龙舞,吉首市,983.7,22.9,82.0,47.71516721983622,22.890759030245217
P1446,2025-06-03 02:00:00,28.8114,109.7364,295.3,湘西土家族苗族自治州,柏杨,永顺县,977.4,21.7,85.0,50.75921808398096,22.05597496501046
P1450,2025-06-03 02:00:00,29.1842,109.8922,440,湘西土家族苗族自治州,廻龙,永顺县,957.0,22.3,81.0,39.52753133974249,21.802067480305535
P1451,2025-06-03 02:00:00,28.9425,110.0286,559.4,湘西土家族苗族自治州,铜瓦,永顺县,944.1,21.1,86.0,40.41881013549349,21.509401509055056
P1452,2025-06-03 02:00:00,29.3308,109.8131,454.2,湘西土家族苗族自治州,西库,永顺县,955.9,20.9,86.0,40.03015441866386,21.24645081755528
P1461,2025-06-03 02:00:00,28.7444,109.8122,359.8,湘西土家族苗族自治州,坐苦坝,古丈县,965.6,21.7,85.0,44.048470925861864,22.05597496501046
P1462,2025-06-03 02:00:00,28.5697,109.8733,687.3,湘西土家族苗族自治州,翁草,古丈县,929.8,20.1,100.0,46.209696472601664,23.514683799663736
P1463,2025-06-03 02:00:00,28.0042,109.8947,202.1,湘西土家族苗族自治州,晒洲田,泸溪县,984.1,21.8,91.0,47.24020795663089,23.757711842752055
P1472,2025-06-03 02:00:00,27.9958,109.8042,279.5,湘西土家族苗族自治州,踏虎,泸溪县,976.0,21.6,82.0,50.224301721930125,21.14770771853352
P1473,2025-06-03 02:00:00,28.1917,110.1078,325.8,湘西土家族苗族自治州,顺江田,泸溪县,970.2,22.2,84.0,47.81508866044695,22.472223600944503
P1479,2025-06-03 02:00:00,28.5933,109.8417,636.5,湘西土家族苗族自治州,排茹,古丈县,934.7,21.1,90.0,43.859292615753446,22.50983878854599
P1480,2025-06-03 02:00:00,29.1408,110.0103,392.3,湘西土家族苗族自治州,车坪,永顺县,962.3,22.3,84.0,42.68255237193625,22.60955146105759
P1484,2025-06-03 02:00:00,29.4811,109.4144,510,湘西土家族苗族自治州,华塘,龙山县,949.7,20.5,89.0,43.43055987141205,21.45209926324287
P1485,2025-06-03 02:00:00,28.9583,109.3989,254.1,湘西土家族苗族自治州,贾市,龙山县,978.3,22.6,82.0,43.07003610974207,22.4777211239831
P1486,2025-06-03 02:00:00,29.33,109.9081,442.7,湘西土家族苗族自治州,团结,永顺县,955.3,20.1,92.0,41.604566670674075,21.633509095690638
P1487,2025-06-03 02:00:00,29.2878,109.8228,539.5,湘西土家族苗族自治州,农林,永顺县,945.5,20.8,88.0,39.513196713655105,21.607106591787694
P1488,2025-06-03 02:00:00,28.9267,110.2083,345.3,湘西土家族苗族自治州,官坝,永顺县,969.3,21.9,81.0,37.233263239364156,21.276594630792577
P1489,2025-06-03 02:00:00,28.8511,110.3261,326.9,湘西土家族苗族自治州,楠木,永顺县,971.2,21.9,81.0,37.233263239364156,21.276594630792577
P1490,2025-06-03 02:00:00,29.2603,109.73,392.5,湘西土家族苗族自治州,新场,永顺县,961.8,21.4,86.0,42.61829447450768,21.909178986522424
P1501,2025-06-03 02:00:00,29.5308,110.0994,318.6,张家界市,凉水口,桑植县,973.6,21.9,99.0,51.43849190961956,26.004726770968702
P1503,2025-06-03 02:00:00,29.5092,110.2944,334.5,张家界市,芙蓉桥,桑植县,971.3,22.1,84.0,46.73570111382033,22.335627386307127
P1504,2025-06-03 02:00:00,29.7025,110.5811,1067.1,张家界市,人潮溪镇白石,桑植县,892.5,19.6,65.0,25.17130075020072,14.817698827813732
P1505,2025-06-03 02:00:00,29.67,109.8344,1053,张家界市,八大公山,桑植县,894.0,19.4,70.0,26.80077220147669,15.760224668646078
P1506,2025-06-03 02:00:00,29.6097,110.4733,538.8,张家界市,官地坪,桑植县,945.9,21.5,100.0,49.16484809956222,25.632416640349483
P1508,2025-06-03 02:00:00,29.4389,110.2358,290.4,张家界市,瑞塔铺,桑植县,976.1,22.1,95.0,48.698514419696565,25.26053097260925
P1509,2025-06-03 02:00:00,29.4633,110.4847,376,张家界市,走马坪,桑植县,964.8,22.8,80.0,41.09816537259971,22.197411659928527
P1510,2025-06-03 02:00:00,29.6764,110.1533,394,张家界市,龙潭坪,桑植县,961.7,22.7,86.0,44.176428985534606,23.71782332435547
P1511,2025-06-03 02:00:00,29.6558,110.0108,503.9,张家界市,桑植坪,桑植县,952.6,21.3,88.0,44.477310394267896,22.281601983716047
P1512,2025-06-03 02:00:00,29.7036,109.9156,438.1,张家界市,五道水,桑植县,963.0,22.1,86.0,42.85439395293614,22.867428038362057
P1513,2025-06-03 02:00:00,29.3911,110.0075,489.3,张家界市,廖家村,桑植县,954.9,20.2,100.0,60.29348551041833,23.660687520680476
P1514,2025-06-03 02:00:00,29.4925,109.9892,307.4,张家界市,陈家河,桑植县,971.7,21.9,97.0,47.10745130853079,25.479378755393576
P1515,2025-06-03 02:00:00,29.5467,109.8644,377.4,张家界市,河口,桑植县,966.5,22.0,86.0,46.30881947391871,22.728325206782845
P1516,2025-06-03 02:00:00,29.4869,110.1578,458.6,张家界市,洪家关,桑植县,957.5,21.2,100.0,52.11065691277413,25.16505101550769
P1517,2025-06-03 02:00:00,29.4761,110.2389,298,张家界市,刘家坪,桑植县,975.7,18.4,99.0,45.58860807132567,20.939223141038045
P1518,2025-06-03 02:00:00,29.6175,110.6047,271,张家界市,人潮溪,桑植县,980.8,23.0,83.0,47.44102087293835,23.310760845269545
P1521,2025-06-03 02:00:00,29.3569,110.0775,311.6,张家界市,利福塔,桑植县,974.1,21.9,94.0,50.77867808223869,24.69135673203089
P1522,2025-06-03 02:00:00,29.5875,110.0053,564.7,张家界市,沙塔坪,桑植县,945.0,21.6,92.0,49.4667821458306,23.72669646469615
P1523,2025-06-03 02:00:00,29.5469,110.3881,455,张家界市,马合口,桑植县,958.5,22.0,83.0,41.94741033354648,21.93547665305786
P1524,2025-06-03 02:00:00,29.4897,110.3567,490.6,张家界市,麦地坪,桑植县,954.2,22.4,90.0,51.67681673979532,24.372443883860832
P1526,2025-06-03 02:00:00,29.6494,110.0861,485.5,张家界市,苦竹坪,桑植县,955.3,22.2,83.0,40.278063531825055,22.204697129504687
P1527,2025-06-03 02:00:00,29.4667,109.8192,616.8,张家界市,上河溪,桑植县,941.7,21.2,89.0,45.8882094765734,22.396895403801842
P1528,2025-06-03 02:00:00,29.4292,110.3028,346.7,张家界市,空壳树,桑植县,970.2,21.7,84.0,40.410095016847535,21.796492906598573
P1529,2025-06-03 02:00:00,29.6306,110.3592,241.2,张家界市,淋溪河,桑植县,982.2,23.0,100.0,52.5408571002725,28.085254030445235
P1530,2025-06-03 02:00:00,29.4875,110.5503,375.6,张家界市,竹叶坪,桑植县,968.5,23.6,97.0,40.0627738442895,28.24885145204866
P1531,2025-06-03 02:00:00,29.6497,109.8639,644.8,张家界市,细砂坪,桑植县,937.4,21.2,99.0,58.21070019577016,24.913400505352612
P1532,2025-06-03 02:00:00,29.5192,110.1553,475,张家界市,桥自弯,桑植县,955.9,21.4,87.0,43.467782261508795,22.163936881714548
P1533,2025-06-03 02:00:00,29.3258,109.9839,385.8,张家界市,上洞街,桑植县,965.4,21.0,97.0,59.66229978361782,24.111912126736073
P1534,2025-06-03 02:00:00,29.77,110.0656,1327,张家界市,天平山,桑植县,867.4,14.9,97.0,30.500480411505546,16.423149644555174
P1537,2025-06-03 02:00:00,29.3897,110.1606,367.6,张家界市,澧源,桑植县,968.0,21.1,100.0,52.58847337527211,25.010931987273324
P1538,2025-06-03 02:00:00,29.5481,110.4925,475.3,张家界市,分水岭,桑植县,954.9,22.0,87.0,43.912208855359914,22.99260805802451
P1540,2025-06-03 02:00:00,29.6375,110.275,795.2,张家界市,天星山林场,桑植县,921.7,21.0,93.0,44.36506500587077,23.11760647202531
P1542,2025-06-03 02:00:00,29.4267,110.1075,286.6,张家界市,洪家关乡南岔,桑植县,976.7,22.0,93.0,51.17626010219199,24.57830516547447
P1543,2025-06-03 02:00:00,29.465,109.91,626.7,张家界市,夹石河,桑植县,942.5,21.1,98.0,49.168791025952544,24.510713347527858
P1544,2025-06-03 02:00:00,29.7122,110.1894,786.9,张家界市,赶坪,桑植县,922.5,19.4,90.0,39.62446594175854,20.26314600254496
P1545,2025-06-03 02:00:00,29.5228,110.6036,838.8,张家界市,竹叶坪乡鸡公垭,桑植县,918.1,19.8,100.0,39.73794070136984,23.081404983815023
P1546,2025-06-03 02:00:00,29.7336,109.8025,681,张家界市,五道水镇连家湾,桑植县,934.1,20.1,84.0,41.99452771295485,19.75233439171754
P1547,2025-06-03 02:00:00,29.7419,110.0153,1127.8,张家界市,四门岩林场,桑植县,887.5,18.6,90.0,36.647054892255355,19.27579264106837
P1549,2025-06-03 02:00:00,29.5375,109.8092,631.2,张家界市,河口乡塘坊,桑植县,939.5,20.6,84.0,40.582405542826876,20.37225744242864
P1601,2025-06-03 02:00:00,29.3428,110.5597,450.3,张家界市,武陵源,武陵源区,958.1,23.2,95.0,43.61164649578607,27.00598802837714
P1602,2025-06-03 02:00:00,29.2456,110.5181,332.9,张家界市,协合,武陵源区,972.5,22.9,88.0,43.71865821368289,24.56569261782414
P1603,2025-06-03 02:00:00,29.3553,110.5294,375.4,张家界市,军地坪,武陵源区,967.8,22.9,90.0,40.7736011988704,25.124003813683778
P1604,2025-06-03 02:00:00,29.4078,110.4433,547,张家界市,天子山,武陵源区,949.0,21.8,83.0,45.691123510174044,21.66912179064198
P1605,2025-06-03 02:00:00,29.3589,110.3836,359.4,张家界市,中湖,武陵源区,963.5,21.9,90.0,45.607793105025436,23.640660700880638
P1606,2025-06-03 02:00:00,29.3664,110.5828,264.5,张家界市,索溪峪,武陵源区,976.3,23.8,77.0,43.44276440723801,22.69626048047911
P1607,2025-06-03 02:00:00,29.3031,110.4344,652.9,张家界市,锣鼓塔,武陵源区,936.2,21.9,100.0,41.53465700376557,26.267400778756265
P1610,2025-06-03 02:00:00,29.3897,110.4583,1087,张家界市,武陵源景区,武陵源区,888.8,20.2,74.0,32.182693868036786,17.508908765303552
P1702,2025-06-03 02:00:00,29.5033,110.7636,152.1,张家界市,江垭,慈利县,989.5,23.7,76.0,39.20032491041605,22.2669581600534
P1703,2025-06-03 02:00:00,29.2647,110.725,156.6,张家界市,阳和,慈利县,989.0,23.8,89.0,45.03912281062135,26.233340035878452
P1708,2025-06-03 02:00:00,29.3925,110.9825,170.4,张家界市,岩泊渡,慈利县,989.0,24.4,76.0,45.30865921429387,23.223830037352293
P1709,2025-06-03 02:00:00,29.4267,110.6156,352.4,张家界市,三官寺,慈利县,966.8,23.0,83.0,40.83712594197769,23.310760845269545
P1717,2025-06-03 02:00:00,29.1594,110.8261,840.7,张家界市,洞溪,慈利县,914.0,18.5,92.0,35.95405365121383,19.581069988466652
P1718,2025-06-03 02:00:00,29.4986,111.3256,102.8,张家界市,广福桥,慈利县,995.1,26.6,64.0,43.53837255968428,22.29014519299812
P1722,2025-06-03 02:00:00,29.5528,111.0339,179.4,张家界市,东岳观,慈利县,987.5,23.8,78.0,39.337980106926665,22.991017110095722
P1731,2025-06-03 02:00:00,29.4453,110.9283,589.6,张家界市,高峰,慈利县,943.0,23.6,67.0,30.323530047336675,19.512093271002684
P1732,2025-06-03 02:00:00,29.175,110.6789,239.8,张家界市,金岩,慈利县,981.7,23.7,86.0,47.079239123529376,25.196821075849897
P1733,2025-06-03 02:00:00,29.2819,110.9356,595.3,张家界市,赵家垭水库,慈利县,941.0,23.2,52.0,19.199175955590675,14.782225026059066
P1734,2025-06-03 02:00:00,29.6422,110.9561,395.1,张家界市,国太桥,慈利县,985.0,24.1,71.0,37.58989918242427,21.308802391389378
P1746,2025-06-03 02:00:00,29.4006,110.6997,614.9,张家界市,大峡谷,慈利县,940.1,22.9,100.0,41.5270446788462,27.915559792981977
P1801,2025-06-03 02:00:00,29.0119,110.4953,498.1,张家界市,天门山,永定区,950.3,22.1,99.0,41.786609872262034,26.324132276719116
P1802,2025-06-03 02:00:00,29.2275,110.6203,292,张家界市,合作桥,永定区,976.5,22.6,93.0,49.346002255427166,25.493025177200348
P1803,2025-06-03 02:00:00,29.0169,110.7228,372.2,张家界市,沅古坪,永定区,967.2,22.4,75.0,36.30968457471949,20.31036990321736
P1804,2025-06-03 02:00:00,29.2819,110.3253,386.9,张家界市,教字垭,永定区,950.5,22.0,96.0,53.25425827831102,25.371153719199455
P1805,2025-06-03 02:00:00,29.1869,110.3919,219.4,张家界市,尹家溪,永定区,981.4,23.2,87.0,45.92128289712673,24.731799562829593
P1806,2025-06-03 02:00:00,29.1486,110.5622,190.4,张家界市,阳湖坪,永定区,988.2,23.9,84.0,52.89805443753421,24.909051602696916
P1807,2025-06-03 02:00:00,29.165,110.2031,187.1,张家界市,茅岩河,永定区,984.7,23.8,82.0,49.70294355723412,24.17004362856217
P1808,2025-06-03 02:00:00,29.0464,110.8164,383.1,张家界市,王家坪,永定区,965.6,22.6,86.0,41.00548828694263,23.574195325153006
P1809,2025-06-03 02:00:00,29.1167,110.3794,214,张家界市,枫香岗,永定区,984.7,23.2,89.0,44.43797030780388,25.300346679216478
P1810,2025-06-03 02:00:00,29.1853,110.1164,336.1,张家界市,罗塔坪,永定区,967.4,22.7,88.0,46.26445993772914,24.26940061096839
P1811,2025-06-03 02:00:00,29.2661,110.2558,369.4,张家界市,罗水,永定区,967.4,21.8,86.0,50.66684878005615,22.452343060183257
P1812,2025-06-03 02:00:00,29.0867,110.3375,162,张家界市,后坪,永定区,987.9,25.0,71.0,41.5049302263434,22.488748996929726
P1813,2025-06-03 02:00:00,29.1603,110.4053,173.8,张家界市,大庸桥,永定区,988.9,23.5,100.0,58.224608593505245,28.947353134103878
P1814,2025-06-03 02:00:00,29.3397,110.3097,504.2,张家界市,桥头,永定区,950.6,20.9,99.0,51.449677680203095,24.458123615557827
P1815,2025-06-03 02:00:00,28.9797,110.6728,392,张家界市,和平岗,永定区,973.2,22.4,82.0,40.52064666966032,22.206004427517644
P1816,2025-06-03 02:00:00,29.0183,110.6217,602.7,张家界市,谢家垭,永定区,939.2,22.2,78.0,36.90869515038306,20.86706477230561
P1817,2025-06-03 02:00:00,29.1556,110.3086,407.4,张家界市,三家馆,永定区,961.3,22.7,100.0,42.01918000985945,27.578864330645896
P1818,2025-06-03 02:00:00,28.9306,110.4356,348.6,张家界市,四都坪,永定区,965.9,22.2,100.0,41.1627842219289,26.75264714398155
P1820,2025-06-03 02:00:00,29.2656,110.15,376.2,张家界市,青安,永定区,964.2,22.4,96.0,47.46862560158635,25.99727347611822
P1821,2025-06-03 02:00:00,29.0967,110.4478,203.4,张家界市,南庄坪,永定区,985.9,22.9,96.0,60.65561586983015,26.798937401262695
P1822,2025-06-03 02:00:00,29.1864,110.5069,252.8,张家界市,新桥,永定区,980.4,23.6,90.0,50.76746006720763,26.210274543137935
P1824,2025-06-03 02:00:00,29.1114,110.5189,253.3,张家界市,西溪坪,永定区,980.3,23.1,90.0,42.33062422121329,25.43026621281232
P1826,2025-06-03 02:00:00,28.9906,110.8103,220.9,张家界市,马头溪,永定区,984.8,22.6,82.0,44.18149900986986,22.4777211239831
P1851,2025-06-03 02:00:00,29.3461,110.3644,468,张家界市,小溪峪水库,永定区,957.8,21.1,100.0,49.66782678474524,25.010931987273324
P1852,2025-06-03 02:00:00,29.0808,110.4783,255,张家界市,官黎坪,永定区,977.9,22.8,91.0,45.40272695877239,25.2495557631687
P1856,2025-06-03 02:00:00,29.1397,110.4892,186.8,张家界市,崇文,永定区,986.0,23.0,83.0,49.51969859325155,23.310760845269545
P1857,2025-06-03 02:00:00,29.2292,110.4403,248,张家界市,沙堤,永定区,978.1,22.7,99.0,55.185681433218264,27.30307568733944
P1858,2025-06-03 02:00:00,28.9697,110.4528,892.5,张家界市,姚家界,永定区,909.9,20.7,100.0,42.60247481017183,24.402702153994895
P1904,2025-06-03 02:00:00,29.9367,110.7842,285,常德市,壶瓶山,石门县,980.3,22.2,81.0,34.86688254146279,21.66964418662506
P1909,2025-06-03 02:00:00,29.8836,110.5408,1123,常德市,南北,石门县,887.0,19.6,85.0,34.956420059407336,19.376990774833338
P1910,2025-06-03 02:00:00,29.9258,110.6756,1469,常德市,东山峰,石门县,848.5,18.1,53.0,20.97858265529109,11.00066862077141
P1913,2025-06-03 02:00:00,29.7033,112.0272,38,常德市,青龙窖,澧县,1004.6,26.5,51.0,25.272522461256195,17.657970650642127
P1914,2025-06-03 02:00:00,29.8247,111.5922,99,常德市,金罗,澧县,996.7,25.8,73.0,41.14382897970106,24.24956934978745
P1920,2025-06-03 02:00:00,29.9772,111.0706,274,常德市,太平,石门县,976.9,23.0,77.0,40.831463319701285,21.62564560344283
P1931,2025-06-03 02:00:00,29.7106,111.5417,76,常德市,官亭水库,临澧县,999.5,25.1,77.0,44.45438516775077,24.53514823763693
P1933,2025-06-03 02:00:00,29.6758,111.6553,26.1,常德市,城头山,澧县,1003.5,25.7,80.0,37.76865235283748,26.417614557559155
P1940,2025-06-03 02:00:00,29.6808,111.1444,717.7,常德市,白云山林场,石门县,928.6,22.5,62.0,31.48326203360118,16.89235424571771
P1950,2025-06-03 02:00:00,29.5639,111.6178,55,常德市,停弦渡,临澧县,1000.2,26.6,68.0,43.111951339740884,23.683279267560508
P1953,2025-06-03 02:00:00,29.5764,112.105,30,常德市,水管站,安乡县,1005.2,25.9,68.0,31.703720978919424,22.72300307213442
P1960,2025-06-03 02:00:00,29.5481,111.6556,70,常德市,水阁,临澧县,998.0,26.9,60.0,38.099483589560215,21.269619913750358
P1968,2025-06-03 02:00:00,29.5453,112.1906,41,常德市,安全,安乡县,1004.9,25.8,66.0,30.031020210834516,21.924268179259887
P1973,2025-06-03 02:00:00,29.4153,111.3825,100.9,常德市,蒙泉水库,石门县,997.0,25.9,73.0,42.59359966982532,24.393812121556063
P1979,2025-06-03 02:00:00,29.4189,111.9708,48.8,常德市,毛里湖,津市市,1004.6,26.2,69.0,35.822793277981944,23.470447923318865
P1981,2025-06-03 02:00:00,29.3769,111.5444,83,常德市,文家店,临澧县,998.9,25.7,68.0,41.58685082419334,22.454972373925283
P1985,2025-06-03 02:00:00,29.3478,111.7061,89,常德市,四新岗,临澧县,998.4,26.5,71.0,44.37412095942593,24.58266502344296
P1993,2025-06-03 02:00:00,29.28,112.1528,31,常德市,下渔口,安乡县,1005.4,25.1,83.0,48.15055059544119,26.446977970439804
P1999,2025-06-03 02:00:00,29.2581,111.5381,83.6,常德市,王家垱水库,桃源县,997.1,26.0,72.0,39.201831801630576,24.20265687401748
P2002,2025-06-03 02:00:00,29.1975,111.1814,98.5,常德市,黄石水库,桃源县,995.6,24.4,76.0,41.57868891062826,23.223830037352293
P2005,2025-06-03 02:00:00,29.1881,111.6328,20.4,常德市,蔡家岗,鼎城区,1004.2,26.3,70.0,45.06822568182474,23.95181003697684
P2025,2025-06-03 02:00:00,29.0611,110.9786,173.8,常德市,牛车河,桃源县,985.2,24.9,76.0,44.92519697889009,23.92916792615907
P2027,2025-06-03 02:00:00,29.0508,111.9961,27,常德市,罐头嘴,汉寿县,1005.3,24.3,82.0,34.684843355669884,24.907465161565483
P2028,2025-06-03 02:00:00,29.0361,111.6239,36,常德市,农科院,武陵区,1004.7,24.7,77.0,50.75941026603892,23.9559304139468
P2029,2025-06-03 02:00:00,29.0325,111.7306,29,常德市,东江,武陵区,1005.1,25.3,70.0,44.16694080259801,22.572114407214084
P2030,2025-06-03 02:00:00,29.0528,111.6778,51,常德市,文理学院,武陵区,1004.9,25.3,68.0,41.964053928181045,21.92719685272226
P2042,2025-06-03 02:00:00,28.9864,111.7983,28,常德市,观音寺电排,武陵区,1005.1,24.6,74.0,39.19891666890514,22.885230396321074
P2043,2025-06-03 02:00:00,28.8669,111.475,48.7,常德市,新桥电排,桃源县,1003.9,24.5,74.0,41.035095967870355,22.74859617028229
P2044,2025-06-03 02:00:00,28.9611,111.7544,50,常德市,伍家嘴,武陵区,1004.6,25.4,71.0,46.31994710481659,23.03126460533173
P2047,2025-06-03 02:00:00,28.945,110.9653,371.5,常德市,观音寺,桃源县,965.2,21.4,82.0,41.39817805422918,20.89014740575394
P2049,2025-06-03 02:00:00,28.91,111.7369,40,常德市,市二中,武陵区,1002.4,25.2,69.0,37.87501394042717,22.11750509026281
P2054,2025-06-03 02:00:00,28.8933,111.8183,55,常德市,聂家桥,汉寿县,1005.0,24.9,71.0,40.357367999938035,22.354880562595973
P2074,2025-06-03 02:00:00,28.7228,111.7731,86,常德市,江东市水库,汉寿县,998.7,25.4,69.0,39.467736021968314,22.38249658828013
P2075,2025-06-03 02:00:00,28.6942,112.1417,95,常德市,军山铺,汉寿县,998.0,24.3,67.0,41.895955352744956,20.35122153444985
P2076,2025-06-03 02:00:00,28.7069,111.5464,120,常德市,花岩溪,鼎城区,994.4,24.0,72.0,43.56215405282498,21.479430994690652
P2083,2025-06-03 02:00:00,28.6486,111.3175,56.6,常德市,沙坪,桃源县,1000.7,24.9,70.0,45.688120155808605,22.040023089883352
P2089,2025-06-03 02:00:00,29.8928,111.0164,418,常德市,里山河水库,石门县,959.4,21.9,100.0,56.208237446489186,26.267400778756265
P2090,2025-06-03 02:00:00,29.8706,111.8003,100,常德市,盐井,澧县,997.4,25.1,66.0,41.38775794420324,21.030127060831653
P2091,2025-06-03 02:00:00,29.2086,111.9756,30,常德市,南湖,武陵区,1005.0,26.2,72.0,39.40189053138171,24.49090218085447
P2092,2025-06-03 02:00:00,29.0175,112.0069,38,常德市,洲口,汉寿县,1005.0,25.6,76.0,45.30784961687029,24.94811464720457
P2093,2025-06-03 02:00:00,28.7522,111.33,58,常德市,剪市,桃源县,1002.9,24.9,76.0,36.64364114602349,23.92916792615907
P2106,2025-06-03 02:00:00,29.1533,112.1192,31,常德市,十美堂,鼎城区,1005.4,25.3,69.0,34.70750522018811,22.24965562996817
P2107,2025-06-03 02:00:00,29.7494,110.8531,213.4,常德市,南岳寺,石门县,984.7,22.6,78.0,47.645630622264605,21.381246922813194
P2122,2025-06-03 02:00:00,29.8147,111.1167,583,常德市,大同山林场,石门县,941.1,22.6,85.0,38.77530276087776,23.300076774860532
P2127,2025-06-03 02:00:00,29.8519,111.3928,228,常德市,芦茅,澧县,982.5,25.4,71.0,38.54781182593336,23.03126460533173
P2128,2025-06-03 02:00:00,29.7669,111.5272,83,常德市,王家厂水库,澧县,998.8,25.5,78.0,42.817680430250086,25.452904628931318
P2130,2025-06-03 02:00:00,29.3072,111.765,56,常德市,鳌山小学,临澧县,1000.7,25.9,71.0,45.98772512326326,23.725488501787407
P2135,2025-06-03 02:00:00,29.0197,111.5692,36,常德市,木塘垸,桃源县,1004.7,25.6,74.0,46.005908036091625,24.291585314383394
P2137,2025-06-03 02:00:00,28.7575,111.2289,73.4,常德市,凌津滩,桃源县,1000.6,23.9,76.0,42.657505189697574,22.536760973868642
P2139,2025-06-03 02:00:00,28.7408,112.1842,73,常德市,赤港湾水库,汉寿县,1000.1,24.5,73.0,31.690769986918525,22.441182708521723
P2140,2025-06-03 02:00:00,28.6681,111.9919,60,常德市,斋家冲水库,汉寿县,1001.5,25.0,70.0,30.813880445670872,22.17200605331099
P2147,2025-06-03 02:00:00,28.85,111.65,56.3,常德市,草坪,鼎城区,1003.9,26.5,69.0,40.41020093592305,23.890195586162875
P2198,2025-06-03 02:00:00,28.6514,111.2442,114.3,常德市,杨溪桥,桃源县,996.5,24.7,81.0,50.29287237790381,25.200394331554428
P2203,2025-06-03 02:00:00,29.5131,111.7992,50,常德市,庹家峪水库,津市市,999.1,26.4,39.0,19.95665426450475,13.42366217502242
P2600,2025-06-03 02:00:00,29.4164,112.3169,34,益阳市,红堰湖,南县,1005.3,26.1,85.0,38.18833405531514,28.742285343698097
P2604,2025-06-03 02:00:00,29.2914,112.2467,35.5,益阳市,同跃,南县,1005.3,26.1,82.0,41.74961177844167,27.72785174333228
P2607,2025-06-03 02:00:00,29.2764,112.3436,32,益阳市,同湖,南县,1005.5,26.5,71.0,40.976418549773555,24.58266502344296
P2608,2025-06-03 02:00:00,29.1864,112.3614,34,益阳市,咸嘉垸,南县,1005.0,25.1,60.0,28.188235063254357,19.118297328028774
P2609,2025-06-03 02:00:00,29.1058,112.3444,26.8,益阳市,同春,南县,1005.6,25.0,77.0,39.70435116691894,24.389206658642095
P2614,2025-06-03 02:00:00,29.2403,112.4053,30,益阳市,青树嘴,南县,1005.4,26.0,71.0,36.099412577622104,23.86650886187835
P2615,2025-06-03 02:00:00,29.3075,112.2731,31,益阳市,六百弓,南县,1005.6,26.5,78.0,44.6479091765955,27.006308053923252
P2617,2025-06-03 02:00:00,29.295,112.5342,35,益阳市,大木桥,南县,1005.3,25.4,78.0,50.332528259454946,25.301952665012323
P2619,2025-06-03 02:00:00,29.2919,112.6567,31,益阳市,华东,南县,1005.9,26.1,75.0,45.96749022550433,25.360840009145377
P2631,2025-06-03 02:00:00,29.3522,112.4061,32.5,益阳市,一中,南县,1005.3,26.7,39.0,18.55877997396513,13.66337357478118
P2650,2025-06-03 02:00:00,29.1853,112.6258,33.9,益阳市,河坝,大通湖区,1005.6,25.5,69.0,36.674700409866276,22.51603101790078
P2652,2025-06-03 02:00:00,29.2256,112.5492,36,益阳市,沙堡州,大通湖区,1005.7,23.8,81.0,46.09553943283703,23.875286998945562
P2653,2025-06-03 02:00:00,29.1128,112.6697,33,益阳市,金盆,大通湖区,1005.9,24.9,73.0,27.794176254394056,22.98459550802121
P2654,2025-06-03 02:00:00,29.1294,112.4258,31,益阳市,千山红,大通湖区,1005.8,25.2,83.0,37.43350306815236,26.605114818721933
P2660,2025-06-03 02:00:00,29.0058,112.4864,34,益阳市,新村,沅江市,1005.8,25.1,82.0,41.49018398407885,26.12833968163932
P2667,2025-06-03 02:00:00,28.8325,112.3867,32,益阳市,城区水管站,沅江市,1005.4,25.7,65.0,32.73828536064863,21.46431182801681
P2673,2025-06-03 02:00:00,29.0719,112.4425,31,益阳市,乐安,沅江市,1005.9,24.7,81.0,46.46705804819798,25.200394331554428
P2674,2025-06-03 02:00:00,29.0364,112.2967,35,益阳市,南嘴,沅江市,1001.9,26.4,80.0,40.698479988271764,27.535717282097274
P2677,2025-06-03 02:00:00,29.0789,112.6986,42.9,益阳市,石东港,沅江市,1005.6,24.5,99.0,51.75254315393799,30.43393271429658
P2680,2025-06-03 02:00:00,28.9883,112.8406,30,益阳市,漉湖芦苇场,沅江市,1005.5,25.0,80.0,42.04453491346125,25.339435489498282
P2682,2025-06-03 02:00:00,28.9406,112.5828,32,益阳市,双洲,沅江市,1005.7,25.0,60.0,32.027879949280184,19.004576617123707
P2684,2025-06-03 02:00:00,29.1172,112.5633,41,益阳市,四季红,沅江市,1005.8,25.0,74.0,29.32698561601467,23.43897782778591
P2686,2025-06-03 02:00:00,28.7569,112.3478,46,益阳市,三眼塘,沅江市,1004.8,25.0,80.0,40.76334255636052,25.339435489498282
P2687,2025-06-03 02:00:00,28.9481,112.3022,62,益阳市,新湾,沅江市,999.5,24.5,82.0,38.549472177423006,25.207903864366862
P2720,2025-06-03 02:00:00,28.6861,112.2436,45,益阳市,新塘,资阳区,1000.9,25.5,56.0,28.781659621263042,18.27388024641223
P2721,2025-06-03 02:00:00,28.6033,112.2003,64.7,益阳市,新桥河,资阳区,1003.3,25.5,76.0,20.953152702880487,24.800266048702312
P2725,2025-06-03 02:00:00,28.6278,112.3161,49.2,益阳市,长春,资阳区,1003.9,24.9,71.0,45.55013561766766,22.354880562595973
P2726,2025-06-03 02:00:00,28.7667,112.4547,55,益阳市,张家塞,资阳区,1004.7,24.4,83.0,43.54777267205464,25.362867014476844
P2729,2025-06-03 02:00:00,28.8019,112.5844,38.9,益阳市,茈湖口,资阳区,1004.9,23.9,36.0,16.013690768268297,10.67530782972725
P2730,2025-06-03 02:00:00,28.6058,112.3467,31.5,益阳市,体育公园,资阳区,1005.3,25.2,69.0,41.82163562033756,22.11750509026281
P2731,2025-06-03 02:00:00,28.6103,112.1164,70,益阳市,蓼园,资阳区,1001.0,24.8,73.0,41.389424603175314,22.84767376973781
P2760,2025-06-03 02:00:00,28.5892,112.2936,36,益阳市,会龙山,赫山区,1004.3,24.6,71.0,40.31108681807443,21.95745078565941
P2761,2025-06-03 02:00:00,28.4789,112.2547,73,益阳市,自搭桥,赫山区,1000.4,25.0,64.0,36.65429974781316,20.271548391598625
P2764,2025-06-03 02:00:00,28.4839,112.5231,58,益阳市,新安山,赫山区,1005.3,25.3,75.0,44.33061025984537,24.184408293443663
P2768,2025-06-03 02:00:00,28.5881,112.4486,36,益阳市,兰溪,赫山区,1005.3,24.9,18.0,12.338590753173039,5.6674345088271485
P2769,2025-06-03 02:00:00,28.5042,112.395,46,益阳市,龙岭工业园,赫山区,1004.1,25.6,65.0,38.00512630556463,21.337203316688118
P2771,2025-06-03 02:00:00,28.3992,112.2811,53.1,益阳市,泥江口,赫山区,1000.7,25.2,80.0,39.57327263292471,25.643484162623555
P2773,2025-06-03 02:00:00,28.4111,112.4353,55.7,益阳市,鱼形山水库,赫山区,1002.3,25.0,74.0,46.10744693856175,23.43897782778591
P2774,2025-06-03 02:00:00,28.3506,112.4547,58,益阳市,朱公塘水库,赫山区,1000.0,24.9,87.0,56.36073261910711,27.392600125997884
P2775,2025-06-03 02:00:00,28.6003,112.3694,46,益阳市,团洲,赫山区,1005.1,25.9,69.0,34.285047604372245,23.057164882018743
P2776,2025-06-03 02:00:00,28.4928,112.4283,44,益阳市,金山,赫山区,1002.9,25.5,68.0,44.4964036881433,22.18971172778628
P2777,2025-06-03 02:00:00,28.5083,112.4903,43,益阳市,笔架山,赫山区,1005.4,24.7,74.0,50.136443149931374,23.02258247574108
P2778,2025-06-03 02:00:00,28.3297,112.4097,80,益阳市,岳家桥,赫山区,999.8,24.8,56.0,28.78373785809923,17.526982617881064
P2780,2025-06-03 02:00:00,28.6306,112.5744,42,益阳市,八字哨,赫山区,1004.6,25.5,73.0,49.14729761374069,23.821308178358795
P2781,2025-06-03 02:00:00,28.4825,112.5644,39.7,益阳市,新和电排,赫山区,1005.4,24.3,73.0,44.05446215546409,22.1737189852961
P2782,2025-06-03 02:00:00,28.4753,112.5931,30,益阳市,红洲垸电排,赫山区,1004.9,24.6,78.0,49.081596947183826,24.122269877203294
P2784,2025-06-03 02:00:00,28.5456,112.6806,40,益阳市,流水口,赫山区,1005.0,24.6,89.0,51.717339445277176,27.5241284496294
P2789,2025-06-03 02:00:00,28.5414,112.4306,31,益阳市,大丰电排,赫山区,1005.1,25.6,82.0,41.7106337199473,26.917702645668083
P2820,2025-06-03 02:00:00,28.5617,112.3283,114.6,益阳市,市政府,赫山区,998.0,25.7,67.0,49.23594593721377,22.12475219195579
P2821,2025-06-03 02:00:00,28.5269,112.2589,56,益阳市,谢林港,赫山区,1003.6,25.6,72.0,26.705380181245,23.63505598156222
P2823,2025-06-03 02:00:00,28.4403,112.4719,49,益阳市,管委会,赫山区,1000.6,24.4,69.0,31.734940827901887,21.084793060227735
P2840,2025-06-03 02:00:00,28.6144,111.7447,112,益阳市,碧螺水库,桃江县,995.9,24.0,73.0,38.633151617942666,21.777756425172466
P2841,2025-06-03 02:00:00,28.5358,111.72,90.4,益阳市,武潭,桃江县,999.2,23.7,87.0,44.842842647474924,25.48980736742955
P2842,2025-06-03 02:00:00,28.4442,111.6533,55,益阳市,百乐,桃江县,1001.0,24.0,94.0,58.25076646636634,28.042590465290573
P2843,2025-06-03 02:00:00,28.5608,111.8267,80.2,益阳市,鲊埠,桃江县,1000.7,23.6,81.0,37.82252852976743,23.589247088824145
P2845,2025-06-03 02:00:00,28.435,111.7794,80.1,益阳市,沂溪河电站,桃江县,1000.4,24.7,72.0,42.514564507520724,22.400350516937266
P2847,2025-06-03 02:00:00,28.4878,111.8461,68,益阳市,大栗港,桃江县,997.9,25.1,67.0,43.607875726351615,21.34876534963213
P2848,2025-06-03 02:00:00,28.4094,111.8381,92,益阳市,泗里河,桃江县,997.1,24.7,64.0,24.89803056492735,19.911422681722016
P2849,2025-06-03 02:00:00,28.5997,111.9967,82.7,益阳市,修山,桃江县,999.7,24.1,78.0,40.25121214736346,23.409670232793964
P2850,2025-06-03 02:00:00,28.5514,111.9658,33,益阳市,沾溪,桃江县,1003.1,24.3,72.0,22.190430878180578,21.86996941015506
P2851,2025-06-03 02:00:00,28.4717,111.9447,52.4,益阳市,鸬鹚渡,桃江县,1001.2,24.4,68.0,34.12363452611663,20.77921634920995
P2852,2025-06-03 02:00:00,28.455,111.9333,124,益阳市,何家村,桃江县,997.8,24.3,70.0,42.354080058095505,21.262470259872973
P2853,2025-06-03 02:00:00,28.5383,112.0503,44,益阳市,水口山,桃江县,1002.1,25.4,61.0,22.690397301212343,19.787424520073742
P2854,2025-06-03 02:00:00,28.3933,112.04,175,益阳市,罗溪,桃江县,986.9,24.5,66.0,32.336003135370376,20.289288476197722
P2855,2025-06-03 02:00:00,28.3203,112.0681,146,益阳市,松木塘,桃江县,992.6,25.2,65.0,33.28000301820501,20.835330882131636
P2857,2025-06-03 02:00:00,28.5158,112.1367,51.5,益阳市,曹家仑,桃江县,1003.8,25.2,71.0,27.189988067541517,22.7585921943284
P2858,2025-06-03 02:00:00,28.4433,111.9942,76,益阳市,高桥,桃江县,998.3,23.9,74.0,44.37492863964809,21.943688316661568
P2859,2025-06-03 02:00:00,28.3208,112.0717,105,益阳市,桃花江水库,桃江县,996.6,24.7,68.0,28.739300378976736,21.155886599329644
P2860,2025-06-03 02:00:00,28.5742,112.2017,64,益阳市,花果山,桃江县,1004.4,25.1,69.0,19.894083905943123,21.98604192723309
P2861,2025-06-03 02:00:00,28.4258,112.1567,71,益阳市,石牛江,桃江县,1002.7,25.4,66.0,18.005959520488933,21.409344562702735
P2862,2025-06-03 02:00:00,28.4056,112.1633,41,益阳市,牛田,桃江县,1001.9,25.2,68.0,29.686017496942082,21.796961538230022
P2863,2025-06-03 02:00:00,28.2972,112.1433,176,益阳市,李家湾,桃江县,989.3,25.5,64.0,38.82794337116132,20.88443456732826
P2864,2025-06-03 02:00:00,28.2928,112.2267,114,益阳市,灰山港,桃江县,994.3,24.4,78.0,44.891801162174524,23.834983459387878
P2901,2025-06-03 02:00:00,28.2914,111.2853,271.2,益阳市,文溪,安化县,976.1,23.4,65.0,22.142389316436596,18.702516690419742
P2903,2025-06-03 02:00:00,28.4906,111.4861,143.3,益阳市,冷市,安化县,992.5,23.4,88.0,56.92008599990674,25.320330288568265
P2904,2025-06-03 02:00:00,28.3453,111.1011,195.9,益阳市,柘溪,安化县,986.4,22.7,98.0,53.02640374455891,27.02728704403298
P2905,2025-06-03 02:00:00,28.0603,111.7581,362,益阳市,清塘铺,安化县,968.8,22.8,80.0,46.75901733281736,22.197411659928527
P2907,2025-06-03 02:00:00,28.3919,111.4953,75.7,益阳市,小淹,安化县,999.6,23.3,91.0,53.735752123265584,26.025792097323723
P2908,2025-06-03 02:00:00,28.4631,111.3892,108.5,益阳市,龙塘,安化县,994.1,22.9,92.0,54.9202804306782,25.68231500954342
P2909,2025-06-03 02:00:00,28.2458,111.7108,158.9,益阳市,仙溪,安化县,993.0,22.9,100.0,55.12975833818069,27.915559792981977
P2910,2025-06-03 02:00:00,28.0986,111.5753,198.8,益阳市,乐安,安化县,984.8,23.4,78.0,43.44296866464615,22.44302002850369
P2911,2025-06-03 02:00:00,28.2603,111.7928,220.5,益阳市,九渡水,安化县,983.2,22.7,60.0,25.532845276738087,16.547318598387537
P2915,2025-06-03 02:00:00,28.0372,111.0864,221.9,益阳市,平口水厂,安化县,985.6,22.8,96.0,54.47679684530445,26.63689399191423
P2919,2025-06-03 02:00:00,28.3197,111.2906,148,益阳市,田庄,安化县,989.7,23.3,89.0,56.33579387045741,25.453796666613307
P2921,2025-06-03 02:00:00,28.2475,110.8294,272.4,益阳市,奎溪,安化县,978.1,22.3,77.0,37.354248129735865,20.725422172636126
P2925,2025-06-03 02:00:00,28.4467,111.2144,129.6,益阳市,红岩水库,安化县,992.1,23.6,91.0,57.54207812590442,26.50149981583947
P2926,2025-06-03 02:00:00,28.3411,111.6094,113.7,益阳市,滔溪,安化县,994.8,23.4,77.0,47.65057630939298,22.15528900249723
P2927,2025-06-03 02:00:00,28.1361,111.6633,188.7,益阳市,梅城,安化县,987.6,23.8,80.0,51.19115943072142,23.58053036932895
P2930,2025-06-03 02:00:00,28.0419,111.8275,307.3,益阳市,高明,安化县,974.1,23.6,63.0,33.45731586028407,18.347192180196554
P2931,2025-06-03 02:00:00,28.5319,111.6106,101.9,益阳市,羊角塘,安化县,997.9,24.2,81.0,46.02896839031217,24.456492925970867
P2936,2025-06-03 02:00:00,28.3739,111.4203,66.2,益阳市,红泥,安化县,999.8,23.2,78.0,46.586130580282,22.1733375390886
P2954,2025-06-03 02:00:00,28.4353,111.2819,138,益阳市,马渡,安化县,992.0,23.2,100.0,52.970042636614444,28.427355819344356
P2956,2025-06-03 02:00:00,28.3475,111.4978,119.6,益阳市,大双,安化县,994.3,23.9,74.0,45.406744677166664,21.943688316661568
P3101,2025-06-03 02:00:00,28.4764,113.7175,320,岳阳市,白水水库,平江县,973.8,22.3,87.0,47.95333606757978,23.41703544180965
P3102,2025-06-03 02:00:00,28.7497,113.7131,142.9,岳阳市,童市,平江县,992.6,24.0,73.0,33.821643697854924,21.777756425172466
P3104,2025-06-03 02:00:00,28.6447,113.2828,77.1,岳阳市,向家,平江县,1000.0,24.3,66.0,32.69766375780369,20.047471959308805
P3105,2025-06-03 02:00:00,28.9081,113.5981,148,岳阳市,大洲,平江县,991.7,24.7,72.0,37.64301920962668,22.400350516937266
P3106,2025-06-03 02:00:00,28.8419,113.6083,106.8,岳阳市,梅仙,平江县,996.1,24.3,66.0,40.5179287974926,20.047471959308805
P3109,2025-06-03 02:00:00,28.8483,113.9397,160,岳阳市,云洞水库,平江县,988.9,23.0,80.0,42.4829267778998,22.46820322435619
P3111,2025-06-03 02:00:00,28.7019,113.9439,130,岳阳市,长寿,平江县,994.3,23.3,72.0,36.95489434154977,20.59183550557481
P3112,2025-06-03 02:00:00,28.8733,113.5142,110,岳阳市,余坪,平江县,994.6,24.4,68.0,37.099582842139355,20.77921634920995
P3113,2025-06-03 02:00:00,29.0058,113.6906,183.8,岳阳市,板江,平江县,988.4,23.1,80.0,43.60486918233943,22.6046810780554
P3114,2025-06-03 02:00:00,29.0697,113.7783,177.6,岳阳市,上塔市,平江县,988.6,23.3,94.0,46.52060914813387,26.883785243389337
P3117,2025-06-03 02:00:00,28.9219,113.7825,384.5,岳阳市,大江洞水库,平江县,964.9,22.4,72.0,41.5545927615721,19.497955107088668
P3118,2025-06-03 02:00:00,28.9008,113.8356,274.8,岳阳市,虹桥正东,平江县,975.9,23.3,69.0,41.934052159094165,19.733842359509193
P3119,2025-06-03 02:00:00,28.9722,113.9222,360.2,岳阳市,石牛寨姜源,平江县,965.3,23.0,69.0,41.10744873466528,19.37882528100721
P3120,2025-06-03 02:00:00,28.5925,113.7253,100.8,岳阳市,三市,平江县,997.3,24.2,91.0,53.72045105201297,27.47581304028826
P3124,2025-06-03 02:00:00,28.5569,113.5975,130,岳阳市,秋湖水库,平江县,993.5,24.1,71.0,34.487292934511814,21.308802391389378
P3125,2025-06-03 02:00:00,28.6319,113.565,173.4,岳阳市,三阳,平江县,989.1,25.7,70.0,45.90109732434812,23.115412737864254
P3200,2025-06-03 02:00:00,28.8292,113.1581,32.8,岳阳市,罗江,汨罗市,1003.6,24.6,75.0,38.21199069227307,23.194490266541628
P3201,2025-06-03 02:00:00,28.5517,113.0753,638.8,岳阳市,玉池,汨罗市,935.4,20.8,74.0,23.904917896092524,18.169612361276016
P3204,2025-06-03 02:00:00,28.6881,113.1281,400,岳阳市,神鼎山,汨罗市,966.9,23.0,80.0,42.65728951978853,22.46820322435619
P3350,2025-06-03 02:00:00,29.3639,113.5269,71.1,岳阳市,忠防水库,临湘市,1000.6,26.0,72.0,34.43855263288392,24.20265687401748
P3354,2025-06-03 02:00:00,29.5292,113.4131,286.7,岳阳市,荆竹山,临湘市,975.7,24.4,71.0,47.208549324796934,21.695946482263327
P3411,2025-06-03 02:00:00,29.4556,112.6736,24.7,岳阳市,钱粮湖,君山区,1004.7,25.8,66.0,35.254453200101196,21.924268179259887
P3413,2025-06-03 02:00:00,29.4875,112.7797,16.8,岳阳市,采桑湖,君山区,1006.1,24.6,72.0,33.75129265797666,22.266710655879965
P3510,2025-06-03 02:00:00,28.6403,113.8283,110,岳阳市,老丁源水库,平江县,995.8,24.1,69.0,43.619519683034994,20.70855443670235
P3511,2025-06-03 02:00:00,28.7119,113.4317,75.6,岳阳市,瓮江,平江县,1000.1,24.7,73.0,45.05891629863663,22.711466496339174
P3512,2025-06-03 02:00:00,28.7497,113.2425,32,岳阳市,伍市,平江县,1002.8,24.3,73.0,46.83960043310425,22.1737189852961
P3513,2025-06-03 02:00:00,28.8106,114.0467,132.1,岳阳市,龙门,平江县,993.2,23.2,75.0,41.51057882833931,21.320516864508267
P3518,2025-06-03 02:00:00,28.7714,113.0139,43.1,岳阳市,汨罗镇,汨罗市,1002.4,24.8,98.0,61.94610381510037,30.67221958129186
P3520,2025-06-03 02:00:00,28.9992,112.9692,32.8,岳阳市,磊石山,汨罗市,1004.4,25.6,79.0,47.33129671810587,25.932908646436324
P3521,2025-06-03 02:00:00,29.7411,113.4411,53,岳阳市,谷花,临湘市,1004.9,24.8,78.0,42.8578761549005,24.412582932048622
P3523,2025-06-03 02:00:00,29.2331,113.3939,96.7,岳阳市,白羊田,临湘市,997.2,24.7,61.0,30.125055314580365,18.978074743516295
P3525,2025-06-03 02:00:00,29.3758,112.7408,38.6,岳阳市,良心堡,君山区,1005.6,26.4,67.0,36.88470453391429,23.061163223756463
P3526,2025-06-03 02:00:00,28.9444,113.7353,183.1,岳阳市,南江,平江县,988.2,23.3,69.0,41.9701391501149,19.733842359509193
P3528,2025-06-03 02:00:00,29.6497,113.6189,16.2,岳阳市,定湖,临湘市,1004.6,25.4,79.0,46.528370742915214,25.626336673538123
P3529,2025-06-03 02:00:00,28.7086,112.7744,37,岳阳市,杨林寨,湘阴县,1004.7,24.3,78.0,42.32282861861001,23.692466861001314
P3531,2025-06-03 02:00:00,29.5717,112.5108,11,岳阳市,涛湖,华容县,1005.0,24.9,70.0,33.579635297282685,22.040023089883352
P3532,2025-06-03 02:00:00,29.6311,112.7356,37,岳阳市,东山水库,华容县,1002.8,25.9,38.0,16.561241947792187,12.698148775604528
P3534,2025-06-03 02:00:00,29.6011,112.8114,54.1,岳阳市,幸福水库,君山区,1002.0,24.2,73.0,32.80175217746199,22.04103683451695
P3536,2025-06-03 02:00:00,29.2639,113.5058,773.4,岳阳市,大云山,岳阳县,922.4,20.0,83.0,39.53012675216189,19.39666112427348
P3537,2025-06-03 02:00:00,29.0186,113.4906,131.3,岳阳市,张谷英,岳阳县,994.7,24.2,66.0,40.24226160906802,19.927512754494778
P3538,2025-06-03 02:00:00,29.4492,113.0503,33.7,岳阳市,展陈馆,君山区,1005.2,25.4,47.0,21.503653087561283,15.246048400712555
P3541,2025-06-03 02:00:00,29.0133,113.4411,122.7,岳阳市,岳坊水库,岳阳县,994.3,24.8,66.0,39.325213971371376,20.65680094250268
P3544,2025-06-03 02:00:00,29.2258,113.0858,28.4,岳阳市,麻塘,岳阳县,1005.6,26.0,66.0,28.291125880184566,22.185768801182693
P3547,2025-06-03 02:00:00,29.1339,113.0161,32.5,岳阳市,中洲,岳阳县,1004.7,24.6,74.0,39.81039448515923,22.885230396321074
P3552,2025-06-03 02:00:00,29.7919,113.52,12.4,岳阳市,黄盖,临湘市,1005.3,23.4,74.0,30.788358358569905,21.292095924477856
P3553,2025-06-03 02:00:00,29.565,113.6956,51.5,岳阳市,晓阳,临湘市,1000.8,25.0,62.0,38.3362546626191,19.638062504361166
P3554,2025-06-03 02:00:00,29.3889,113.6328,534.8,岳阳市,壁山,临湘市,946.1,22.5,80.0,44.67070323735641,21.79658612350672
P3558,2025-06-03 02:00:00,29.6639,113.3461,13.4,岳阳市,儒溪,临湘市,1004.6,24.6,70.0,35.15756389984362,21.64819091543885
P3559,2025-06-03 02:00:00,29.3117,113.4417,98.1,岳阳市,金盆,临湘市,996.7,24.9,57.0,36.64547430565431,17.9468759446193
P3562,2025-06-03 02:00:00,29.4708,112.4956,35,岳阳市,业谟小学,华容县,1005.4,27.2,67.0,37.72896151108173,24.173627419728533
P3565,2025-06-03 02:00:00,29.395,112.805,16.6,岳阳市,团华小学,华容县,1005.5,26.2,71.0,35.96342112768117,24.150750761675937
P3566,2025-06-03 02:00:00,29.7261,112.8489,43,岳阳市,小墨山,华容县,1004.2,25.9,68.0,40.240496419959534,22.72300307213442
P3568,2025-06-03 02:00:00,29.4917,112.4131,20,岳阳市,太仙,华容县,1005.3,26.7,57.0,33.97296721929142,19.969545993910955
P3570,2025-06-03 02:00:00,29.535,112.5558,14.6,岳阳市,华容河大堤,华容县,1004.8,26.1,67.0,37.08352190016869,22.655683741503207
P3572,2025-06-03 02:00:00,29.6033,112.4639,32,岳阳市,富强,华容县,1005.6,24.9,72.0,35.63641555589862,22.669738035308594
P3580,2025-06-03 02:00:00,28.7297,112.7042,27,岳阳市,湘滨,湘阴县,1004.8,24.9,79.0,38.15924303443645,24.873740344296927
P3587,2025-06-03 02:00:00,28.6281,112.5892,18,岳阳市,西林港,湘阴县,1005.6,25.0,36.0,20.87221725892938,11.402745970274227
P3588,2025-06-03 02:00:00,28.7647,112.9869,68,岳阳市,赛美水库,湘阴县,1002.0,24.7,73.0,38.66502773424916,22.711466496339174
P3589,2025-06-03 02:00:00,28.63,112.8128,29,岳阳市,城西水管会,湘阴县,1005.7,24.6,81.0,50.72411440374428,25.05004948786496
P3592,2025-06-03 02:00:00,29.4889,113.1922,30.9,岳阳市,象骨港,云溪区,1005.5,25.3,65.0,32.43958616474194,20.95982052098451
P3593,2025-06-03 02:00:00,29.5444,113.2581,50.8,岳阳市,丁山,云溪区,1003.9,25.6,67.0,40.957687141188856,21.99373264950929
P3594,2025-06-03 02:00:00,29.5942,113.3344,5.7,岳阳市,钢铁,云溪区,1004.8,26.0,59.0,32.82853694041991,19.83273271620877
P3595,2025-06-03 02:00:00,29.5531,113.3572,40,岳阳市,长岭街道,云溪区,1004.8,26.3,56.0,24.33267533143579,19.16144802958148
P3596,2025-06-03 02:00:00,29.4825,113.2631,54.4,岳阳市,洗马塘,云溪区,1003.9,26.1,60.0,32.47090016728345,20.288672007316304
P3599,2025-06-03 02:00:00,29.31,113.3339,73.2,岳阳市,兰桥水库,岳阳楼区,1000.1,24.7,83.0,47.243772888043324,25.822626290358237
P3603,2025-06-03 02:00:00,29.4553,113.2167,62.3,岳阳市,滨湖,云溪区,1000.1,27.5,53.0,17.26381849547508,19.461865982020594
P3604,2025-06-03 02:00:00,28.9742,112.92,27.8,岳阳市,凤凰乡磊石,市辖区,1006.0,25.3,69.0,44.09677474823531,22.24965562996817
P3605,2025-06-03 02:00:00,28.8606,112.9194,19.2,岳阳市,屈子诗园,市辖区,1005.4,24.9,65.0,39.15715612714713,20.465735726320258
P3614,2025-06-03 02:00:00,29.4533,113.3578,127.2,岳阳市,清溪水库,云溪区,996.1,24.7,66.0,41.03234114606605,20.53365464052583
P3615,2025-06-03 02:00:00,29.235,113.1386,95.4,岳阳市,东风水库,岳阳县,997.8,25.2,66.0,45.87253162889063,21.155874434164428
P3620,2025-06-03 02:00:00,29.1897,113.5236,90,岳阳市,铁山水库,岳阳县,998.0,23.9,69.0,45.27885284943247,20.461006673643894
P3621,2025-06-03 02:00:00,29.2997,113.1031,134,岳阳市,风雨山,岳阳楼区,993.0,25.3,63.0,43.261665510800306,20.31490296649268
P3622,2025-06-03 02:00:00,29.5075,113.6161,99.3,岳阳市,羊楼司,临湘市,997.6,24.8,65.0,30.920978719293135,20.34381911004052
P3630,2025-06-03 02:00:00,29.4447,113.3122,60.1,岳阳市,建设,云溪区,1001.8,25.9,58.0,36.28854506485065,19.38138497329112
P3631,2025-06-03 02:00:00,29.4083,113.3064,134.5,岳阳市,伍家洞水库,岳阳楼区,993.3,25.0,61.0,29.178745172609464,19.321319560742438
P3633,2025-06-03 02:00:00,28.5319,113.0111,58.8,岳阳市,桥坪水库,汨罗市,1001.3,25.5,76.0,42.00591870702373,24.800266048702312
P3636,2025-06-03 02:00:00,28.5908,113.835,130.5,岳阳市,沱龙峡,平江县,994.0,24.2,72.0,37.042820018726765,21.739104823085214
P3637,2025-06-03 02:00:00,28.9742,113.8178,1160,岳阳市,幕阜山,平江县,880.9,18.3,82.0,32.47761031319407,17.235104481303566
P3640,2025-06-03 02:00:00,28.6933,113.0358,60.6,岳阳市,白水苗圃,汨罗市,999.5,24.7,78.0,46.1356978173651,24.267046393348707
P3641,2025-06-03 02:00:00,29.6411,113.4997,21,岳阳市,源潭,临湘市,1005.3,26.8,61.0,37.70749538687655,21.497189678374017
P3643,2025-06-03 02:00:00,29.3719,113.4747,103.6,岳阳市,桃矿,临湘市,996.6,24.9,62.0,34.122602101378654,19.5211633081824
P3650,2025-06-03 02:00:00,28.7758,113.6053,80.6,岳阳市,团山,平江县,998.2,24.1,65.0,35.11557695717375,19.508058527328302
P3659,2025-06-03 02:00:00,29.3592,112.5042,14,岳阳市,八一水厂,华容县,1005.5,26.4,65.0,40.18582627263545,22.372770291704036
P3660,2025-06-03 02:00:00,29.4222,112.6369,14.4,岳阳市,砂山,华容县,1005.4,27.5,45.0,28.527985643789993,16.52422583379107
P3661,2025-06-03 02:00:00,29.2167,112.705,29.3,岳阳市,隆庆莲场,华容县,1005.9,25.2,75.0,41.00454497625193,24.040766402459575
P3663,2025-06-03 02:00:00,29.5189,112.4686,6.6,岳阳市,蔡田湖,华容县,1005.4,26.5,67.0,36.36467823995444,23.197726148882793
P3664,2025-06-03 02:00:00,28.5367,112.9592,60,岳阳市,燎原,湘阴县,1000.0,24.9,70.0,47.057161848963126,22.040023089883352
P3665,2025-06-03 02:00:00,28.8464,113.0339,40,岳阳市,河市乡,市辖区,1005.3,25.3,70.0,43.05986945612927,22.572114407214084
P3666,2025-06-03 02:00:00,28.7961,113.0722,46.7,岳阳市,归义,汨罗市,1003.2,25.3,58.0,30.692185642759412,18.702609080263098
P3676,2025-06-03 02:00:00,29.5422,113.3636,32.9,岳阳市,长炼,云溪区,1004.1,25.5,59.0,31.85777436819512,19.25283811675574
P3692,2025-06-03 02:00:00,29.5169,113.3128,57.6,岳阳市,江湖,云溪区,1003.7,26.3,57.0,33.06708785339481,19.50361674439543
P3694,2025-06-03 02:00:00,29.4369,113.1664,16.6,岳阳市,芭蕉湖,岳阳楼区,1005.4,26.5,59.0,32.87758026113297,20.42784839976246
P3703,2025-06-03 02:00:00,28.8864,110.8531,214,怀化市,七甲坪,沅陵县,984.7,22.1,84.0,42.301902734240585,22.335627386307127
P3705,2025-06-03 02:00:00,28.76,110.4319,204,怀化市,曹家,沅陵县,985.8,22.2,91.0,57.177958910551496,24.344908901023214
P3709,2025-06-03 02:00:00,28.6936,110.7453,165,怀化市,陈家滩,沅陵县,990.3,22.5,83.0,54.416723710849226,22.61395810313822
P3718,2025-06-03 02:00:00,28.5253,110.9103,336,怀化市,官庄,沅陵县,970.9,23.2,79.0,49.93188957328337,22.45761109728204
P3720,2025-06-03 02:00:00,28.5236,110.7211,163,怀化市,楠木铺,沅陵县,991.1,23.2,87.0,46.39957683964822,24.731799562829593
P3722,2025-06-03 02:00:00,28.425,110.7939,413,怀化市,杜家坪,沅陵县,963.9,22.7,98.0,62.89046606178382,27.02728704403298
P3728,2025-06-03 02:00:00,28.3294,110.5158,276,怀化市,张家滩,沅陵县,977.9,22.4,77.0,46.41288338847926,20.85197976730316
P3729,2025-06-03 02:00:00,28.2933,110.3239,164,怀化市,麻溪铺,沅陵县,991.0,22.6,93.0,51.99050826073165,25.493025177200348
P3733,2025-06-03 02:00:00,28.2306,110.2917,179,怀化市,筲箕湾,沅陵县,990.5,22.4,93.0,59.203321306263575,25.184858679989528
P3734,2025-06-03 02:00:00,28.1694,110.2081,172.5,怀化市,田头坪,辰溪县,990.0,22.1,91.0,58.547561093881434,24.19692966849939
P3739,2025-06-03 02:00:00,26.3494,109.7725,382.8,怀化市,下寨,通道侗族自治县,967.4,23.4,70.0,35.79023051208163,20.141171820452026
P3749,2025-06-03 02:00:00,27.9703,110.2892,149,怀化市,倒洑,辰溪县,992.9,23.3,97.0,40.78702995201471,27.74177838945495
P3750,2025-06-03 02:00:00,27.9644,110.1589,131.5,怀化市,潭湾敬老院,辰溪县,994.7,23.3,99.0,42.58908904541508,28.313773820165366
P3751,2025-06-03 02:00:00,27.9511,110.8358,323.8,怀化市,三江,溆浦县,973.8,21.3,89.0,49.28786678974234,22.534802006258275
P3759,2025-06-03 02:00:00,27.8892,109.8911,162.9,怀化市,兰里,麻阳苗族自治县,991.1,22.1,96.0,52.91641084155456,25.526431298636716
P3761,2025-06-03 02:00:00,27.8553,109.9197,233.6,怀化市,和平溪,麻阳苗族自治县,981.9,21.4,95.0,43.378186298676766,24.202000043251516
P3763,2025-06-03 02:00:00,27.8783,109.695,179.8,怀化市,岩门镇黄土溪,麻阳苗族自治县,986.0,22.2,100.0,46.198519777854756,26.75264714398155
P3778,2025-06-03 02:00:00,27.7256,110.4086,121,怀化市,黄溪口,辰溪县,992.5,22.2,100.0,39.12295258042029,26.75264714398155
P3781,2025-06-03 02:00:00,27.6931,110.6811,528.9,怀化市,两丫坪,溆浦县,951.1,21.0,71.0,35.579847900487195,17.648925371116096
P3782,2025-06-03 02:00:00,27.7019,109.6039,265.2,怀化市,锦和,麻阳苗族自治县,978.1,21.7,83.0,46.745469558315705,21.537010848186686
P3783,2025-06-03 02:00:00,27.6689,110.1556,325,怀化市,花桥,中方县,970.1,21.7,90.0,57.954390480066266,23.3533852570699
P3784,2025-06-03 02:00:00,27.6725,109.7108,314,怀化市,江口圩,麻阳苗族自治县,976.8,22.3,86.0,49.6985942766022,23.147874114892293
P3790,2025-06-03 02:00:00,27.6664,109.8514,230,怀化市,贺家田,鹤城区,983.1,24.4,81.0,48.0545915515963,24.75171359244126
P3796,2025-06-03 02:00:00,27.6089,110.0964,246,怀化市,泸阳,中方县,981.6,22.9,78.0,40.5081749095123,21.774136638525942
P3798,2025-06-03 02:00:00,27.6269,110.6014,265.2,怀化市,北斗溪,溆浦县,979.0,22.6,78.0,44.64578693343807,21.381246922813194
P3800,2025-06-03 02:00:00,27.5886,110.28,186,怀化市,铜湾,中方县,989.4,22.6,82.0,46.500084394374234,22.4777211239831
P3803,2025-06-03 02:00:00,27.9714,110.3422,173.5,怀化市,桃田坳,辰溪县,990.0,22.7,82.0,45.94690656780807,22.61466875112963
P3811,2025-06-03 02:00:00,27.7506,110.1411,213,怀化市,肖家溪,辰溪县,988.2,22.2,84.0,47.4635333311248,22.472223600944503
P3820,2025-06-03 02:00:00,27.1161,109.9783,536.5,怀化市,高坡街,洪江市,948.0,21.1,85.0,43.72510448199023,21.259292189182325
P3823,2025-06-03 02:00:00,26.5053,109.5308,450,怀化市,靖州县排牙山,靖州苗族侗族自治县,958.8,20.9,84.0,40.30815800360902,20.752347310170276
P3825,2025-06-03 02:00:00,27.5183,110.1769,259.7,怀化市,新建敬老院,中方县,983.2,22.6,82.0,46.904741380945,22.4777211239831
P3827,2025-06-03 02:00:00,27.5089,109.4536,370,怀化市,芷江县大树坳,芷江侗族自治县,967.8,21.8,93.0,45.08959463088811,24.27985935577957
P3833,2025-06-03 02:00:00,27.4483,109.7589,263,怀化市,岩桥,芷江侗族自治县,979.4,21.8,86.0,50.47459942596183,22.452343060183257
P3846,2025-06-03 02:00:00,27.4039,109.2453,444,怀化市,波州,新晃侗族自治县,957.0,21.3,89.0,37.073294096707166,22.534802006258275
P3849,2025-06-03 02:00:00,27.3447,109.9131,240,怀化市,牌楼,中方县,982.5,21.9,91.0,44.482301125695564,23.903334708668204
P3853,2025-06-03 02:00:00,27.3089,109.4775,466,怀化市,梨溪口水库,芷江侗族自治县,957.5,21.8,85.0,45.59855968310413,22.191269303669497
P3857,2025-06-03 02:00:00,27.325,109.0644,341,怀化市,鱼市,新晃侗族自治县,971.5,23.5,86.0,43.128763760526525,24.894723695329333
P3860,2025-06-03 02:00:00,27.1392,109.9714,172.1,怀化市,横岩,洪江市,986.7,22.6,81.0,46.31408541594603,22.203602573690628
P3870,2025-06-03 02:00:00,27.2317,109.2867,473,怀化市,降溪,新晃侗族自治县,955.3,21.3,76.0,33.42275973600276,19.243201713209313
P3871,2025-06-03 02:00:00,27.1842,109.1325,437,怀化市,扶罗,新晃侗族自治县,961.2,22.0,79.0,45.46038503677847,20.878345248091218
P3883,2025-06-03 02:00:00,27.1044,108.9556,501,怀化市,凉伞,新晃侗族自治县,953.4,23.7,85.0,50.77364096185586,24.903834784270245
P3896,2025-06-03 02:00:00,26.7839,109.8633,344.7,怀化市,木寨,会同县,970.7,21.0,90.0,53.734743041531516,22.371877230992233
P3897,2025-06-03 02:00:00,26.7228,109.5947,306,怀化市,会同县地灵,会同县,973.9,21.0,87.0,42.84264033347848,21.62614798995916
P3899,2025-06-03 02:00:00,26.7006,109.4481,394,怀化市,大堡子,靖州苗族侗族自治县,964.8,21.6,81.0,38.65704427604541,20.889808843917262
P3901,2025-06-03 02:00:00,26.6728,109.6456,346.4,怀化市,坳上,靖州苗族侗族自治县,969.7,21.9,85.0,48.331937597225654,22.327290661942826
P3904,2025-06-03 02:00:00,26.65,109.385,617.2,怀化市,三锹,靖州苗族侗族自治县,940.7,20.3,81.0,32.09525722061718,19.284063708985677
P3909,2025-06-03 02:00:00,26.4108,109.4269,398.3,怀化市,藕团,靖州苗族侗族自治县,965.6,22.2,74.0,34.630669419471516,19.796958886546346
P3914,2025-06-03 02:00:00,26.2025,109.5192,359,怀化市,播阳,通道侗族自治县,969.2,22.9,72.0,38.18964101755818,20.099203050947022
P3917,2025-06-03 02:00:00,26.08,109.5481,455.3,怀化市,独坡,通道侗族自治县,958.2,21.8,80.0,40.948338500271916,20.88590052110071
P3918,2025-06-03 02:00:00,26.0089,109.7683,512,怀化市,陇城,通道侗族自治县,951.8,21.7,72.0,39.745311260839365,18.68270820565592
P4001,2025-06-03 02:00:00,28.8097,111.0122,73,怀化市,五强溪,沅陵县,999.6,22.8,87.0,44.43944954056175,24.139685180172272
P4014,2025-06-03 02:00:00,28.5272,110.2183,136,怀化市,高竹坪,沅陵县,994.5,21.7,100.0,42.59855490025007,25.948205841188777
P4019,2025-06-03 02:00:00,27.4256,109.3614,331,怀化市,新店坪镇上坪,芷江侗族自治县,972.0,22.4,100.0,45.86050055667707,27.080493204289816
P4021,2025-06-03 02:00:00,28.1625,110.6406,348.4,怀化市,低庄镇大渭溪,溆浦县,969.8,22.2,100.0,45.98989053920911,26.75264714398155
P4023,2025-06-03 02:00:00,26.325,109.4625,397,怀化市,靖州县新厂,靖州苗族侗族自治县,965.4,24.0,73.0,34.32798494179473,21.777756425172466
P4030,2025-06-03 02:00:00,28.6453,110.3453,320,怀化市,高砌头,沅陵县,971.9,20.7,86.0,48.924266324912,20.986323852435607
P4038,2025-06-03 02:00:00,27.7356,110.5281,566.3,怀化市,统溪河,溆浦县,945.6,20.7,100.0,53.2169445658735,24.402702153994895
P4042,2025-06-03 02:00:00,27.4094,109.8139,369,怀化市,水宽,芷江侗族自治县,967.9,21.0,87.0,46.49226598401811,21.62614798995916
P4043,2025-06-03 02:00:00,28.0339,110.4381,488,怀化市,谭家场,辰溪县,951.8,19.9,94.0,44.303296378297375,21.831543403707567
P4050,2025-06-03 02:00:00,27.425,110.6067,541,怀化市,大华,溆浦县,949.0,21.6,72.0,27.11083352532434,18.5687189723709
P4051,2025-06-03 02:00:00,26.9703,109.7375,334,怀化市,坪村,会同县,971.2,22.9,73.0,35.577939317222196,20.37835864887684
P4055,2025-06-03 02:00:00,27.6414,110.3222,210,怀化市,铜鼎,中方县,987.8,22.4,86.0,43.8721654722137,23.28922415568924
P4056,2025-06-03 02:00:00,27.5292,110.3503,255,怀化市,接龙,中方县,978.3,21.8,85.0,51.81553632116331,22.191269303669497
P4057,2025-06-03 02:00:00,27.3539,109.8394,343,怀化市,桐木,中方县,970.7,21.8,89.0,49.179345855044296,23.235564329724536
P4059,2025-06-03 02:00:00,27.1203,109.6225,244,怀化市,洪江市托口,洪江市,980.1,21.9,99.0,50.004052787385426,26.004726770968702
P4061,2025-06-03 02:00:00,27.1197,109.6967,204,怀化市,江市,洪江市,985.7,22.7,83.0,46.96909086256281,22.890457394436094
P4063,2025-06-03 02:00:00,28.3528,110.3003,134,怀化市,盘古,沅陵县,993.7,22.8,87.0,53.11598865133146,24.139685180172272
P4068,2025-06-03 02:00:00,27.0119,109.8433,400,怀化市,大溪水库,会同县,964.8,22.4,76.0,36.2664194015361,20.58117483526026
P4069,2025-06-03 02:00:00,28.8036,110.6261,150,怀化市,大合坪,沅陵县,991.9,21.6,84.0,42.073279067558595,21.663505467766047
P4070,2025-06-03 02:00:00,28.5286,110.6353,320,怀化市,长界,沅陵县,973.3,22.2,94.0,48.37395227552695,25.14748831534266
P4079,2025-06-03 02:00:00,27.8842,110.7317,535.2,怀化市,桥江镇新田,溆浦县,950.1,20.3,80.0,37.59894002535818,19.045988848380915
P4080,2025-06-03 02:00:00,27.8681,110.0928,163,怀化市,红敏,辰溪县,991.3,21.6,94.0,43.710932231241394,24.242494213928673
P4092,2025-06-03 02:00:00,26.7067,109.7314,294.7,怀化市,靖州县甘棠,靖州苗族侗族自治县,976.1,21.7,78.0,47.02105620387378,20.239600556127247
P4093,2025-06-03 02:00:00,26.3322,109.335,482,怀化市,平茶,靖州苗族侗族自治县,955.7,20.9,77.0,33.099681815722164,19.022985034322755
P4094,2025-06-03 02:00:00,26.4539,109.895,381.9,怀化市,联团,通道侗族自治县,961.6,22.0,82.0,40.856697435342426,21.671193801816198
P4095,2025-06-03 02:00:00,26.2911,109.9364,433.1,怀化市,石岩,通道侗族自治县,959.6,21.9,75.0,34.53368079741587,19.700550584067198
P4116,2025-06-03 02:00:00,27.8944,109.6364,220.1,怀化市,石羊哨,麻阳苗族自治县,984.7,22.5,98.0,48.49746616552794,26.700818001295733
P4121,2025-06-03 02:00:00,28.0506,110.7606,247.6,怀化市,祖师殿,溆浦县,981.6,21.4,93.0,50.07857663868561,23.692484252867274
P4122,2025-06-03 02:00:00,27.9525,110.7689,290.3,怀化市,油洋,溆浦县,977.1,22.1,77.0,42.353255364213155,20.474325104114868
P4123,2025-06-03 02:00:00,27.8836,110.3986,146.1,怀化市,大江口,溆浦县,993.0,21.7,84.0,47.58166789868344,21.796492906598573
P4126,2025-06-03 02:00:00,27.8461,110.6906,225.2,怀化市,陶金坪,溆浦县,983.2,21.6,88.0,49.45476605982551,22.6951009662311
P4131,2025-06-03 02:00:00,27.4036,110.5142,510,怀化市,龙潭镇横板桥,溆浦县,952.1,21.1,81.0,37.683826017799674,20.258854909691394
P4143,2025-06-03 02:00:00,27.315,110.1617,225,怀化市,洪江市安江,洪江市,983.2,21.7,79.0,39.89042483811265,20.499082614539134
P4144,2025-06-03 02:00:00,27.1914,110.1669,326,怀化市,洪江市熟坪,洪江市,973.2,21.1,95.0,41.112248090963746,23.760385387909658
P4149,2025-06-03 02:00:00,27.2317,109.7297,281,怀化市,岩垅,洪江市,977.2,22.0,90.0,54.03072489142121,23.78545661174949
P4155,2025-06-03 02:00:00,26.9625,110.0258,221.6,怀化市,会同县高椅,会同县,983.7,22.5,85.0,45.68667151775195,23.15887275622589
P4156,2025-06-03 02:00:00,26.9819,109.7731,340.4,怀化市,堡子,会同县,971.9,22.8,96.0,56.7255619108913,26.63689399191423
P4167,2025-06-03 02:00:00,26.3656,109.6619,349.9,怀化市,县溪镇江口,通道侗族自治县,966.8,23.0,78.0,43.188973787924915,21.90649814374728
P4175,2025-06-03 02:00:00,26.085,109.8053,407.3,怀化市,长安堡,通道侗族自治县,961.7,24.3,79.0,48.789388028836285,23.996216436142358
P4198,2025-06-03 02:00:00,28.6917,110.5306,158,怀化市,落坪,沅陵县,991.0,22.1,100.0,48.22861751827527,26.59003260274658
P4200,2025-06-03 02:00:00,27.4572,109.9464,236,怀化市,中方站,中方县,982.1,21.8,83.0,48.5355903232094,21.66912179064198
P4201,2025-06-03 02:00:00,27.8675,110.0128,207.8,怀化市,黄桑乡军田,麻阳苗族自治县,980.0,21.1,87.0,47.87796612067219,21.759510828927795
P4205,2025-06-03 02:00:00,26.6747,109.3367,635,怀化市,塘款,靖州苗族侗族自治县,938.3,20.1,83.0,37.10156516622023,19.517187553720902
P4404,2025-06-03 02:00:00,27.8869,111.5178,442,娄底市,华新,新化县,958.9,22.7,72.0,33.96542800700124,19.856782318065047
P4416,2025-06-03 02:00:00,27.6861,111.2781,211,娄底市,科头,新化县,983.0,23.2,73.0,34.68601493033453,20.75196974812138
P4420,2025-06-03 02:00:00,28.08,111.3736,243,娄底市,龙溪,新化县,979.3,23.5,76.0,48.453237655547255,21.999988381918946
P4432,2025-06-03 02:00:00,28.0161,111.2794,156.6,娄底市,何家坪,新化县,987.5,23.9,82.0,47.23749202975091,24.315978945489846
P4435,2025-06-03 02:00:00,27.7942,111.0617,504,娄底市,古台山林场,新化县,949.1,21.4,74.0,39.84468232328676,18.852084244216968
P4440,2025-06-03 02:00:00,27.6244,111.1006,274,娄底市,半山水库,新化县,978.0,23.0,73.0,36.4433863589626,20.50223544222502
P4446,2025-06-03 02:00:00,27.8789,111.3722,279.4,娄底市,水竹,新化县,977.2,22.3,78.0,41.57593407524118,20.994583499553475
P4481,2025-06-03 02:00:00,27.7511,110.8889,851.1,娄底市,大桥,新化县,914.8,20.0,73.0,34.03802001043731,17.059714000867036
P4512,2025-06-03 02:00:00,27.5672,111.3708,289,娄底市,连岩,冷水江市,975.0,23.8,65.0,36.856674834118415,19.15918092507977
P4515,2025-06-03 02:00:00,27.7794,111.4869,677,娄底市,谭家,冷水江市,931.5,21.0,70.0,30.622200719208465,17.400348957438403
P4516,2025-06-03 02:00:00,27.6011,111.4764,178,娄底市,杨源,冷水江市,986.8,24.9,66.0,42.53466362431156,20.78059319903288
P4517,2025-06-03 02:00:00,27.6461,111.5622,338,娄底市,大冲,冷水江市,971.6,22.9,76.0,43.638948350137916,21.215825442666304
P4561,2025-06-03 02:00:00,27.5222,111.7556,693,娄底市,龙山林场,涟源市,931.3,21.6,58.0,20.996412188035507,14.958134727743223
P4562,2025-06-03 02:00:00,27.85,111.7756,141,娄底市,迎宾,涟源市,990.4,24.2,68.0,36.965127558999285,20.53137677735826
P4563,2025-06-03 02:00:00,27.8811,111.6511,613.5,娄底市,古塘,涟源市,941.4,22.0,73.0,41.08549262054893,19.29264814064125
P4564,2025-06-03 02:00:00,27.72,111.6253,185,娄底市,芙蓉,涟源市,989.2,24.5,72.0,45.22204207644535,22.13376924676115
P4565,2025-06-03 02:00:00,27.8219,111.6697,350,娄底市,安平,涟源市,967.2,23.8,74.0,42.70330516538332,21.811990591629275
P4567,2025-06-03 02:00:00,27.9064,111.8492,181,娄底市,七星中学,涟源市,988.1,25.8,64.0,40.22983693994168,21.259896416252012
P4568,2025-06-03 02:00:00,27.7781,111.8789,97,娄底市,渡头塘,涟源市,995.5,24.9,62.0,38.76770110016202,19.5211633081824
P4569,2025-06-03 02:00:00,27.4906,111.9294,298.7,娄底市,坝塘,涟源市,971.1,25.7,41.0,26.209076576846083,13.539027460749063
P4570,2025-06-03 02:00:00,27.7767,111.7514,166,娄底市,龙塘,涟源市,988.4,24.8,64.0,39.695164513842485,20.030837277578357
P4571,2025-06-03 02:00:00,27.55,111.6817,185.6,娄底市,孙家桥,涟源市,986.7,25.4,58.0,41.99332094216903,18.81427249449634
P4572,2025-06-03 02:00:00,27.6306,111.9314,148,娄底市,水洞底,娄星区,993.6,25.4,60.0,43.061832533069804,19.46304051154794
P4573,2025-06-03 02:00:00,27.5897,111.9006,146.8,娄底市,荷塘,涟源市,990.4,25.8,62.0,43.55923007923355,20.595524653244134
P4574,2025-06-03 02:00:00,27.575,111.8128,148.8,娄底市,茶亭子,涟源市,989.3,25.7,58.0,39.20499490282133,19.152770554230383
P4575,2025-06-03 02:00:00,27.6592,111.8269,185,娄底市,斗笠山,涟源市,986.4,24.7,58.0,36.66079911852989,18.044726805310574
P4576,2025-06-03 02:00:00,27.6225,111.6239,281.2,娄底市,谢家,涟源市,982.4,24.8,75.0,48.45721916075324,23.473637434662134
P4577,2025-06-03 02:00:00,27.7153,111.7697,108,娄底市,湖泉,涟源市,994.3,25.9,60.0,35.79184551751211,20.049708593059776
P4578,2025-06-03 02:00:00,27.5856,111.7683,208.3,娄底市,茅塘,涟源市,983.3,25.7,53.0,39.981604222265084,17.501669644382936
P4580,2025-06-03 02:00:00,27.8442,111.8475,134.6,娄底市,桥头河,涟源市,993.7,25.2,66.0,44.222512195107186,21.155874434164428
P4582,2025-06-03 02:00:00,27.6583,111.7725,146.5,娄底市,青树,涟源市,990.2,26.1,59.0,35.259568693239956,19.950527473861033
P4583,2025-06-03 02:00:00,27.9822,111.6572,488,娄底市,漆树,涟源市,952.0,22.4,67.0,36.93199072762715,18.143930446874176
P4594,2025-06-03 02:00:00,27.6264,111.6889,199,娄底市,杨岭水库,涟源市,983.9,26.5,58.0,35.7645612600931,20.081613681122416
P4601,2025-06-03 02:00:00,27.7633,111.9192,165,娄底市,石井,娄星区,990.7,25.1,72.0,50.592016205788994,22.941956793634528
P4602,2025-06-03 02:00:00,27.7783,111.9608,117,娄底市,黄泥塘,娄星区,994.1,24.6,61.0,42.77635256073666,18.864852083453858
P4611,2025-06-03 02:00:00,27.7747,112.0722,77,娄底市,春园中学,娄星区,996.1,25.8,65.0,46.23244121580238,21.59208229775595
P4614,2025-06-03 02:00:00,27.8078,112.0092,146,娄底市,花溪谷,娄星区,993.3,24.4,70.0,42.9199370333087,21.390369771245528
P4615,2025-06-03 02:00:00,27.6531,111.995,154,娄底市,军分区仓库,娄星区,992.4,30.1,59.0,49.69502555629324,25.193339225096025
P4618,2025-06-03 02:00:00,27.9219,111.9692,272,娄底市,双江水库,娄星区,979.9,25.8,62.0,44.589433742744376,20.595524653244134
P4627,2025-06-03 02:00:00,27.7464,112.0158,112.5,娄底市,乐坪,娄星区,994.2,25.3,64.0,43.2137428847475,20.637361743738595
P4639,2025-06-03 02:00:00,27.7286,112.0014,151.5,娄底市,市气象局,娄星区,991.8,25.1,67.0,44.52576141360809,21.34876534963213
P4651,2025-06-03 02:00:00,27.4397,112.1436,83.5,娄底市,金开街道,双峰县,998.3,25.2,66.0,40.73587988638649,21.155874434164428
P4657,2025-06-03 02:00:00,27.5836,112.0908,106,娄底市,洪福,娄星区,995.0,24.7,63.0,39.108448609247894,19.600306702320108
P4660,2025-06-03 02:00:00,27.6347,112.2511,68.4,娄底市,水府庙,双峰县,1001.1,23.9,24.0,13.707235715439465,7.116871886484834
P4661,2025-06-03 02:00:00,27.4411,111.9703,128.9,娄底市,甘棠,双峰县,993.1,24.7,62.0,39.90489191463477,19.2891907229182
P4662,2025-06-03 02:00:00,27.6261,112.2436,74.9,娄底市,杏子铺,双峰县,1000.6,25.2,56.0,35.28708214415536,17.950438913836486
P4663,2025-06-03 02:00:00,27.5339,112.2253,56.5,娄底市,黄马洲,双峰县,1001.0,25.0,70.0,42.80079295621694,22.17200605331099
P4666,2025-06-03 02:00:00,27.3297,112.1042,106.8,娄底市,锁石,双峰县,996.4,26.0,60.0,36.73286937771933,20.1688807283479
P4667,2025-06-03 02:00:00,27.4825,112.1942,67,娄底市,茅坪,双峰县,999.8,24.6,65.0,34.53397881884588,20.10189156433608
P4668,2025-06-03 02:00:00,27.3981,111.9872,116.2,娄底市,三塘铺,双峰县,994.8,25.0,64.0,39.02069083112127,20.271548391598625
P4669,2025-06-03 02:00:00,27.4258,112.1083,83.5,娄底市,岳家,双峰县,996.9,24.9,70.0,44.70008903473618,22.040023089883352
P4670,2025-06-03 02:00:00,27.4661,112.4281,115.2,娄底市,井字,双峰县,993.6,25.3,61.0,38.094479945403144,19.669985412000848
P4671,2025-06-03 02:00:00,27.5189,112.1044,84.1,娄底市,走马街,双峰县,997.4,24.4,70.0,42.09011838369225,21.390369771245528
P4672,2025-06-03 02:00:00,27.3789,112.0317,106.2,娄底市,青树坪,双峰县,995.3,25.9,64.0,41.95582457616895,21.386355832597097
P4674,2025-06-03 02:00:00,27.3983,112.4289,118.2,娄底市,双鱼,双峰县,993.4,25.4,61.0,39.25877658029608,19.787424520073742
P4675,2025-06-03 02:00:00,27.5603,112.0128,88.5,娄底市,洪山殿,双峰县,997.1,25.8,59.0,40.44801681122422,19.598967008732323
P4676,2025-06-03 02:00:00,27.2908,112.0944,109.5,娄底市,花门,双峰县,995.6,25.3,67.0,40.75681574782246,21.60473807547634
P4677,2025-06-03 02:00:00,27.38,112.2297,116.2,娄底市,石牛,双峰县,992.6,25.0,68.0,44.40592985938316,21.538520166073543
P4678,2025-06-03 02:00:00,27.4853,112.2675,123.2,娄底市,民实,双峰县,992.3,24.1,73.0,46.9984298924243,21.909050346076402
P4801,2025-06-03 02:00:00,28.0036,112.4569,123,湘潭市,金石,湘乡市,996.0,25.1,65.0,38.72918644121385,20.711488772031174
P4802,2025-06-03 02:00:00,27.9392,113.0025,36,湘潭市,昭山,岳塘区,1004.1,24.4,77.0,44.505711323291834,23.529406748370086
P4804,2025-06-03 02:00:00,27.9589,112.4703,106.6,湘潭市,石屏,韶山市,996.4,25.1,55.0,26.614153109260343,17.525105884026377
P4806,2025-06-03 02:00:00,27.935,112.3047,72,湘潭市,金薮,湘乡市,989.1,25.1,64.0,36.91559681925586,20.392850483230692
P4807,2025-06-03 02:00:00,28.02,112.4997,111.3,湘潭市,云源,韶山市,994.6,24.6,66.0,36.827629259735176,20.411151434556633
P4815,2025-06-03 02:00:00,27.9203,112.4253,134.6,湘潭市,新联,韶山市,991.4,25.5,69.0,41.13408301941025,22.51603101790078
P4816,2025-06-03 02:00:00,27.8856,112.9744,60,湘潭市,荷塘,岳塘区,1001.5,25.5,64.0,38.74207563941034,20.88443456732826
P4818,2025-06-03 02:00:00,27.9178,112.5942,72.4,湘潭市,银田,韶山市,998.8,24.3,63.0,38.719042281568356,19.13622323388568
P4821,2025-06-03 02:00:00,27.89,112.5347,69.9,湘潭市,高铁南站,韶山市,998.7,25.3,61.0,34.78057627613202,19.669985412000848
P4829,2025-06-03 02:00:00,27.8378,112.5158,120,湘潭市,龙洞,湘乡市,999.2,25.6,71.0,49.69353605781458,23.306791315151635
P4831,2025-06-03 02:00:00,27.8344,112.9397,68,湘潭市,锦源广场,岳塘区,1001.3,25.7,62.0,36.01168260935465,20.473651282108342
P4834,2025-06-03 02:00:00,27.7967,112.5972,75,湘潭市,韶灌科研所,湘乡市,1001.3,25.2,64.0,36.17775317764452,20.51478733009884
P4835,2025-06-03 02:00:00,27.7922,112.9525,78,湘潭市,易俗河,湘潭县,1002.8,24.7,57.0,35.5958905691732,17.733610825908666
P4839,2025-06-03 02:00:00,27.7614,112.4711,90,湘潭市,泉塘,湘乡市,1000.3,25.6,63.0,35.203836949818445,20.680673983866946
P4841,2025-06-03 02:00:00,27.7161,112.3417,57,湘潭市,潭市,湘乡市,1000.9,27.0,56.0,40.74012002061772,19.96876659965254
P4843,2025-06-03 02:00:00,27.6639,112.4522,75.4,湘潭市,洙津渡,湘乡市,1001.6,25.1,64.0,37.790406869421595,20.392850483230692
P4844,2025-06-03 02:00:00,27.6903,112.1053,99.7,湘潭市,毛田,湘乡市,997.7,25.5,72.0,45.355585649325185,23.494988888244293
P4845,2025-06-03 02:00:00,27.6383,112.5831,259.8,湘潭市,梅桥,湘乡市,979.1,23.5,74.0,54.54129432627695,21.421041319236867
P4846,2025-06-03 02:00:00,27.6442,112.3406,82,湘潭市,洋潭电站,湘乡市,999.9,25.6,60.0,39.96626427695372,19.695879984635184
P4847,2025-06-03 02:00:00,27.6442,112.6283,93.5,湘潭市,上石坝水库,湘潭县,996.4,24.7,63.0,33.68407638665308,19.600306702320108
P4848,2025-06-03 02:00:00,27.6269,112.3814,104,湘潭市,栗山,湘乡市,999.4,25.0,61.0,34.53008737195838,19.321319560742438
P4850,2025-06-03 02:00:00,27.6158,112.71,65.1,湘潭市,锦石,湘潭县,1000.6,24.9,69.0,37.8570525468435,21.725165617170735
P4851,2025-06-03 02:00:00,27.5836,112.6533,98.7,湘潭市,严冲水库,湘潭县,998.4,25.0,68.0,47.560371397271375,21.538520166073543
P4852,2025-06-03 02:00:00,27.5608,112.9153,68.2,湘潭市,中路铺水库,湘潭县,1001.0,25.2,61.0,29.580704440648475,19.55315667400046
P4854,2025-06-03 02:00:00,27.5328,112.3353,140,湘潭市,中沙,湘乡市,993.3,25.3,61.0,38.36696127796408,19.669985412000848
P4855,2025-06-03 02:00:00,27.5292,112.5147,76.4,湘潭市,石鼓,湘潭县,998.1,22.5,73.0,39.93313163179234,19.889384837699883
P4858,2025-06-03 02:00:00,27.4975,112.8272,99,湘潭市,印子山水库,湘潭县,996.2,25.7,62.0,37.696851150799574,20.473651282108342
P4860,2025-06-03 02:00:00,27.4747,112.7319,84.2,湘潭市,龙口,湘潭县,998.0,25.6,61.0,35.473961553181944,20.02414465104577
P4862,2025-06-03 02:00:00,27.3747,112.825,76.9,湘潭市,茶恩寺,湘潭县,999.9,23.7,70.0,38.09601743713833,20.509040410575494
P4863,2025-06-03 02:00:00,27.7808,112.7739,63,湘潭市,杨嘉桥,湘潭县,1002.5,25.5,67.0,35.88685956644934,21.863392437671774
P4864,2025-06-03 02:00:00,27.8578,112.8989,30,湘潭市,白石公园,雨湖区,1004.5,25.4,66.0,43.239869830465416,21.409344562702735
P4865,2025-06-03 02:00:00,27.9172,112.9608,38,湘潭市,九华,雨湖区,1004.5,24.9,76.0,44.7827995455779,23.92916792615907
P4868,2025-06-03 02:00:00,27.8489,112.3881,102.6,湘潭市,白田,湘乡市,998.2,25.2,64.0,41.55161214033106,20.51478733009884
P4870,2025-06-03 02:00:00,27.8144,112.3172,90.2,湘潭市,褒忠山,湘乡市,998.0,25.9,57.0,37.24578217615748,19.047223163406787
P4873,2025-06-03 02:00:00,27.7042,112.9678,74.1,湘潭市,梅林桥,湘潭县,998.3,24.2,73.0,44.276126697527296,22.04103683451695
P4877,2025-06-03 02:00:00,27.6872,112.2133,132,湘潭市,水府旅游区,湘乡市,998.2,24.7,48.0,30.471125572578117,14.93356701129151
P4879,2025-06-03 02:00:00,27.7286,112.725,40.5,湘潭市,石潭,湘潭县,1003.3,24.3,64.0,38.51268816751232,19.43997280902672
P4881,2025-06-03 02:00:00,27.8331,113.0089,25,湘潭市,马家河,岳塘区,1004.3,26.2,64.0,43.46230895266455,21.769690827426196
P4885,2025-06-03 02:00:00,27.7089,112.5983,132.5,湘潭市,奇才,湘潭县,994.1,25.3,62.0,36.20029552435632,19.99244418924676
P4890,2025-06-03 02:00:00,27.6028,112.3539,98,湘潭市,虞唐,湘乡市,994.8,24.9,64.0,36.981369897492506,20.150878253607637
P4919,2025-06-03 02:00:00,27.8208,112.225,228.9,湘潭市,农之源,湘乡市,983.1,25.2,63.0,41.206298433096634,20.194243778066046
P5101,2025-06-03 02:00:00,28.1106,113.0253,72,长沙市,省植物园,雨花区,998.9,24.7,69.0,46.61619368174774,21.467002578731545
P5103,2025-06-03 02:00:00,28.0467,113.0011,83,长沙市,西湖小学,天心区,998.7,24.7,65.0,37.66270118616964,20.222538661123924
P5104,2025-06-03 02:00:00,28.3772,113.44,91,长沙市,中洲,浏阳市,998.4,25.1,71.0,43.790875139668444,22.62331850483405
P5106,2025-06-03 02:00:00,28.5328,113.2044,119,长沙市,福临,长沙县,995.5,23.9,72.0,44.262692068440984,21.3506156594545
P5107,2025-06-03 02:00:00,28.4536,113.0375,73,长沙市,北山镇福高,长沙县,1000.6,24.8,75.0,44.03289257817599,23.473637434662134
P5108,2025-06-03 02:00:00,28.5322,113.3683,78,长沙市,金井,长沙县,999.5,25.6,60.0,33.00251629891298,19.695879984635184
P5110,2025-06-03 02:00:00,28.2892,113.1817,58,长沙市,银龙,长沙县,1002.5,24.4,69.0,48.603020587787185,21.084793060227735
P5111,2025-06-03 02:00:00,28.5892,113.3836,140,长沙市,白石洞水库,长沙县,992.5,24.2,64.0,38.73306090951133,19.3236487316313
P5112,2025-06-03 02:00:00,28.5469,113.2,113,长沙市,西冲水库,长沙县,995.9,24.4,70.0,47.76909761294808,21.390369771245528
P5114,2025-06-03 02:00:00,28.4783,112.8044,45,长沙市,铜官,望城区,1003.0,25.1,75.0,51.635240062207814,23.897871660035968
P5115,2025-06-03 02:00:00,28.5142,112.7536,24,长沙市,苏蓼垸,望城区,1004.8,23.4,79.0,43.7221833080233,22.730751054510144
P5116,2025-06-03 02:00:00,28.2419,112.7236,71,长沙市,光明,望城区,1001.2,25.0,70.0,46.76055796411794,22.17200605331099
P5118,2025-06-03 02:00:00,28.485,113.3806,96,长沙市,桐仁桥水库,长沙县,997.1,24.2,66.0,33.73461193846255,19.927512754494778
P5121,2025-06-03 02:00:00,28.3467,112.8169,55,长沙市,和园公园,望城区,1003.6,24.1,71.0,40.44546603323734,21.308802391389378
P5123,2025-06-03 02:00:00,28.6153,113.2478,64,长沙市,枫林市,长沙县,1001.4,23.7,74.0,39.990887060184754,21.6809855768941
P5124,2025-06-03 02:00:00,28.4675,113.0103,392,长沙市,黑麋峰水电站,望城区,962.9,22.7,72.0,41.36076392846262,19.856782318065047
P5126,2025-06-03 02:00:00,28.2311,113.0644,71,长沙市,金科公园,长沙县,1001.9,24.9,68.0,39.15451511892033,21.41030814445812
P5132,2025-06-03 02:00:00,28.2947,112.7897,194,长沙市,英雄岭,望城区,988.0,22.5,84.0,51.37758216234719,22.886415429682053
P5137,2025-06-03 02:00:00,28.4061,112.7758,97,长沙市,廖家坪,望城区,998.0,24.8,80.0,50.40328391096025,25.038546596972946
P5140,2025-06-03 02:00:00,27.9883,112.9792,31,长沙市,兴马洲,天心区,1004.9,25.0,67.0,50.21858181493414,21.221777222454808
P5142,2025-06-03 02:00:00,28.2556,113.1589,47.5,长沙市,长龙,长沙县,1001.9,23.9,67.0,32.377071787372635,19.867934016436827
P5143,2025-06-03 02:00:00,28.0861,113.1761,23,长沙市,黄兴镇林塘,长沙县,1003.2,24.8,70.0,42.32395593409394,21.908728272351325
P5150,2025-06-03 02:00:00,28.3217,112.8728,53,长沙市,大泽湖,望城区,1003.5,23.5,73.0,39.490344509040916,21.13156778789583
P5151,2025-06-03 02:00:00,28.3128,112.8869,55,长沙市,永通车管所,望城区,1003.8,24.3,70.0,40.939541603962645,21.262470259872973
P5156,2025-06-03 02:00:00,28.3111,112.9056,40,长沙市,四医院,望城区,1004.1,24.9,69.0,43.14417752061967,21.725165617170735
P5157,2025-06-03 02:00:00,28.4072,114.1969,531,长沙市,东麓园,浏阳市,950.8,21.9,78.0,42.21924965765343,20.488572607429887
P5161,2025-06-03 02:00:00,28.4922,112.7303,28,长沙市,乔口,望城区,1005.6,23.7,75.0,46.411764213519106,21.973971868473747
P5162,2025-06-03 02:00:00,28.3003,112.92,44,长沙市,新奥佳园,望城区,1004.5,24.3,69.0,49.35244828720026,20.95872068473193
P5163,2025-06-03 02:00:00,28.2825,112.9075,61,长沙市,金峰园,望城区,1002.7,24.1,68.0,39.69707451155618,20.408430459358843
P5164,2025-06-03 02:00:00,28.2931,112.8494,54,长沙市,李家祠堂,望城区,1003.9,25.3,71.0,41.288262339969855,22.894573184460004
P5165,2025-06-03 02:00:00,28.5281,113.3594,78,长沙市,石壁湖,长沙县,1001.4,24.9,68.0,45.79638190546604,21.41030814445812
P5175,2025-06-03 02:00:00,28.4675,113.3308,61.1,长沙市,锦绣,长沙县,1000.6,25.3,62.0,33.540710502777536,19.99244418924676
P5187,2025-06-03 02:00:00,28.49,113.1111,53,长沙市,新桥,长沙县,1002.7,25.5,70.0,40.9696600369023,22.84235030801528
P5188,2025-06-03 02:00:00,28.4061,112.9925,85,长沙市,北山水库,长沙县,998.2,24.3,72.0,45.21372224228749,21.86996941015506
P5189,2025-06-03 02:00:00,28.4369,112.9975,64,长沙市,洞阳,望城区,1001.5,24.5,71.0,39.54159258516334,21.82635578500058
P5190,2025-06-03 02:00:00,28.2758,112.9675,32,长沙市,江湾,开福区,1004.6,24.4,70.0,45.730736430556725,21.390369771245528
P5195,2025-06-03 02:00:00,28.4267,112.9922,120,长沙市,黑麋峰,望城区,994.0,24.2,70.0,45.7800723692903,21.13524080022173
P5199,2025-06-03 02:00:00,27.975,113.7275,125,长沙市,大瑶,浏阳市,994.0,23.5,75.0,42.583201552332156,21.710514850577905
P5201,2025-06-03 02:00:00,28.4103,113.22,52,长沙市,明月,长沙县,1003.0,24.8,70.0,41.71791588067815,21.908728272351325
P5206,2025-06-03 02:00:00,28.3222,113.3075,66,长沙市,红旗水库,长沙县,1001.2,24.6,66.0,38.10622436861025,20.411151434556633
P5215,2025-06-03 02:00:00,28.4372,113.6556,268,长沙市,周洛,浏阳市,977.1,23.7,84.0,46.27586293620479,24.610848492690597
P5218,2025-06-03 02:00:00,28.2203,112.9436,49,长沙市,咸嘉湖,岳麓区,1003.7,25.6,64.0,44.81045224227404,21.008938650277532
P5221,2025-06-03 02:00:00,28.4306,113.5953,145,长沙市,石牛,浏阳市,991.6,24.0,69.0,32.190055657232335,20.584454703245207
P5225,2025-06-03 02:00:00,28.2489,113.0753,61,长沙市,县政府,长沙县,1001.9,25.1,65.0,38.415071510591176,20.711488772031174
P5230,2025-06-03 02:00:00,28.2311,112.6875,41,长沙市,天马新村,宁乡市,1003.7,24.7,67.0,35.27403643350792,20.844770619927733
P5231,2025-06-03 02:00:00,28.3489,112.8297,44,长沙市,望府路,望城区,1004.1,24.3,77.0,49.54577442462326,23.388717285860274
P5233,2025-06-03 02:00:00,28.2806,112.5453,67,长沙市,玉潭,宁乡市,1001.2,26.0,63.0,33.033701839019,21.1773247647653
P5235,2025-06-03 02:00:00,28.4014,113.1228,69,长沙市,和平,长沙县,1000.3,24.8,78.0,40.07524495724431,24.412582932048622
P5245,2025-06-03 02:00:00,28.3578,113.7469,192,长沙市,宝盖寺,浏阳市,988.1,23.0,71.0,42.42762556076167,19.940530361616116
P5249,2025-06-03 02:00:00,28.4283,114.1492,1437,长沙市,大围山,浏阳市,852.3,15.1,97.0,36.04291423628076,16.636012718130456
P5259,2025-06-03 02:00:00,28.4119,112.9264,47,长沙市,桥驿,望城区,1003.0,24.2,70.0,47.59760107566578,21.13524080022173
P5266,2025-06-03 02:00:00,28.225,112.1089,242,长沙市,石龙洞,宁乡市,981.0,23.4,70.0,39.717822753734424,20.141171820452026
P5269,2025-06-03 02:00:00,28.28,112.6847,60,长沙市,关山,宁乡市,1002.4,24.5,67.0,37.01311210456006,20.596701937958294
P5273,2025-06-03 02:00:00,28.32,112.7211,52,长沙市,乌山,望城区,1004.1,25.2,67.0,45.76436496952579,21.476417986197223
P5275,2025-06-03 02:00:00,28.3381,113.2011,41,长沙市,果园,长沙县,1004.4,25.0,65.0,40.572236090603866,20.588291335217352
P5281,2025-06-03 02:00:00,28.2647,112.9558,46,长沙市,观沙岭,岳麓区,1004.1,25.2,68.0,42.19588374865394,21.796961538230022
P5290,2025-06-03 02:00:00,28.3578,113.8136,136,长沙市,礼花,浏阳市,994.0,23.8,74.0,38.053777071662495,21.811990591629275
P5291,2025-06-03 02:00:00,28.4119,113.9247,125,长沙市,椒花水库,浏阳市,994.3,25.0,62.0,34.77081118004761,19.638062504361166
P5292,2025-06-03 02:00:00,28.2658,114.0942,207,长沙市,皇碑,浏阳市,985.0,23.3,73.0,39.45906118978474,20.877833220930015
P5293,2025-06-03 02:00:00,28.0658,113.5647,88,长沙市,青草,浏阳市,1000.8,24.9,66.0,40.694003102323386,20.78059319903288
P5294,2025-06-03 02:00:00,27.9958,113.7706,94,长沙市,澄潭江,浏阳市,997.6,24.5,70.0,37.96036914704183,21.518942323240005
P5295,2025-06-03 02:00:00,28.0739,113.9867,166,长沙市,岩前,浏阳市,988.4,23.4,72.0,37.794962905705816,20.716633872464943
P5296,2025-06-03 02:00:00,28.1881,113.5158,417,长沙市,菖蒲岭,浏阳市,961.0,23.7,70.0,37.44828605355717,20.509040410575494
P5298,2025-06-03 02:00:00,28.2083,112.7342,75,长沙市,白箬铺,望城区,1001.2,25.1,65.0,29.47418430768029,20.711488772031174
P5303,2025-06-03 02:00:00,28.3167,112.9208,43,长沙市,月亮岛公园,望城区,1004.9,24.3,72.0,44.32124320753746,21.86996941015506
P5304,2025-06-03 02:00:00,28.1058,112.9289,46,长沙市,大王山,岳麓区,1003.5,25.4,65.0,41.59155048812474,21.084960554176938
P5305,2025-06-03 02:00:00,28.0719,112.9189,39,长沙市,巴溪洲,岳麓区,1004.6,25.8,68.0,46.149072618304814,22.588639942267765
P5306,2025-06-03 02:00:00,28.1253,112.9214,30,长沙市,洋湖湿地,岳麓区,1005.3,26.0,63.0,46.211255450459994,21.1773247647653
P5307,2025-06-03 02:00:00,28.2764,112.8547,64,长沙市,观音岩水库,望城区,1001.5,23.9,70.0,36.13207430326955,20.75754300224743
P5309,2025-06-03 02:00:00,28.2733,112.8256,50,长沙市,黄金园,望城区,1003.1,24.8,68.0,33.220393057011776,21.282764607427005
P5314,2025-06-03 02:00:00,28.2231,113.1889,70,长沙市,黄龙小学,长沙县,1000.7,24.5,66.0,38.83783743057225,20.289288476197722
P5315,2025-06-03 02:00:00,28.2975,113.4322,74.4,长沙市,北盛,浏阳市,1000.4,27.0,67.0,44.778904405145894,23.891202896012857
P5322,2025-06-03 02:00:00,28.2247,112.2611,121,长沙市,喻家坳,宁乡市,995.9,24.2,65.0,38.841633347337684,19.62558074306304
P5323,2025-06-03 02:00:00,28.2836,113.9053,122,长沙市,铁山,浏阳市,993.8,24.4,73.0,34.7103159803887,22.307099904298912
P5328,2025-06-03 02:00:00,28.2336,112.9639,65,长沙市,岳北,岳麓区,1004.4,25.6,68.0,46.474206385959796,22.32199731591988
P5329,2025-06-03 02:00:00,28.4608,112.7889,44,长沙市,靖港电排,望城区,1005.3,24.5,70.0,40.48633475628842,21.518942323240005
P5330,2025-06-03 02:00:00,28.1872,112.9747,64,长沙市,天心公园,天心区,1002.8,24.5,67.0,41.22195968531728,20.596701937958294
P5331,2025-06-03 02:00:00,28.1886,111.9597,574,长沙市,沩山,宁乡市,941.4,20.5,72.0,33.189571642889476,17.3545072691403
P5332,2025-06-03 02:00:00,28.1672,113.1039,37,长沙市,敢胜,长沙县,1004.5,25.1,63.0,28.694062915496833,20.074212194430213
P5333,2025-06-03 02:00:00,28.145,112.9647,92,长沙市,南郊公园,天心区,999.4,24.4,69.0,40.130615049552375,21.084793060227735
P5335,2025-06-03 02:00:00,28.31,112.4928,78,长沙市,菁华铺,宁乡市,1000.5,25.7,62.0,29.260536094331016,20.473651282108342
P5336,2025-06-03 02:00:00,28.1936,112.5236,67,长沙市,金州村,宁乡市,1001.4,23.5,66.0,31.61557609216009,19.10525306850856
P5337,2025-06-03 02:00:00,28.1239,112.23,112,长沙市,云山,宁乡市,997.2,24.1,63.0,40.66106946185569,18.907810572641278
P5339,2025-06-03 02:00:00,28.0281,112.0342,348,长沙市,草冲,宁乡市,969.4,24.0,73.0,43.816641288713825,21.777756425172466
P5342,2025-06-03 02:00:00,27.9244,112.1153,201,长沙市,田心铺,宁乡市,987.2,24.4,59.0,35.423906512668715,18.029025950049803
P5343,2025-06-03 02:00:00,28.1831,112.765,70,长沙市,牌楼坝,望城区,1000.5,25.4,69.0,41.70490896242925,22.38249658828013
P5345,2025-06-03 02:00:00,28.2161,112.8033,36,长沙市,真人桥,望城区,1000.6,24.3,69.0,41.61514437828985,20.95872068473193
P5346,2025-06-03 02:00:00,28.2114,112.9578,36,长沙市,银盆岭,岳麓区,1004.5,25.9,66.0,44.96645962032698,22.054679452365757
P5347,2025-06-03 02:00:00,28.1581,112.9825,104,长沙市,七里庙,雨花区,998.4,24.6,64.0,36.84305882546973,19.792631694115524
P5348,2025-06-03 02:00:00,28.0739,113.1175,122,长沙市,冬斯港,雨花区,995.8,24.6,67.0,37.67530385235059,20.720411304777187
P5352,2025-06-03 02:00:00,28.3069,113.7983,106,长沙市,沿溪,浏阳市,998.1,24.7,65.0,30.95024720305041,20.222538661123924
P5359,2025-06-03 02:00:00,28.185,113.8469,121,长沙市,株树桥水库,浏阳市,995.9,23.4,71.0,39.3159669963232,20.428902846458485
P5363,2025-06-03 02:00:00,28.2042,114.0764,223,长沙市,小河,浏阳市,981.8,24.0,71.0,37.24497867232313,21.18110556420884
P5372,2025-06-03 02:00:00,28.2153,113.1131,58,长沙市,长桥公园,长沙县,1002.3,24.8,62.0,31.58710741787341,19.404873612654033
P5373,2025-06-03 02:00:00,28.1264,112.0311,192,长沙市,联花,宁乡市,988.2,24.3,64.0,37.025038592335065,19.43997280902672
P5382,2025-06-03 02:00:00,28.0978,112.7422,59,长沙市,莲花,岳麓区,1001.3,25.6,65.0,34.09771757072066,21.337203316688118
P5383,2025-06-03 02:00:00,28.1314,112.9047,38,长沙市,学士,岳麓区,1004.9,24.8,65.0,41.64166231980039,20.34381911004052
P5384,2025-06-03 02:00:00,28.1669,112.945,34,长沙市,天马,岳麓区,1005.0,25.0,65.0,40.65598323958559,20.588291335217352
P5387,2025-06-03 02:00:00,28.4106,113.0097,88,长沙市,蒿塘,长沙县,1000.9,24.6,75.0,40.33974298423816,23.194490266541628
P5388,2025-06-03 02:00:00,28.1344,112.6739,74,长沙市,泉水冲水库,岳麓区,1000.4,24.0,72.0,43.066771731294295,21.479430994690652
P5390,2025-06-03 02:00:00,28.0997,112.8567,60,长沙市,含浦,岳麓区,1000.8,24.3,69.0,42.89489767589456,20.95872068473193
P5398,2025-06-03 02:00:00,28.0856,113.8717,189,长沙市,中和,浏阳市,987.3,23.5,72.0,38.43576552270259,20.84209425655479
P5404,2025-06-03 02:00:00,28.1303,113.3728,122,长沙市,江背,长沙县,993.8,24.4,68.0,38.10870394258725,20.77921634920995
P5416,2025-06-03 02:00:00,28.1031,111.9381,287,长沙市,巷子口,宁乡市,976.8,24.2,70.0,42.18851180992007,21.13524080022173
P5420,2025-06-03 02:00:00,28.1178,112.9831,79,长沙市,天心区政府,天心区,999.6,25.1,61.0,35.86748637848656,19.436935616829253
P5421,2025-06-03 02:00:00,28.0331,112.7922,44,长沙市,含浦干子,岳麓区,1003.1,25.6,65.0,38.93861173642189,21.337203316688118
P5426,2025-06-03 02:00:00,28.5369,113.3522,82,长沙市,金井茶场,长沙县,999.6,24.6,62.0,34.1801644030883,19.174111953674412
P5431,2025-06-03 02:00:00,28.0792,113.4703,98,长沙市,葛家,浏阳市,997.7,24.1,67.0,31.748186807392607,20.108306482015326
P5434,2025-06-03 02:00:00,28.1975,113.0539,60,长沙市,东岸,芙蓉区,1005.1,25.8,60.0,32.28337327002484,19.93115289023626
P5436,2025-06-03 02:00:00,28.0397,112.9897,90,长沙市,省气象局,天心区,1000.4,24.9,69.0,38.783729966331904,21.725165617170735
P5437,2025-06-03 02:00:00,28.2036,112.9086,37,长沙市,梅溪湖,岳麓区,1004.5,25.0,63.0,41.3157669505911,19.954805447979897
P5438,2025-06-03 02:00:00,28.2119,113.0339,31,长沙市,马王堆,芙蓉区,1005.0,24.7,67.0,38.404135144315326,20.844770619927733
P5439,2025-06-03 02:00:00,28.2061,113.0594,75,长沙市,马坡岭,芙蓉区,1002.2,24.0,69.0,44.26949339777163,20.584454703245207
