Station_Id_C,Datetime,Station_Name,City,Cnty,Lat,Lon,Alti,PRS,TEM,RHU,VAP,PWV
57264,2025-06-03 11:00:00,武当山,十堰市,丹江口市,32.4261,111.0153,1017.5,896.5,21.0,69.0,17.151772543760714,26.839999999999986
57351,2025-06-03 11:00:00,坛子岭,宜昌市,夷陵区,30.8333,111.0167,231.0,981.3,24.3,67.0,20.35122153444985,45.3775
57352,2025-06-03 11:00:00,三斗坪,宜昌市,夷陵区,30.8092,111.0003,185.3,986.3,24.9,64.0,20.15087825360764,45.35150000000001
57353,2025-06-03 11:00:00,苏家坳,宜昌市,夷陵区,30.8378,111.0164,191.8,985.7,25.7,61.0,20.14343110013885,45.58100000000004
57354,2025-06-03 11:00:00,神农顶,省直辖县级行政区划,神农架林区,31.4558,110.2711,2948.1,714.0,7.5,67.0,6.943212287586052,11.032000000000007
57367,2025-06-03 11:00:00,大老岭,宜昌市,夷陵区,31.0836,110.9406,1910.0,808.3,15.1,24.0,4.116126858094134,12.70949999999999
57451,2025-06-03 11:00:00,绿葱坡,恩施土家族苗族自治州,巴东县,30.8131,110.2539,1813.5,818.2,14.4,78.0,12.786726741893364,27.23099999999999
Q0004,2025-06-03 11:00:00,沪渝K1464,恩施土家族苗族自治州,利川市,30.2789,108.8711,1082.2,887.8,19.3,67.0,14.991136608189828,20.700500000000005
Q0005,2025-06-03 11:00:00,沪渝K1439,恩施土家族苗族自治州,利川市,30.2444,109.1197,1131.4,883.9,18.3,99.0,20.808235898159182,39.24749999999994
Q0007,2025-06-03 11:00:00,沪渝K1412,恩施土家族苗族自治州,恩施市,30.2389,109.3664,706.7,927.8,21.5,88.0,22.556526643507546,47.64900000000001
Q0008,2025-06-03 11:00:00,沪渝K1407,恩施土家族苗族自治州,巴东县,30.2439,109.4128,545.1,944.3,22.7,75.0,20.68414824798442,39.736500000000014
Q0010,2025-06-03 11:00:00,沪渝K1375,恩施土家族苗族自治州,恩施市,30.4114,109.5864,729.9,924.8,21.7,84.0,21.796492906598573,45.50900000000004
Q0011,2025-06-03 11:00:00,沪渝K1369,恩施土家族苗族自治州,恩施市,30.455,109.6258,624.1,935.7,23.0,75.0,21.063940522833924,36.930500000000045
Q0013,2025-06-03 11:00:00,沪渝K1351,恩施土家族苗族自治州,恩施市,30.4628,109.7828,780.1,918.8,21.6,83.0,21.405606593149788,47.17649999999999
Q0014,2025-06-03 11:00:00,沪渝K1343,恩施土家族苗族自治州,恩施市,30.4997,109.8508,903.4,906.4,20.7,65.0,15.861756400096684,31.80800000000001
Q0015,2025-06-03 11:00:00,沪渝K1336,恩施土家族苗族自治州,建始县,30.55,109.8914,879.8,908.6,21.1,68.0,17.007433751345864,30.618499999999987
Q0017,2025-06-03 11:00:00,沪渝K1313,恩施土家族苗族自治州,巴东县,30.6506,110.0908,794.9,917.6,20.1,82.0,19.28204071572426,40.10049999999994
Q0019,2025-06-03 11:00:00,沪渝K1305,恩施土家族苗族自治州,巴东县,30.6308,110.1639,865.2,910.1,19.7,74.0,16.974522589951267,30.91349999999999
Q0021,2025-06-03 11:00:00,沪渝K1291,恩施土家族苗族自治州,巴东县,30.6119,110.3097,1104.2,885.5,17.9,77.0,15.782243235261964,30.325500000000037
Q0022,2025-06-03 11:00:00,沪渝k1283,恩施土家族苗族自治州,恩施市,30.6217,110.3864,923.0,914.0,21.1,64.0,16.006996471854926,31.11399999999999
Q0023,2025-06-03 11:00:00,秭归k48,宜昌市,市辖区,30.6325,111.3253,62.7,996.4,24.4,69.0,21.08479306022773,45.328500000000005
Q0026,2025-06-03 11:00:00,沪渝K1262,宜昌市,长阳土家族自治县,30.6247,110.6047,597.8,938.1,20.1,67.0,15.754838145774704,28.108500000000006
Q0028,2025-06-03 11:00:00,沪渝K1179,宜昌市,市辖区,30.5711,111.4003,54.9,997.9,25.3,70.0,22.572114407214084,45.01849999999994
Q0030,2025-06-03 11:00:00,沪渝K1208,宜昌市,长阳土家族自治县,30.5589,111.1281,241.9,980.3,23.7,70.0,20.50904041057549,28.338000000000036
Q0032,2025-06-03 11:00:00,沪渝K1097,荆州市,荆州区,30.3922,112.195,25.4,1002.5,27.0,54.0,19.255596363950666,42.60899999999996
Q0033,2025-06-03 11:00:00,沪渝K1069,荆州市,荆州区,30.3353,112.4733,25.4,1003.2,27.0,65.0,23.178032660310983,47.85900000000005
Q0034,2025-06-03 11:00:00,沪渝K1065,省直辖县级行政区划,潜江市,30.3383,112.5164,24.4,1002.8,26.3,66.0,22.583135177721022,38.223499999999966
Q0037,2025-06-03 11:00:00,沪渝K933,武汉市,蔡甸区,30.4533,113.8225,17.0,1003.5,26.1,64.0,21.64125014113739,36.36900000000001
Q0039,2025-06-03 11:00:00,沪渝k959,省直辖县级行政区划,仙桃市,30.3486,113.5853,15.2,1003.2,26.7,63.0,22.071603466954212,33.40650000000002
Q0040,2025-06-03 11:00:00,沪渝K982,省直辖县级行政区划,仙桃市,30.3631,113.3619,9.0,1003.8,26.2,70.0,23.8105993424974,43.56800000000004
Q0047,2025-06-03 11:00:00,黄黄785,黄冈市,浠水县,30.2406,115.1297,19.8,1004.5,26.7,54.0,18.91851725738933,33.56300000000004
Q0049,2025-06-03 11:00:00,黄黄K761,黄冈市,蕲春县,30.1353,115.33,21.4,1003.8,26.2,64.0,21.7696908274262,44.45400000000002
Q0050,2025-06-03 11:00:00,黄黄K742,黄冈市,武穴市,30.0289,115.4664,41.4,1001.8,25.1,68.0,21.667403638432614,35.16600000000003
Q0051,2025-06-03 11:00:00,黄黄K730,黄冈市,武穴市,30.0039,115.5917,38.0,1002.7,24.8,69.0,21.59574643988916,39.01050000000004
Q0052,2025-06-03 11:00:00,黄黄K722,黄冈市,武穴市,30.0161,115.6708,42.5,1001.4,25.0,73.0,23.12223488416718,43.80399999999999
Q0053,2025-06-03 11:00:00,黄黄K714,黄冈市,武穴市,30.0278,115.7514,22.2,1003.7,25.9,62.0,20.71803221282844,28.603000000000005
Q0054,2025-06-03 11:00:00,黄黄K708,黄冈市,黄梅县,30.0278,115.8164,23.1,1004.0,25.1,69.0,21.98604192723309,28.104874999999947
Q0055,2025-06-03 11:00:00,黄黄K700,黄冈市,黄梅县,30.0333,115.8986,25.2,1003.5,25.3,67.0,21.60473807547634,37.71800000000005
Q0056,2025-06-03 11:00:00,黄黄K685,黄冈市,黄梅县,30.1047,116.0217,45.9,1001.4,24.2,78.0,23.55069689167565,43.95650000000009
Q0058,2025-06-03 11:00:00,大广K2491,黄石市,市辖区,30.1703,114.9136,25.0,1002.7,25.6,59.0,19.3676153182246,36.057500000000005
Q0061,2025-06-03 11:00:00,大广K2520,黄石市,大冶市,29.9158,114.8833,57.7,999.5,24.4,71.0,21.695946482263327,40.03349999999997
Q0064,2025-06-03 11:00:00,大广K2552,黄石市,阳新县,29.6617,114.9464,23.5,1003.3,24.6,61.0,18.864852083453854,32.04300000000002
Q0065,2025-06-03 11:00:00,大广K2560,黄石市,阳新县,29.6053,114.9322,37.1,1000.7,24.6,59.0,18.24633234301275,31.13199999999997
Q0066,2025-06-03 11:00:00,大广K2583,咸宁市,通山县,29.4306,114.8339,281.9,972.8,23.4,67.0,19.27797874243265,44.87399999999994
Q0067,2025-06-03 11:00:00,杭瑞K731,咸宁市,崇阳县,29.3742,113.8803,81.0,995.7,24.8,69.0,21.59574643988916,43.61699999999993
Q0069,2025-06-03 11:00:00,杭瑞K679,咸宁市,通山县,29.5817,114.3203,81.0,992.9,24.4,72.0,22.00152319328112,42.02850000000004
Q0071,2025-06-03 11:00:00,杭瑞K640,咸宁市,通山县,29.7172,114.6692,128.1,991.2,23.7,66.0,19.3370952442569,40.85699999999999
Q0072,2025-06-03 11:00:00,杭瑞K620,黄石市,阳新县,29.7147,114.8767,167.3,987.5,22.6,65.0,17.817705769010995,29.190000000000023
Q0074,2025-06-03 11:00:00,杭瑞K583,黄石市,阳新县,29.7067,115.2367,54.2,999.4,23.7,73.0,21.387999285314446,38.67499999999998
Q0079,2025-06-03 11:00:00,福银K1447,十堰市,郧西县,33.08,110.3,444.3,956.6,23.8,79.0,23.285773739712333,38.19099999999997
Q0080,2025-06-03 11:00:00,福银K1421,十堰市,郧西县,32.95,110.5,395.1,961.4,24.5,67.0,20.596701937958294,35.99650000000008
Q0081,2025-06-03 11:00:00,福银K1405,十堰市,郧西县,32.86,110.65,275.8,972.9,26.2,57.0,19.38863089317645,35.33849999999995
Q0082,2025-06-03 11:00:00,福银K1398,十堰市,郧西县,32.82,110.7,205.1,980.9,27.4,55.0,20.07825578253881,38.909999999999975
Q0083,2025-06-03 11:00:00,福银K1338,十堰市,丹江口市,32.51,111.14,162.4,986.3,26.2,75.0,25.51135643839007,24.667
Q0087,2025-06-03 11:00:00,福银K1277,襄阳市,谷城县,32.28,111.66,73.4,996.3,26.4,73.0,25.12634201991376,41.06149999999999
Q0089,2025-06-03 11:00:00,福银K1234,襄阳市,市辖区,32.19,112.1,76.5,996.4,28.1,43.0,16.353457732954762,31.56400000000001
Q0093,2025-06-03 11:00:00,福银K1103,随州市,市辖区,31.67,113.26,101.0,994.6,25.3,71.0,22.894573184460004,41.65499999999998
Q0094,2025-06-03 11:00:00,福银K1093,随州市,市辖区,31.6,113.33,83.0,996.9,27.1,60.0,21.52124101234361,35.96700000000003
Q0095,2025-06-03 11:00:00,福银K1076,随州市,市辖区,31.48,113.43,110.0,993.8,25.7,78.0,25.757174193620173,45.84375000000001
Q0096,2025-06-03 11:00:00,福银K1064,孝感市,安陆市,31.39,113.51,97.7,996.0,26.5,69.0,23.890195586162875,50.55333333333329
Q0100,2025-06-03 11:00:00,福银K993,孝感市,市辖区,30.98,114.05,29.2,1002.6,26.5,68.0,23.54396086752284,52.21000000000003
Q0103,2025-06-03 11:00:00,襄荆K1620,荆门市,钟祥市,31.54,112.28,56.7,998.9,27.0,5.0,1.782925589254691,6.130499999999994
Q0104,2025-06-03 11:00:00,襄荆K1634,荆门市,钟祥市,31.42,112.34,68.6,998.1,27.1,64.0,22.95599041316652,33.74000000000001
Q0106,2025-06-03 11:00:00,襄荆K1685,荆门市,市辖区,30.99,112.27,51.3,999.4,26.4,74.0,25.470538485939976,31.558500000000027
Q0107,2025-06-03 11:00:00,襄荆K1704,荆门市,市辖区,30.82,112.24,75.1,997.4,25.8,71.0,23.58519758677957,39.87550000000004
Q0108,2025-06-03 11:00:00,襄荆K1715交通气象站,荆门市,沙洋县,30.7,112.22,50.4,1000.3,25.8,5.0,1.6609294075196883,8.04
Q0109,2025-06-03 11:00:00,襄荆K1745,荆门市,沙洋县,30.45,112.21,42.3,1002.2,26.8,67.0,23.611667351656703,44.26999999999998
Q0600,2025-06-03 11:00:00,洪湖石码头,荆州市,洪湖市,29.8361,113.5272,26.0,1003.3,26.8,61.0,21.497189678374017,28.19050000000001
Q0603,2025-06-03 11:00:00,石首海事码头,荆州市,石首市,29.7378,112.4081,20.0,1002.6,25.7,66.0,21.7945320099863,33.77799999999993
Q0604,2025-06-03 11:00:00,公安航道码头,荆州市,公安县,30.0744,112.215,11.0,1002.2,26.3,65.0,22.24096646290707,35.9875
Q0605,2025-06-03 11:00:00,江陵航道码头,荆州市,江陵县,30.03,112.4025,50.0,1002.1,26.2,65.0,22.10984224660473,35.4675
Q0606,2025-06-03 11:00:00,杨林矶海事码头,荆州市,市辖区,30.3206,112.2025,15.0,1002.0,25.4,72.0,23.35564861385753,41.49049999999994
Q0607,2025-06-03 11:00:00,阳逻海事水上搜救中心,武汉市,新洲区,30.6586,114.5494,40.0,1003.5,25.8,56.0,18.602409364220517,33.455999999999946
Q0608,2025-06-03 11:00:00,金口航道码头,武汉市,江夏区,30.3672,114.1486,0.0,1003.4,25.8,64.0,21.25989641625201,33.31200000000004
Q0609,2025-06-03 11:00:00,嘉鱼簰洲湾海事站房,咸宁市,嘉鱼县,30.2064,113.9283,20.0,1003.4,26.0,66.0,22.185768801182693,36.57250000000003
Q0611,2025-06-03 11:00:00,秭归泄滩小学,宜昌市,秭归县,31.0047,110.6128,194.5,983.9,24.0,81.0,24.164359869026985,38.486999999999945
Q0612,2025-06-03 11:00:00,长江航道宜昌综合码头,宜昌市,宜都市,30.5539,111.39,40.0,1000.8,26.0,61.0,20.505028740487035,44.91999999999999
Q0613,2025-06-03 11:00:00,宜昌海事局孙家河执法队,宜昌市,宜都市,30.4106,111.5064,60.0,1001.4,26.1,60.0,20.288672007316304,33.51799999999995
Q0614,2025-06-03 11:00:00,松滋河口,宜昌市,宜都市,30.3075,111.6236,40.0,1001.3,25.0,71.0,22.48874899692973,45.48700000000005
Q0615,2025-06-03 11:00:00,枝江姚港,宜昌市,枝江市,30.3725,111.64,50.0,1001.7,24.8,62.0,19.404873612654036,36.35899999999998
Q0616,2025-06-03 11:00:00,枝江七星台,宜昌市,枝江市,30.4125,111.8875,40.0,1002.0,25.6,65.0,21.33720331668812,40.12099999999995
Q0617,2025-06-03 11:00:00,监利何王庙,荆州市,监利市,29.7708,113.0303,40.0,1002.6,26.5,63.0,21.812787274322627,31.262999999999984
Q0618,2025-06-03 11:00:00,监利三洲,荆州市,监利市,29.6517,112.9492,30.0,1002.8,25.4,2.0,0.648768017051598,2.886000000000004
Q0619,2025-06-03 11:00:00,洪湖龙口汽渡码头,荆州市,洪湖市,29.9542,113.8303,30.0,1003.2,25.9,68.0,22.72300307213442,36.93699999999996
Q0701,2025-06-03 11:00:00,水口白灯船,武汉市,新洲区,30.6869,114.5175,4.0,1003.1,25.8,56.0,18.602409364220517,39.37700000000002
Q0702,2025-06-03 11:00:00,牧鹅洲白灯船,武汉市,新洲区,30.5583,114.6317,4.0,1003.1,26.4,45.0,15.488840971179714,25.559499999999996
Q0704,2025-06-03 11:00:00,沙市河段航道整治一期工程提示标,荆州市,沙市区,30.3142,112.2003,8.0,1001.3,24.9,76.0,23.92916792615907,53.06750000000002
Q0705,2025-06-03 11:00:00,公安大桥进口白泵船,荆州市,公安县,30.0753,112.3128,7.0,1001.4,24.8,81.0,25.35152842943511,54.118499999999976
Q0707,2025-06-03 11:00:00,桃花洲中提示标,荆州市,洪湖市,29.7636,112.6675,6.0,1001.8,24.1,76.0,22.80942227810694,36.16550000000001
Q0725,2025-06-03 11:00:00,天兴洲航道整治建筑物上提示标,武汉市,江岸区,30.6411,114.3525,4.0,1002.6,25.7,58.0,19.152770554230383,33.118500000000026
Q0729,2025-06-03 11:00:00,黄冈大桥#1红浮,黄冈市,市辖区,30.5308,114.8308,4.0,1002.8,25.1,72.0,22.941956793634528,31.795500000000036
Q0737,2025-06-03 11:00:00,李家洲#3红浮,黄冈市,市辖区,30.1289,115.2844,3.0,1002.8,25.2,66.0,21.155874434164428,39.81400000000004
Q1000,2025-06-03 11:00:00,江滩,武汉市,江岸区,30.5944,114.3017,28.8,1003.6,25.9,59.0,19.715546783175448,31.71699999999997
Q1001,2025-06-03 11:00:00,潘塘,武汉市,新洲区,30.9978,114.8886,62.0,998.8,25.7,65.0,21.46431182801681,41.67899999999997
Q1002,2025-06-03 11:00:00,三店,武汉市,新洲区,30.9278,114.7925,28.0,1003.4,25.7,70.0,23.11541273786425,43.47849999999992
Q1003,2025-06-03 11:00:00,李集,武汉市,新洲区,30.8803,114.6789,24.6,1003.7,25.2,73.0,23.399679298393988,36.80150000000001
Q1004,2025-06-03 11:00:00,旧街,武汉市,新洲区,30.8169,114.8717,27.0,1003.6,25.4,76.0,24.653184647960728,42.08549999999994
Q1005,2025-06-03 11:00:00,辛冲,武汉市,新洲区,30.7997,114.8161,40.0,1002.4,25.6,72.0,23.63505598156222,39.27899999999993
Q1006,2025-06-03 11:00:00,汪集,武汉市,新洲区,30.8086,114.73,37.0,1002.3,26.0,63.0,21.1773247647653,35.752
Q1007,2025-06-03 11:00:00,仓埠,武汉市,江岸区,30.8736,114.6136,28.8,1001.3,25.7,58.0,19.152770554230383,34.775000000000055
Q1008,2025-06-03 11:00:00,凤凰,武汉市,新洲区,30.9403,114.7225,67.0,1000.1,25.0,63.0,19.954805447979897,37.70199999999998
Q1010,2025-06-03 11:00:00,化工,武汉市,洪山区,30.5064,114.3839,40.8,1002.5,25.7,52.0,17.17144946241345,32.39850000000004
Q1011,2025-06-03 11:00:00,五一大队,武汉市,东西湖区,30.7475,114.0272,26.0,1004.3,25.9,76.0,25.396297551209056,51.02749999999988
Q1013,2025-06-03 11:00:00,湖北省农科院,武汉市,洪山区,30.4836,114.3192,31.0,1003.6,25.3,65.0,20.95982052098451,33.637999999999984
Q1014,2025-06-03 11:00:00,花山工作基地,武汉市,市辖区,30.5325,114.5006,41.0,1001.7,25.4,54.0,17.516736460393147,32.657000000000004
Q1016,2025-06-03 11:00:00,湖北省预备役师,武汉市,洪山区,30.5333,114.5058,29.0,1002.8,24.5,64.0,19.67446155267658,33.066500000000055
Q1017,2025-06-03 11:00:00,和平公园,武汉市,青山区,30.6381,114.3803,22.0,1003.7,25.2,67.0,21.476417986197223,42.49149999999996
Q1018,2025-06-03 11:00:00,纱帽,武汉市,汉南区,30.3322,114.0706,19.0,1003.8,25.3,65.0,20.95982052098451,36.751499999999965
Q1019,2025-06-03 11:00:00,湘口,武汉市,汉南区,30.2669,113.8478,25.0,1003.9,25.4,74.0,24.004416630909127,47.88800000000004
Q1020,2025-06-03 11:00:00,邓南,武汉市,汉南区,30.3078,113.9783,27.0,1003.5,25.3,78.0,25.151784625181413,46.56949999999997
Q1021,2025-06-03 11:00:00,东荆,武汉市,汉南区,30.3461,113.9131,24.0,1003.9,25.6,68.0,22.32199731591988,36.88549999999999
Q1022,2025-06-03 11:00:00,气象预警中心,武汉市,东西湖区,30.6703,114.1803,32.0,1004.1,25.9,68.0,22.72300307213442,39.80100000000002
Q1023,2025-06-03 11:00:00,建和分校,武汉市,洪山区,30.4614,114.2383,23.2,1003.9,25.7,61.0,20.14343110013885,30.682500000000037
Q1024,2025-06-03 11:00:00,实验小学,武汉市,东西湖区,30.6242,114.1408,26.0,1004.2,27.2,60.0,21.648024554980772,36.03300000000004
Q1025,2025-06-03 11:00:00,白玉公园,武汉市,青山区,30.6014,114.4875,25.0,1004.0,24.7,72.0,22.400350516937262,36.26949999999992
Q1026,2025-06-03 11:00:00,沌阳,武汉市,汉南区,30.455,114.1294,28.0,1003.9,25.7,74.0,24.436293465742214,49.35999999999997
Q1027,2025-06-03 11:00:00,华师,武汉市,洪山区,30.5183,114.3594,43.1,1001.6,25.6,60.0,19.695879984635184,29.305
Q1028,2025-06-03 11:00:00,常青路,武汉市,东西湖区,30.6731,114.2292,24.0,1004.2,25.7,61.0,20.14343110013885,34.89350000000001
Q1029,2025-06-03 11:00:00,光谷二十七小学,武汉市,洪山区,30.5644,114.4858,26.8,1003.4,26.7,53.0,18.56817434521545,27.15750000000001
Q1030,2025-06-03 11:00:00,材保所,武汉市,东西湖区,30.6772,114.2828,35.0,1004.1,26.7,56.0,19.619203081737083,26.563500000000023
Q1031,2025-06-03 11:00:00,湖北省第二师范,武汉市,洪山区,30.4789,114.4464,35.0,1002.4,26.0,62.0,20.841176752626165,28.177499999999974
Q1032,2025-06-03 11:00:00,百步亭社区,武汉市,江岸区,30.6644,114.3136,26.0,1004.2,25.3,59.0,19.02506785750901,29.67699999999998
Q1033,2025-06-03 11:00:00,南湖社区,武汉市,武昌区,30.5133,114.3114,19.0,1004.0,25.4,65.0,21.084960554176934,34.14800000000003
Q1036,2025-06-03 11:00:00,东湖落雁景区,武汉市,市辖区,30.5517,114.4369,23.0,1004.0,26.1,68.0,22.99382827495848,41.60799999999999
Q1038,2025-06-03 11:00:00,天兴洲,武汉市,洪山区,30.6708,114.41,25.0,1003.6,24.7,79.0,24.57816237275061,41.06650000000003
Q1039,2025-06-03 11:00:00,光谷二十一小学,武汉市,洪山区,30.5031,114.4803,45.3,1001.7,26.6,47.0,16.369325376107994,21.008499999999994
Q1040,2025-06-03 11:00:00,五云,武汉市,江岸区,30.7594,114.6317,24.0,1002.3,24.5,72.0,22.13376924676115,50.23399999999999
Q1041,2025-06-03 11:00:00,鄢家湖,武汉市,江岸区,30.6386,114.5739,11.5,1003.9,24.7,75.0,23.333698455142983,34.98675000000007
Q1042,2025-06-03 11:00:00,席家岗,武汉市,江岸区,30.8764,114.4739,32.5,1002.5,25.2,65.0,20.83533088213164,38.081
Q1043,2025-06-03 11:00:00,六指中心福利院,武汉市,江岸区,30.8822,114.5217,39.2,1002.4,25.7,64.0,21.13409164604732,40.67599999999996
Q1044,2025-06-03 11:00:00,青华,武汉市,江岸区,30.8683,114.5803,42.3,1002.2,25.2,67.0,21.476417986197223,40.09649999999998
Q1045,2025-06-03 11:00:00,大咀,武汉市,江岸区,30.7972,114.4647,31.3,1002.2,25.7,59.0,19.482990736199877,28.03550000000004
Q1052,2025-06-03 11:00:00,武汉植物园,武汉市,洪山区,30.5447,114.42,23.3,1003.8,24.6,70.0,21.64819091543885,37.50750000000002
Q1054,2025-06-03 11:00:00,湖大,武汉市,武昌区,30.5814,114.3311,23.0,1003.8,26.6,53.0,18.45902648795157,26.53000000000001
Q1057,2025-06-03 11:00:00,林业站,武汉市,洪山区,30.6369,114.5061,33.0,1004.2,24.6,68.0,21.02967117499775,37.48500000000005
Q1061,2025-06-03 11:00:00,青山,武汉市,青山区,30.6411,114.4039,33.5,1003.2,26.5,55.0,19.04290952520229,35.751000000000005
Q1071,2025-06-03 11:00:00,士官学校,武汉市,洪山区,30.51,114.4581,35.0,1003.1,25.0,53.0,16.78737601179261,26.6165
Q1072,2025-06-03 11:00:00,堤角公园,武汉市,江岸区,30.6664,114.335,27.0,1003.7,24.8,56.0,17.526982617881064,33.59800000000007
Q1073,2025-06-03 11:00:00,湖北省移动公司,武汉市,江汉区,30.6272,114.2394,25.0,1004.0,27.2,51.0,18.40082087173366,38.037499999999945
Q1081,2025-06-03 11:00:00,汉南,武汉市,汉南区,30.255,114.0589,22.1,1004.0,25.9,62.0,20.71803221282844,42.13349999999996
Q1082,2025-06-03 11:00:00,沌口,武汉市,汉南区,30.4769,114.1631,18.1,1003.7,25.7,72.0,23.77585310180324,43.81749999999997
Q1083,2025-06-03 11:00:00,春笋,武汉市,汉南区,30.4156,114.1306,21.6,1004.1,25.6,65.0,21.33720331668812,40.36349999999999
Q1084,2025-06-03 11:00:00,恒大农业,武汉市,汉南区,30.3267,114.0014,23.3,1003.9,25.9,72.0,24.05965031167173,49.838
Q1085,2025-06-03 11:00:00,武湖湿地,武汉市,汉南区,30.2131,113.8472,22.6,1004.2,25.7,67.0,22.12475219195579,33.31450000000007
Q1086,2025-06-03 11:00:00,喜鹊湖,武汉市,汉南区,30.22,113.8256,21.3,1004.3,25.8,70.0,23.253011705275632,45.43749999999998
Q1087,2025-06-03 11:00:00,龙灵山,武汉市,汉南区,30.4258,114.1092,33.7,1002.8,23.8,75.0,22.10674722124589,32.51400000000005
Q1088,2025-06-03 11:00:00,武汉西,武汉市,汉南区,30.4586,114.0606,29.0,1003.3,25.9,64.0,21.386355832597097,36.574500000000015
Q1101,2025-06-03 11:00:00,道观河,武汉市,新洲区,30.8781,114.9839,83.0,996.5,25.7,62.0,20.473651282108342,37.36250000000005
Q1102,2025-06-03 11:00:00,阳逻,武汉市,江岸区,30.6969,114.5339,25.0,1004.2,25.5,67.0,21.863392437671774,41.507499999999936
Q1103,2025-06-03 11:00:00,涨渡湖,武汉市,新洲区,30.6675,114.7861,18.7,1004.5,27.0,61.0,21.751692188907228,32.50700000000001
Q1104,2025-06-03 11:00:00,双柳,武汉市,新洲区,30.5964,114.6472,23.0,1003.8,26.3,51.0,17.4506044555117,29.070500000000017
Q1105,2025-06-03 11:00:00,将军山,武汉市,新洲区,30.8894,115.0589,344.5,968.1,22.5,75.0,20.43429949078755,42.44500000000007
Q1106,2025-06-03 11:00:00,徐古,武汉市,新洲区,30.9481,114.9694,73.0,998.4,25.8,63.0,20.927710534748076,40.895
Q1107,2025-06-03 11:00:00,徐治湾,武汉市,新洲区,30.8731,114.7681,25.0,1003.5,25.6,65.0,21.33720331668812,31.288500000000003
Q1108,2025-06-03 11:00:00,方院,武汉市,新洲区,30.9156,114.6519,39.3,1002.1,25.4,69.0,22.38249658828013,40.52849999999999
Q1109,2025-06-03 11:00:00,杨裴,武汉市,江岸区,30.7858,114.5475,31.6,1002.8,25.1,63.0,20.074212194430213,39.731499999999954
Q1111,2025-06-03 11:00:00,陈家田,武汉市,新洲区,30.975,114.7111,51.1,1000.7,24.8,73.0,22.84767376973781,34.19500000000003
Q1112,2025-06-03 11:00:00,大雾山,武汉市,新洲区,30.8286,114.9725,196.4,984.5,24.1,68.0,20.408430459358843,39.53600000000002
Q1113,2025-06-03 11:00:00,王寨,武汉市,新洲区,30.8742,114.8856,30.1,1003.2,25.7,68.0,22.454972373925283,37.2655
Q1114,2025-06-03 11:00:00,春光,武汉市,新洲区,30.9244,114.6972,55.4,1000.3,25.2,71.0,22.7585921943284,34.01700000000003
Q1115,2025-06-03 11:00:00,易河,武汉市,新洲区,30.9389,114.9081,36.0,1002.5,25.4,68.0,22.058112579754336,38.68000000000004
Q1116,2025-06-03 11:00:00,李岗,武汉市,新洲区,30.9575,114.87,60.0,999.8,25.5,67.0,21.863392437671774,36.81600000000002
Q1117,2025-06-03 11:00:00,徐寨,武汉市,新洲区,30.9631,114.7978,28.0,1003.4,25.7,65.0,21.46431182801681,30.886999999999965
Q1118,2025-06-03 11:00:00,陈路,武汉市,新洲区,30.6256,114.7536,22.2,1004.1,25.9,68.0,22.72300307213442,31.930500000000016
Q1119,2025-06-03 11:00:00,滨湖,武汉市,新洲区,30.6903,114.705,26.5,1003.6,25.6,64.0,21.00893865027753,33.7895
Q1120,2025-06-03 11:00:00,航天新城,武汉市,新洲区,30.5981,114.6917,22.5,1004.0,26.1,51.0,17.24537120621886,31.806000000000022
Q1121,2025-06-03 11:00:00,大泊,武汉市,新洲区,30.7686,114.6692,20.6,1004.1,25.1,75.0,23.897871660035968,43.594500000000046
Q1122,2025-06-03 11:00:00,冯铺,武汉市,新洲区,30.7528,114.7064,23.9,1003.9,26.3,67.0,22.92530389253498,40.70250000000007
Q1123,2025-06-03 11:00:00,人胜,武汉市,新洲区,30.8286,114.6825,23.6,1003.8,25.3,78.0,25.151784625181413,44.78100000000001
Q1124,2025-06-03 11:00:00,杨铺,武汉市,新洲区,30.7658,114.815,35.4,1002.7,26.4,62.0,21.340180893625384,34.029000000000025
Q1125,2025-06-03 11:00:00,朱岗,武汉市,新洲区,30.7722,114.8658,39.5,1002.2,25.6,68.0,22.32199731591988,36.370000000000005
Q1126,2025-06-03 11:00:00,毛集,武汉市,新洲区,30.6581,114.6303,22.0,1002.6,25.4,75.0,24.328800639434924,40.410000000000046
Q1128,2025-06-03 11:00:00,王瓦,武汉市,新洲区,30.7972,114.6519,13.8,1003.9,24.1,74.0,22.209174323419912,31.00100000000008
Q1129,2025-06-03 11:00:00,四道沟,武汉市,新洲区,30.73,114.7775,20.2,1004.4,25.0,76.0,24.072463715023368,43.627000000000045
Q1130,2025-06-03 11:00:00,道观河水库,武汉市,新洲区,30.8692,115.0061,92.7,996.1,25.2,68.0,21.796961538230025,44.00949999999996
Q1131,2025-06-03 11:00:00,大屋冲,武汉市,新洲区,30.9228,115.0169,109.7,994.2,23.9,79.0,23.42636995967924,46.53800000000008
Q1132,2025-06-03 11:00:00,凤凰镇中心小学,武汉市,新洲区,30.9228,114.7528,34.0,1001.1,26.8,63.0,22.202015569468248,29.50400000000002
Q1133,2025-06-03 11:00:00,旧街利河小学,武汉市,新洲区,30.8536,114.9625,31.0,1001.7,24.4,79.0,24.14056017040567,39.029500000000034
Q1134,2025-06-03 11:00:00,双柳汉昕小学,武汉市,新洲区,30.6467,114.8336,15.0,1004.3,26.3,62.0,21.214460318465207,39.26300000000009
Q1135,2025-06-03 11:00:00,刘六,武汉市,新洲区,30.8819,114.8447,32.0,1001.9,25.4,69.0,22.38249658828013,38.46799999999999
Q1136,2025-06-03 11:00:00,涨渡湖湿地森林公园,武汉市,新洲区,30.6756,114.7642,28.8,1004.4,25.0,71.0,22.48874899692973,42.51000000000006
Q1191,2025-06-03 11:00:00,紫薇都市田园,武汉市,江岸区,30.8192,114.6042,35.7,1002.4,25.7,59.0,19.482990736199877,29.66300000000004
Q1199,2025-06-03 11:00:00,邾城,武汉市,新洲区,30.8331,114.7997,26.4,1003.5,25.9,60.0,20.049708593059776,32.68049999999999
Q1201,2025-06-03 11:00:00,姚家集,武汉市,黄陂区,31.2047,114.3831,48.5,1001.4,25.8,73.0,24.24956934978745,43.57249999999995
Q1202,2025-06-03 11:00:00,蔡家榨,武汉市,黄陂区,30.9883,114.5211,88.0,996.9,25.7,61.0,20.14343110013885,42.27399999999999
Q1203,2025-06-03 11:00:00,李家集,武汉市,黄陂区,30.9947,114.2333,37.5,1001.2,25.2,78.0,25.00239705855796,44.030499999999954
Q1204,2025-06-03 11:00:00,天河机场,武汉市,黄陂区,30.8131,114.2119,35.0,1002.1,26.4,67.0,23.061163223756463,39.8095
Q1207,2025-06-03 11:00:00,蔡店,武汉市,黄陂区,31.2856,114.3106,67.0,999.1,26.3,72.0,24.636147466604758,44.04650000000002
Q1208,2025-06-03 11:00:00,祁家湾,武汉市,黄陂区,30.8853,114.2261,41.0,1002.3,26.1,72.0,24.346406408779565,37.93749999999998
Q1209,2025-06-03 11:00:00,横店,武汉市,黄陂区,30.8003,114.2903,38.0,1001.3,26.7,61.0,21.370917642606464,38.784999999999975
Q1210,2025-06-03 11:00:00,盘龙城,武汉市,黄陂区,30.7506,114.3008,30.0,1002.0,26.7,55.0,19.268860169563204,28.585000000000004
Q1212,2025-06-03 11:00:00,夏家寺水库,武汉市,黄陂区,31.0553,114.4678,49.0,1000.2,25.7,76.0,25.096733829681195,35.11199999999994
Q1213,2025-06-03 11:00:00,刘家山,武汉市,黄陂区,31.3047,114.2033,537.0,948.1,22.0,82.0,21.6711938018162,54.95400000000005
Q1214,2025-06-03 11:00:00,三里桥,武汉市,江岸区,30.7583,114.4194,23.0,1004.3,25.7,67.0,22.12475219195579,40.197499999999984
Q1215,2025-06-03 11:00:00,罗汉寺,武汉市,黄陂区,30.9933,114.3361,48.0,1001.3,25.3,80.0,25.796702179673247,42.12649999999997
Q1216,2025-06-03 11:00:00,长轩岭,武汉市,黄陂区,31.1075,114.3617,49.0,1001.6,26.3,68.0,23.26747260734894,35.66099999999999
Q1217,2025-06-03 11:00:00,现代农展中心,武汉市,江岸区,30.7003,114.5036,21.0,1004.3,25.9,63.0,21.05219402271277,42.58666666666667
Q1218,2025-06-03 11:00:00,源泉,武汉市,黄陂区,31.2347,114.23,100.2,993.8,24.4,82.0,25.057290303459048,44.38550000000005
Q1219,2025-06-03 11:00:00,矿巴水库,武汉市,黄陂区,31.0919,114.2014,105.3,996.4,25.7,73.0,24.106073283772723,43.02049999999999
Q1220,2025-06-03 11:00:00,武湖,武汉市,江岸区,30.7003,114.4181,29.0,1003.8,25.6,62.0,20.35240931745636,34.55550000000006
Q1221,2025-06-03 11:00:00,滠口,武汉市,黄陂区,30.7122,114.3606,17.3,1003.1,26.1,56.0,18.93609387349522,39.35700000000001
Q1222,2025-06-03 11:00:00,农科院北区,武汉市,江岸区,30.7164,114.4722,28.0,1004.0,25.8,64.0,21.25989641625201,38.99299999999999
Q1224,2025-06-03 11:00:00,崇杰,武汉市,黄陂区,31.2561,114.3842,50.2,1001.1,26.3,69.0,23.60964132216289,38.266000000000005
Q1225,2025-06-03 11:00:00,梅店水库,武汉市,黄陂区,31.1831,114.3153,65.1,999.1,26.1,70.0,23.67011734186902,40.26799999999998
Q1226,2025-06-03 11:00:00,道士冲,武汉市,黄陂区,31.2664,114.2336,106.9,994.3,25.6,79.0,25.932908646436324,51.91499999999999
Q1227,2025-06-03 11:00:00,姚家老屋,武汉市,黄陂区,31.2417,114.2836,87.3,996.5,25.7,73.0,24.106073283772723,43.70100000000004
Q1228,2025-06-03 11:00:00,双墩,武汉市,黄陂区,30.8536,114.1789,22.0,1002.4,26.3,72.0,24.636147466604758,35.36949999999996
Q1229,2025-06-03 11:00:00,红旗,武汉市,黄陂区,30.9553,114.1625,21.6,1002.5,25.9,76.0,25.396297551209056,48.27699999999996
Q1230,2025-06-03 11:00:00,同兴集,武汉市,黄陂区,31.1272,114.4814,46.7,999.8,26.1,74.0,25.022695475690107,45.162
Q1231,2025-06-03 11:00:00,磨盘,武汉市,黄陂区,31.1839,114.4325,61.2,998.0,25.8,68.0,22.588639942267765,37.188
Q1232,2025-06-03 11:00:00,吊箭楼,武汉市,黄陂区,31.1419,114.4219,73.8,996.5,25.4,69.0,22.38249658828013,35.830999999999975
Q1233,2025-06-03 11:00:00,卧虎,武汉市,黄陂区,31.035,114.3906,29.0,1001.7,26.1,68.0,22.99382827495848,40.25249999999995
Q1234,2025-06-03 11:00:00,院基寺水库,武汉市,黄陂区,31.0972,114.315,48.5,999.3,26.0,69.0,23.194212837600084,42.57899999999999
Q1235,2025-06-03 11:00:00,彭家冲,武汉市,黄陂区,31.0725,114.2422,86.4,997.5,26.2,74.0,25.171205019211538,38.02249999999995
Q1236,2025-06-03 11:00:00,红十月水库,武汉市,黄陂区,30.9511,114.4708,49.0,999.5,25.6,62.0,20.35240931745636,39.21449999999994
Q1237,2025-06-03 11:00:00,北新,武汉市,黄陂区,31.0414,114.3053,60.4,998.0,25.8,71.0,23.58519758677957,39.15499999999994
Q1238,2025-06-03 11:00:00,余家冲水库,武汉市,黄陂区,31.3386,114.2825,96.0,993.7,26.2,73.0,24.831053600033,44.02900000000004
Q1239,2025-06-03 11:00:00,官家砦,武汉市,黄陂区,31.0269,114.1628,34.0,1001.3,26.3,71.0,24.293978751790803,46.190500000000064
Q1243,2025-06-03 11:00:00,定正,武汉市,黄陂区,30.9133,114.4825,21.0,1002.2,25.5,70.0,22.84235030801528,39.44550000000002
Q1244,2025-06-03 11:00:00,黄陂石门,武汉市,黄陂区,31.1486,114.3,62.7,998.2,25.9,72.0,24.05965031167173,39.60100000000001
Q1245,2025-06-03 11:00:00,仁和,武汉市,黄陂区,31.25,114.3386,27.9,1001.0,26.1,69.0,23.33197280841375,42.34050000000002
Q1246,2025-06-03 11:00:00,帽子村,武汉市,黄陂区,31.1961,114.4222,55.1,998.5,25.8,69.0,22.920825823771697,38.11150000000003
Q1247,2025-06-03 11:00:00,白庙集,武汉市,黄陂区,30.9967,114.2653,53.0,1001.2,26.4,69.0,23.749556155808893,32.31349999999999
Q1248,2025-06-03 11:00:00,白龙寺,武汉市,黄陂区,30.9969,114.4553,28.8,1002.9,26.3,67.0,22.92530389253498,39.335999999999984
Q1250,2025-06-03 11:00:00,童家湖,武汉市,黄陂区,30.7614,114.1772,14.3,1003.6,26.2,68.0,23.130296504140336,41.97299999999998
Q1251,2025-06-03 11:00:00,艾馆,武汉市,黄陂区,30.9539,114.6003,55.1,998.5,25.9,57.0,19.047223163406787,33.19150000000001
Q1252,2025-06-03 11:00:00,全华,武汉市,黄陂区,30.8608,114.2969,43.9,1000.1,25.7,75.0,24.7665136477117,37.27649999999996
Q1253,2025-06-03 11:00:00,下店,武汉市,黄陂区,30.9294,114.3856,35.8,1001.1,25.8,73.0,24.24956934978745,43.30949999999999
Q1254,2025-06-03 11:00:00,黄陂郑店,武汉市,黄陂区,30.9661,114.2142,32.9,1000.9,25.6,78.0,25.60464398002574,34.50549999999995
Q1255,2025-06-03 11:00:00,茶庙,武汉市,黄陂区,31.2994,114.4211,65.4,997.5,25.9,69.0,23.057164882018743,40.53450000000003
Q1270,2025-06-03 11:00:00,木兰天池,武汉市,黄陂区,31.1797,114.2817,337.8,970.3,23.4,75.0,21.579826950484318,38.96500000000001
Q1271,2025-06-03 11:00:00,云雾山,武汉市,黄陂区,31.1264,114.2086,122.0,993.1,24.7,83.0,25.82262629035824,52.25099999999997
Q1301,2025-06-03 11:00:00,老屋汤,武汉市,江夏区,30.3508,114.4364,20.5,1004.1,24.6,79.0,24.43152974742385,43.82800000000004
Q1302,2025-06-03 11:00:00,安山,武汉市,江夏区,30.1533,114.2303,42.0,1001.9,25.6,67.0,21.99373264950929,36.74500000000006
Q1303,2025-06-03 11:00:00,金口,武汉市,江夏区,30.3481,114.1275,27.6,1003.6,24.8,71.0,22.22171010481349,36.05149999999995
Q1304,2025-06-03 11:00:00,郑店,武汉市,江夏区,30.285,114.2281,32.6,1003.5,25.6,69.0,22.65026198233046,43.31199999999998
Q1305,2025-06-03 11:00:00,法泗,武汉市,江夏区,30.1131,114.1917,24.0,1003.8,26.2,65.0,22.10984224660473,39.88799999999996
Q1306,2025-06-03 11:00:00,五里界,武汉市,江夏区,30.3058,114.4239,38.2,1002.3,24.7,71.0,22.08923453753536,34.72499999999995
Q1307,2025-06-03 11:00:00,山坡,武汉市,江夏区,30.0333,114.3808,40.0,1001.6,25.3,72.0,23.21703196170592,47.27920833333332
Q1308,2025-06-03 11:00:00,湖泗,武汉市,江夏区,30.0231,114.4622,40.8,1002.1,25.0,76.0,24.072463715023368,44.023
Q1309,2025-06-03 11:00:00,舒安,武汉市,江夏区,30.1494,114.5,32.3,1002.5,25.6,69.0,22.65026198233046,41.28149999999999
Q1310,2025-06-03 11:00:00,乌龙泉,武汉市,江夏区,30.2106,114.3286,35.0,1002.4,25.8,68.0,22.588639942267765,42.99550000000002
Q1311,2025-06-03 11:00:00,庙山,武汉市,江夏区,30.4372,114.3781,19.7,1004.0,24.5,73.0,22.441182708521723,39.08849999999999
Q1313,2025-06-03 11:00:00,梁子湖,武汉市,江夏区,30.2603,114.4494,22.8,1004.2,24.5,71.0,21.82635578500058,33.62350000000006
Q1314,2025-06-03 11:00:00,庙山天玺湾,武汉市,江夏区,30.3864,114.38,22.0,1004.2,26.3,62.0,21.214460318465207,34.436
Q1316,2025-06-03 11:00:00,中央大公园,武汉市,江夏区,30.3872,114.3056,26.0,1004.0,25.9,63.0,21.05219402271277,30.58500000000002
Q1317,2025-06-03 11:00:00,郑店海吉星,武汉市,江夏区,30.3178,114.2592,28.0,1003.9,24.3,70.0,21.262470259872973,40.90150000000003
Q1318,2025-06-03 11:00:00,五里界锦绣,武汉市,江夏区,30.3278,114.3869,27.0,1002.4,24.9,77.0,24.24402539887169,47.04400000000007
Q1319,2025-06-03 11:00:00,舒安未来家园,武汉市,江夏区,30.1294,114.4775,35.0,1003.9,24.9,72.0,22.669738035308598,40.67699999999997
Q1320,2025-06-03 11:00:00,湖泗祝祠,武汉市,江夏区,30.005,114.5111,55.0,1001.4,25.1,71.0,22.62331850483405,44.11600000000001
Q1321,2025-06-03 11:00:00,舒安嗣孟,武汉市,江夏区,30.0417,114.5383,49.0,1002.1,24.9,69.0,21.72516561717073,42.41249999999993
Q1322,2025-06-03 11:00:00,乌龙泉茗泉谷,武汉市,江夏区,30.2406,114.3142,66.0,1000.5,25.3,68.0,21.92719685272226,41.90950000000002
Q1323,2025-06-03 11:00:00,山坡光星,武汉市,江夏区,30.0956,114.3458,24.0,1004.3,25.0,74.0,23.43897782778591,40.7715
Q1324,2025-06-03 11:00:00,乌龙泉杨湖,武汉市,江夏区,30.2308,114.4347,24.0,1004.3,25.9,69.0,23.057164882018743,35.0095
Q1325,2025-06-03 11:00:00,金口南岸,武汉市,江夏区,30.2164,114.0742,24.0,1004.4,25.6,67.0,21.99373264950929,37.501
Q1326,2025-06-03 11:00:00,金水花篮棚,武汉市,江夏区,30.2019,114.1539,21.0,1004.4,25.8,63.0,20.927710534748076,29.280999999999985
Q1327,2025-06-03 11:00:00,法泗花莲湖,武汉市,江夏区,30.2031,114.1856,23.0,1004.3,25.9,68.0,22.72300307213442,39.22850000000002
Q1328,2025-06-03 11:00:00,东湖路学校,武汉市,江夏区,30.3664,114.3228,23.0,1004.0,26.6,58.0,20.200444081154547,29.31499999999999
Q1329,2025-06-03 11:00:00,金口长江,武汉市,江夏区,30.2903,114.0978,21.1,1004.0,24.8,80.0,25.038546596972942,45.19050000000003
Q1330,2025-06-03 11:00:00,马蹄口,武汉市,江夏区,30.2444,114.1503,23.7,1004.0,25.2,70.0,22.4380486422956,38.668499999999966
Q1331,2025-06-03 11:00:00,三门口,武汉市,江夏区,30.2861,114.1775,43.3,1001.6,23.6,74.0,21.55067017991341,41.07599999999993
Q1332,2025-06-03 11:00:00,塘口,武汉市,江夏区,30.1914,114.4686,20.9,1004.3,24.7,77.0,23.9559304139468,36.78599999999999
Q1333,2025-06-03 11:00:00,三合,武汉市,江夏区,30.1481,114.36,34.1,1002.8,25.4,69.0,22.38249658828013,35.51799999999999
Q1334,2025-06-03 11:00:00,乌龙泉五星,武汉市,江夏区,30.1872,114.3167,41.0,1002.0,25.2,70.0,22.4380486422956,38.09499999999998
Q1335,2025-06-03 11:00:00,邓家洲,武汉市,江夏区,30.0183,114.25,21.7,1004.2,25.3,69.0,22.24965562996817,39.94099999999997
Q1336,2025-06-03 11:00:00,前途,武汉市,江夏区,30.0481,114.3033,35.5,1002.6,24.8,74.0,23.160655602199974,43.2301250000001
Q1337,2025-06-03 11:00:00,涂洲,武汉市,江夏区,30.2183,114.2303,28.3,1003.4,25.0,71.0,22.48874899692973,39.40399999999997
Q1338,2025-06-03 11:00:00,合心,武汉市,江夏区,30.1039,114.2444,31.2,1003.1,25.0,69.0,21.855263109692263,36.52849999999997
Q1339,2025-06-03 11:00:00,沿湖,武汉市,江夏区,30.1778,114.3586,32.5,1003.0,25.0,71.0,22.48874899692973,36.177999999999976
Q1340,2025-06-03 11:00:00,长岭,武汉市,江夏区,30.2194,114.3758,21.5,1004.1,24.3,80.0,24.2999660112834,47.284000000000006
Q1341,2025-06-03 11:00:00,祝庙,武汉市,江夏区,30.1742,114.5003,39.8,1002.1,25.6,69.0,22.65026198233046,44.28300000000003
Q1342,2025-06-03 11:00:00,陈六,武汉市,江夏区,30.0381,114.4119,39.1,1002.3,24.2,70.0,21.13524080022173,43.2755
Q1343,2025-06-03 11:00:00,金口花园,武汉市,江夏区,30.3275,114.1272,27.9,1003.5,25.3,72.0,23.21703196170592,45.58599999999996
Q1344,2025-06-03 11:00:00,安山青春,武汉市,江夏区,30.1744,114.2619,26.9,1003.5,24.9,72.0,22.669738035308598,42.357999999999976
Q1345,2025-06-03 11:00:00,安山英雄,武汉市,江夏区,30.1472,114.3175,41.3,1002.0,24.9,73.0,22.98459550802121,37.110000000000056
Q1346,2025-06-03 11:00:00,周李家,武汉市,江夏区,30.0914,114.3069,40.7,1002.0,25.1,72.0,22.941956793634528,41.94920833333339
Q1347,2025-06-03 11:00:00,狮子山,武汉市,江夏区,30.2844,114.3825,35.2,1002.3,23.8,76.0,22.4015038508625,39.13900000000007
Q1348,2025-06-03 11:00:00,凉亭,武汉市,江夏区,30.3039,114.1303,26.0,1004.0,25.5,64.0,20.88443456732826,34.93399999999998
Q1349,2025-06-03 11:00:00,金港,武汉市,江夏区,30.3728,114.1886,24.9,1003.9,25.0,71.0,22.48874899692973,39.32599999999998
Q1350,2025-06-03 11:00:00,山坡东方红,武汉市,江夏区,30.0536,114.2386,22.2,1004.1,25.2,69.0,22.11750509026281,40.22449999999995
Q1351,2025-06-03 11:00:00,新生,武汉市,江夏区,30.1067,114.4064,42.6,1001.9,24.8,68.0,21.282764607427005,31.915238095238102
Q1352,2025-06-03 11:00:00,官堤,武汉市,江夏区,30.0669,114.4333,38.5,1002.4,25.1,68.0,21.667403638432614,40.01199999999993
Q1353,2025-06-03 11:00:00,八分山,武汉市,江夏区,30.3608,114.2928,262.0,976.9,24.2,62.0,18.719784708767826,35.51349999999997
Q1354,2025-06-03 11:00:00,普生园,武汉市,江夏区,30.4092,114.3656,20.7,1002.9,26.0,64.0,21.51347277690443,36.107
Q1401,2025-06-03 11:00:00,东山,武汉市,东西湖区,30.7736,114.0089,20.9,1004.2,25.6,72.0,23.63505598156222,49.37999999999997
Q1402,2025-06-03 11:00:00,柏泉,武汉市,东西湖区,30.7692,114.1272,33.6,1003.2,25.2,76.0,24.361309954492373,50.95149999999995
Q1403,2025-06-03 11:00:00,郁金香公园,武汉市,东西湖区,30.7053,114.0806,21.0,1004.5,25.7,74.0,24.436293465742214,51.05349999999999
Q1404,2025-06-03 11:00:00,走马岭,武汉市,东西湖区,30.6506,114.0136,13.0,1003.9,26.5,61.0,21.120317837042546,36.20366666666665
Q1405,2025-06-03 11:00:00,辛安渡,武汉市,东西湖区,30.7461,113.9286,31.3,1004.0,25.3,80.0,25.796702179673247,44.01799999999999
Q1406,2025-06-03 11:00:00,径河,武汉市,东西湖区,30.6808,114.1228,23.0,1003.8,25.8,71.0,23.58519758677957,46.04400000000001
Q1407,2025-06-03 11:00:00,将军路,武汉市,东西湖区,30.6642,114.2636,16.0,1003.7,25.8,62.0,20.595524653244134,33.73799999999998
Q1408,2025-06-03 11:00:00,杜公湖,武汉市,东西湖区,30.7228,114.145,25.0,1004.1,26.7,66.0,23.122632203475845,41.167642857142816
Q1410,2025-06-03 11:00:00,新沟,武汉市,东西湖区,30.6897,113.9931,22.0,1004.2,25.4,70.0,22.706880596805927,35.91450000000001
Q1411,2025-06-03 11:00:00,塔尔头,武汉市,东西湖区,30.6919,114.1892,32.0,1004.1,26.5,65.0,22.505256711602712,46.60025
Q1412,2025-06-03 11:00:00,金银湖,武汉市,东西湖区,30.6422,114.1814,23.0,1004.1,26.3,61.0,20.87229160365125,39.77099999999998
Q1413,2025-06-03 11:00:00,红星合作社,武汉市,东西湖区,30.7642,113.9464,32.0,1004.2,25.4,85.0,27.57264072469292,53.72099999999995
Q1501,2025-06-03 11:00:00,成功闸,武汉市,蔡甸区,30.3908,113.7656,21.0,1003.8,26.5,67.0,23.197726148882797,40.41986785714284
Q1502,2025-06-03 11:00:00,大集,武汉市,蔡甸区,30.5081,114.0531,30.0,1003.3,26.4,66.0,22.71696675773025,40.56583333333335
Q1503,2025-06-03 11:00:00,索河,武汉市,蔡甸区,30.5236,113.8964,41.3,1002.4,25.6,73.0,23.963320647972807,42.93450000000003
Q1504,2025-06-03 11:00:00,桐湖农场,武汉市,蔡甸区,30.3917,113.9786,35.0,1004.0,26.0,67.0,22.521916813321823,42.26299999999999
Q1506,2025-06-03 11:00:00,消泗,武汉市,蔡甸区,30.3169,113.7728,27.0,1004.3,25.9,72.0,24.05965031167173,41.46350000000006
Q1507,2025-06-03 11:00:00,永安,武汉市,蔡甸区,30.4617,113.9281,48.6,1001.4,25.1,73.0,23.26059508243501,41.25499999999998
Q1509,2025-06-03 11:00:00,奓山,武汉市,蔡甸区,30.4297,114.0436,31.3,1002.9,26.2,67.0,22.7901450849618,36.94149999999998
Q1510,2025-06-03 11:00:00,侏儒,武汉市,蔡甸区,30.4525,113.8792,26.5,1003.9,25.4,72.0,23.35564861385753,41.26099999999997
Q1512,2025-06-03 11:00:00,沉湖湿地,武汉市,蔡甸区,30.3242,113.8619,25.0,1003.7,25.1,70.0,22.304680216033567,35.69249999999999
Q1513,2025-06-03 11:00:00,千子山,武汉市,蔡甸区,30.4078,114.0333,37.2,1002.3,25.7,66.0,21.7945320099863,44.015999999999934
Q1514,2025-06-03 11:00:00,九真山,武汉市,蔡甸区,30.4839,113.9544,122.0,992.9,23.2,86.0,24.447526004636146,60.93500000000001
Q1515,2025-06-03 11:00:00,绿茵园,武汉市,蔡甸区,30.4467,114.0142,27.3,1003.5,26.2,65.0,22.10984224660473,37.51699999999998
Q1516,2025-06-03 11:00:00,时光农场,武汉市,蔡甸区,30.4086,113.8017,21.5,1004.2,25.8,71.0,23.58519758677957,46.92100000000002
Q1517,2025-06-03 11:00:00,农耕园,武汉市,蔡甸区,30.4275,113.9525,22.7,1004.1,25.3,78.0,25.151784625181413,48.34899999999997
Q1518,2025-06-03 11:00:00,花博汇,武汉市,蔡甸区,30.4956,114.0656,32.4,1004.3,25.6,76.0,24.94811464720457,47.40399999999997
Q1519,2025-06-03 11:00:00,鸽翅岭,武汉市,蔡甸区,30.5394,113.9619,32.0,1003.0,25.3,75.0,24.184408293443663,47.50999999999999
Q1520,2025-06-03 11:00:00,景秀大地,武汉市,蔡甸区,30.4989,113.9781,22.3,1004.2,25.7,71.0,23.44563291983375,42.843125000000015
Q1521,2025-06-03 11:00:00,七沟,武汉市,蔡甸区,30.4289,113.7733,23.2,1004.0,26.0,71.0,23.86650886187835,44.1185
Q1522,2025-06-03 11:00:00,香草花田,武汉市,蔡甸区,30.5133,113.8858,27.1,1003.6,25.0,81.0,25.65617843311701,42.85250000000006
Q1523,2025-06-03 11:00:00,金龙水寨,武汉市,蔡甸区,30.54,113.9247,22.2,1004.2,24.9,74.0,23.29945298073383,33.53416666666661
Q1524,2025-06-03 11:00:00,谢八家,武汉市,蔡甸区,30.6244,113.9264,24.8,1003.7,25.7,70.0,23.11541273786425,37.299250000000015
Q1525,2025-06-03 11:00:00,蔡甸野生动物王国,武汉市,蔡甸区,30.5567,113.9353,23.3,1004.0,25.2,76.0,24.361309954492373,47.2385
Q1526,2025-06-03 11:00:00,长江大学,武汉市,蔡甸区,30.5292,114.0256,21.5,1004.2,26.0,68.0,22.85806482546096,37.37349999999998
Q1527,2025-06-03 11:00:00,蔡甸汉江堤防,武汉市,蔡甸区,30.6311,113.9797,26.1,1003.6,26.1,69.0,23.33197280841375,36.86833333333326
Q1528,2025-06-03 11:00:00,后官湖湿地公园,武汉市,蔡甸区,30.5306,114.0786,24.3,1003.9,25.6,72.0,23.63505598156222,44.66300000000001
Q1529,2025-06-03 11:00:00,张家大湖,武汉市,蔡甸区,30.3156,113.8164,23.3,1004.2,24.6,79.0,24.43152974742385,39.76049999999999
Q1599,2025-06-03 11:00:00,孙家畈,武汉市,蔡甸区,30.5664,114.0289,17.8,1003.8,26.2,65.0,22.10984224660473,41.81150000000002
Q1701,2025-06-03 11:00:00,藏龙岛,武汉市,江夏区,30.4017,114.4189,30.0,1003.5,24.2,71.0,21.437172811653475,36.161500000000025
Q1702,2025-06-03 11:00:00,东湖高新射击场,武汉市,洪山区,30.5039,114.4608,40.0,1002.4,24.8,62.0,19.404873612654036,32.56700000000005
Q1703,2025-06-03 11:00:00,武汉欢乐谷,武汉市,洪山区,30.5972,114.3886,30.0,1003.9,26.5,46.0,15.926797057441918,30.06949999999997
Q1704,2025-06-03 11:00:00,东湖湖心亭,武汉市,武昌区,30.57,114.39,30.0,1003.8,25.7,54.0,17.831889826352427,27.14449999999999
Q1706,2025-06-03 11:00:00,青山沙排中心,武汉市,青山区,30.6508,114.3919,30.0,1003.6,26.0,49.0,16.471252594817454,29.727000000000007
Q1707,2025-06-03 11:00:00,驿山高尔夫,武汉市,洪山区,30.5,114.5006,50.0,999.8,23.5,60.0,17.368411880462325,25.165499999999973
Q1708,2025-06-03 11:00:00,华科,武汉市,武昌区,30.5094,114.4117,40.0,1002.5,26.0,49.0,16.471252594817454,29.952500000000036
Q1709,2025-06-03 11:00:00,省奥体中心,武汉市,市辖区,30.4739,114.4547,40.0,1001.3,27.0,47.0,16.759500538994093,27.174499999999995
Q1710,2025-06-03 11:00:00,洪山体育馆,武汉市,武昌区,30.5489,114.3281,30.0,1002.4,26.7,52.0,18.21783143304157,25.427499999999995
Q1711,2025-06-03 11:00:00,武汉体育学院,武汉市,洪山区,30.5219,114.3725,30.0,1003.5,26.8,46.0,16.210995495167293,23.42949999999999
Q1712,2025-06-03 11:00:00,武大,武汉市,武昌区,30.5383,114.3511,30.0,1003.6,26.5,45.0,15.580562338801876,29.874500000000022
Q1713,2025-06-03 11:00:00,武汉软件职院,武汉市,市辖区,30.4508,114.4231,30.0,1002.7,26.4,55.0,18.930805631441874,30.826999999999988
Q1714,2025-06-03 11:00:00,武汉理工大学,武汉市,洪山区,30.5058,114.325,30.0,1004.0,27.8,45.0,16.816894836586933,25.053999999999995
Q1715,2025-06-03 11:00:00,武汉城市职院,武汉市,洪山区,30.4414,114.3086,20.0,1004.2,26.4,63.0,21.6843773596516,37.23049999999997
Q1716,2025-06-03 11:00:00,武汉体育中心,武汉市,汉南区,30.5061,114.1683,30.0,1004.0,26.9,57.0,20.20613891806284,39.53366666666664
Q1717,2025-06-03 11:00:00,武汉商学院,武汉市,汉南区,30.4664,114.08,30.0,1004.1,25.9,67.0,22.38884126225009,40.23799999999999
Q1718,2025-06-03 11:00:00,江汉大学,武汉市,汉南区,30.5208,114.1497,30.0,1004.0,26.3,69.0,23.60964132216289,42.04408333333331
Q1720,2025-06-03 11:00:00,全民健身中心,武汉市,江岸区,30.6472,114.2831,30.0,1004.3,27.4,50.0,18.25295980230801,28.39700000000002
Q1721,2025-06-03 11:00:00,汉口文体中心,武汉市,江汉区,30.6028,114.2636,30.0,1004.2,26.7,59.0,20.67023181825871,40.657666666666685
Q1722,2025-06-03 11:00:00,汉阳沙排中心,武汉市,汉阳区,30.5017,114.2308,30.0,1003.4,25.6,67.0,21.99373264950929,34.35349999999996
Q1723,2025-06-03 11:00:00,军山,武汉市,汉南区,30.3978,114.1156,40.0,1002.0,25.5,63.0,20.55811527721376,39.35849999999992
Q1724,2025-06-03 11:00:00,蔡甸国防园,武汉市,蔡甸区,30.4764,113.9647,60.0,1001.0,23.7,77.0,22.559944451633047,40.02900000000004
Q1725,2025-06-03 11:00:00,海工大木兰校区,武汉市,黄陂区,31.1183,114.4642,50.0,1000.9,26.4,69.0,23.749556155808893,42.01650000000002
Q1726,2025-06-03 11:00:00,体育中心,武汉市,东西湖区,30.6378,114.1269,20.0,1003.4,26.5,60.0,20.7740831184025,33.77349999999997
Q1727,2025-06-03 11:00:00,东湖帆船基地,武汉市,武昌区,30.5425,114.3689,30.0,1004.1,24.4,57.0,17.417872528014218,28.00299999999999
Q1728,2025-06-03 11:00:00,雷神山,武汉市,江夏区,30.4408,114.2756,20.0,1004.0,25.7,67.0,22.12475219195579,38.67249999999993
Q1729,2025-06-03 11:00:00,桂子米业,武汉市,江夏区,30.1603,114.1839,47.0,1001.8,25.2,70.0,22.4380486422956,39.43949999999998
Q1730,2025-06-03 11:00:00,天子山教育基地,武汉市,江夏区,30.1494,114.4292,40.0,1002.7,25.1,71.0,22.62331850483405,36.37449999999994
Q1745,2025-06-03 11:00:00,中法生态城,武汉市,蔡甸区,30.5631,114.07,22.1,1003.8,26.4,65.0,22.37277029170404,48.3888333333334
Q1752,2025-06-03 11:00:00,马池路,武汉市,东西湖区,30.6517,114.2239,35.0,1004.1,27.0,60.0,21.395107071056287,38.89700000000002
Q1753,2025-06-03 11:00:00,高新大道,武汉市,市辖区,30.4872,114.4561,50.0,1000.6,24.0,69.0,20.584454703245207,23.303500000000028
Q1754,2025-06-03 11:00:00,天兴洲大桥,武汉市,洪山区,30.6575,114.4003,60.0,998.9,28.2,40.0,15.30147660658788,24.2445
Q1755,2025-06-03 11:00:00,知音桥,武汉市,硚口区,30.5811,114.2161,35.0,1002.9,26.8,53.0,18.677886113997097,29.7655
Q1756,2025-06-03 11:00:00,晴川桥,武汉市,硚口区,30.5656,114.2783,15.0,1002.1,26.9,58.0,20.56063258329201,28.999500000000022
Q1759,2025-06-03 11:00:00,长江二桥,武汉市,江岸区,30.6036,114.3217,20.0,1000.3,27.1,46.0,16.49961810946344,27.118000000000038
Q1760,2025-06-03 11:00:00,二七长江大桥,武汉市,江岸区,30.6294,114.3394,25.0,999.8,27.5,38.0,13.953790704090238,26.137500000000017
Q1761,2025-06-03 11:00:00,杨泗港长江大桥,武汉市,汉阳区,30.5069,114.2625,30.0,999.2,26.5,52.0,18.004205369282168,32.99400000000006
Q1762,2025-06-03 11:00:00,鹦鹉洲大桥,武汉市,汉阳区,30.5339,114.2764,40.0,1000.1,26.5,52.0,18.004205369282168,32.200500000000005
Q1763,2025-06-03 11:00:00,古田桥,武汉市,硚口区,30.5872,114.1797,25.0,1002.2,26.7,59.0,20.67023181825871,37.21899999999994
Q1764,2025-06-03 11:00:00,月湖桥,武汉市,硚口区,30.5644,114.2483,35.0,1002.5,27.0,52.0,18.542426128248785,28.56899999999997
Q1766,2025-06-03 11:00:00,青化立交,武汉市,洪山区,30.6058,114.43,20.0,1002.5,27.6,41.0,15.143836143608771,26.4265
Q1767,2025-06-03 11:00:00,欢乐大道,武汉市,市辖区,30.6017,114.41,22.0,1002.7,27.3,44.0,15.968671052495086,30.57749999999997
Q1768,2025-06-03 11:00:00,姑嫂树立交,武汉市,东西湖区,30.6386,114.2514,26.0,1002.3,27.9,48.0,18.04314953028834,31.39149999999997
Q1769,2025-06-03 11:00:00,楚康路出口,武汉市,洪山区,30.5097,114.3594,18.0,1002.3,27.1,53.0,19.01042956090353,32.472000000000016
Q1770,2025-06-03 11:00:00,长丰大道,武汉市,硚口区,30.6083,114.2083,22.0,1002.8,27.0,55.0,19.6121814818016,29.83599999999999
Q1773,2025-06-03 11:00:00,野芷湖立交线,武汉市,洪山区,30.4556,114.3156,6.0,1004.1,26.9,59.0,20.915126248521187,27.411500000000014
Q1774,2025-06-03 11:00:00,庙山立交,武汉市,江夏区,30.46,114.3883,7.0,1002.4,26.2,63.0,21.42953940824766,36.18600000000001
Q1779,2025-06-03 11:00:00,青菱立交,武汉市,洪山区,30.4628,114.2886,13.0,1003.2,26.3,58.0,19.845785459209385,32.57999999999999
Q2004,2025-06-03 11:00:00,红卫,十堰市,张湾区,32.6525,110.7253,336.4,968.0,26.6,53.0,18.45902648795157,31.354
Q2022,2025-06-03 11:00:00,小川,十堰市,茅箭区,32.4628,110.7172,643.8,935.7,22.4,74.0,20.03956497117446,33.765499999999946
Q2023,2025-06-03 11:00:00,黄龙,十堰市,张湾区,32.6861,110.5586,186.4,984.1,27.7,59.0,21.920255823475365,38.56550000000001
Q2031,2025-06-03 11:00:00,紫霄宫,十堰市,丹江口市,32.4253,111.0228,851.0,913.5,21.0,89.0,22.123300817314544,40.94400000000005
Q2032,2025-06-03 11:00:00,八仙观,十堰市,丹江口市,32.4308,111.0567,588.0,943.6,24.0,71.0,21.18110556420884,38.75949999999997
Q2033,2025-06-03 11:00:00,太子坡,十堰市,丹江口市,32.4489,111.0708,558.0,945.0,23.0,78.0,21.90649814374728,42.832000000000015
Q2034,2025-06-03 11:00:00,元和观,十堰市,丹江口市,32.4978,111.0942,396.0,961.2,25.7,62.0,20.473651282108342,37.65850000000003
Q2050,2025-06-03 11:00:00,火车站小学,十堰市,茅箭区,32.6017,110.7742,310.0,971.8,26.8,62.0,21.849602623921133,45.29900000000007
Q2204,2025-06-03 11:00:00,习家店,十堰市,丹江口市,32.7708,111.1592,253.1,977.2,26.8,61.0,21.497189678374017,38.16650000000002
Q2205,2025-06-03 11:00:00,石鼓,十堰市,丹江口市,32.7553,111.3811,297.0,972.6,26.3,52.0,17.792773170325656,28.671
Q2206,2025-06-03 11:00:00,丁家营,十堰市,丹江口市,32.4447,111.2453,186.0,985.2,25.1,77.0,24.53514823763693,38.51449999999996
Q2236,2025-06-03 11:00:00,蒿口新村,十堰市,丹江口市,32.5219,111.0364,179.1,985.7,26.6,70.0,24.37984630484169,45.1385
Q2261,2025-06-03 11:00:00,马鞍山,十堰市,丹江口市,32.3306,111.1797,503.1,950.7,24.4,76.0,23.223830037352293,40.63649999999996
Q2266,2025-06-03 11:00:00,大坝街道,十堰市,丹江口市,32.5486,111.5125,133.4,990.7,27.9,53.0,19.92264427302671,33.96100000000002
Q2309,2025-06-03 11:00:00,茶店,十堰市,郧阳区,32.7992,110.8847,212.2,982.0,26.6,60.0,20.89701111843574,41.575000000000045
Q2324,2025-06-03 11:00:00,安阳,十堰市,郧阳区,32.8525,111.0044,221.0,980.0,26.6,72.0,25.076413342122887,45.288999999999966
Q2326,2025-06-03 11:00:00,五峰,十堰市,郧阳区,32.8278,110.3708,193.5,984.4,26.3,69.0,23.60964132216289,38.907
Q2334,2025-06-03 11:00:00,塘上,十堰市,郧阳区,33.0756,110.735,834.7,914.8,21.9,63.0,16.548462490616448,30.649499999999986
Q2350,2025-06-03 11:00:00,韩家沟,十堰市,郧阳区,32.8653,110.6186,244.8,979.2,25.5,68.0,22.18971172778628,45.08499999999998
Q2401,2025-06-03 11:00:00,上津,十堰市,郧西县,33.0742,110.0211,273.4,975.4,26.4,59.0,20.30759149554674,42.949
Q2402,2025-06-03 11:00:00,马安,十堰市,郧西县,33.0053,110.2311,374.2,964.8,23.3,75.0,21.449828651640427,38.70600000000008
Q2403,2025-06-03 11:00:00,土门,十堰市,郧西县,33.0589,110.3233,364.3,965.4,24.4,79.0,24.14056017040567,46.59449999999999
Q2405,2025-06-03 11:00:00,六郎,十堰市,郧西县,32.9978,110.0711,264.9,973.5,24.9,71.0,22.354880562595973,43.88649999999996
Q2409,2025-06-03 11:00:00,三官,十堰市,郧西县,33.1683,110.5619,838.1,914.2,20.5,76.0,18.31864656187032,33.68899999999995
Q2411,2025-06-03 11:00:00,槐树,十堰市,郧西县,33.2025,109.9003,794.0,919.6,23.3,66.0,18.875849213443576,35.52949999999996
Q2423,2025-06-03 11:00:00,河夹,十堰市,郧西县,32.9303,110.5283,273.0,973.0,25.7,60.0,19.81321091816936,41.17549999999996
Q2424,2025-06-03 11:00:00,湖北口,十堰市,郧西县,33.1942,109.575,890.6,909.5,22.5,64.0,17.437268898805375,32.45050000000001
Q2433,2025-06-03 11:00:00,包耳场,十堰市,郧西县,33.1864,109.75,640.0,935.9,22.4,76.0,20.58117483526026,38.820500000000095
Q2502,2025-06-03 11:00:00,土城,十堰市,房县,32.2775,110.6972,669.3,932.8,23.1,80.0,22.6046810780554,53.45249999999998
Q2503,2025-06-03 11:00:00,沙河,十堰市,房县,32.1378,111.0931,843.6,914.5,22.0,70.0,18.499799586916268,32.05049999999999
Q2504,2025-06-03 11:00:00,卧牛观,十堰市,房县,32.2108,110.9142,711.4,928.2,23.8,76.0,22.4015038508625,38.453500000000055
Q2505,2025-06-03 11:00:00,门古寺,十堰市,房县,32.0058,110.4417,624.2,938.1,23.2,76.0,21.604790422701715,52.99399999999999
Q2507,2025-06-03 11:00:00,军店,十堰市,房县,32.0336,110.6253,495.7,951.5,23.7,71.0,20.80202670215515,32.51400000000003
Q2509,2025-06-03 11:00:00,中坝,十堰市,房县,32.0064,110.28,795.4,919.2,22.3,69.0,18.572131557297304,53.36849999999997
Q2524,2025-06-03 11:00:00,三里坪,十堰市,房县,31.9419,110.9697,415.0,960.4,24.1,75.0,22.509298300763422,40.02500000000002
Q2528,2025-06-03 11:00:00,白鹤,十堰市,房县,32.0997,110.7728,464.5,955.0,24.7,68.0,21.155886599329644,39.64700000000008
Q2530,2025-06-03 11:00:00,汪家河,十堰市,房县,32.1044,110.5331,563.7,944.3,23.6,70.0,20.38576908910728,34.235000000000014
Q2532,2025-06-03 11:00:00,对寺河,十堰市,房县,32.3347,110.3903,265.0,977.9,25.4,74.0,24.004416630909127,48.77299999999997
Q2541,2025-06-03 11:00:00,三座庵,十堰市,房县,31.8828,110.5647,991.9,900.8,21.1,84.0,21.00918286930959,38.38149999999998
Q2546,2025-06-03 11:00:00,南潭,十堰市,房县,31.9833,110.7353,737.0,925.8,21.3,86.0,21.77520193863159,35.36200000000002
Q2548,2025-06-03 11:00:00,白鸡,十堰市,房县,32.2303,110.7133,592.3,941.0,23.5,79.0,22.868408975942064,45.039
Q2559,2025-06-03 11:00:00,东蒿,十堰市,房县,31.8842,110.7753,1359.0,861.8,18.5,86.0,18.304043684871,41.101999999999954
Q2605,2025-06-03 11:00:00,柳林,十堰市,竹山县,31.7169,110.0508,523.7,949.6,22.7,79.0,21.787302821210258,39.88949999999999
Q2623,2025-06-03 11:00:00,秦古,十堰市,竹山县,32.4331,109.82,580.3,942.4,24.3,73.0,22.1737189852961,38.73900000000006
Q2624,2025-06-03 11:00:00,擂鼓,十堰市,竹山县,32.3533,109.9286,513.9,949.6,24.5,75.0,23.056009632042866,39.88350000000005
Q2626,2025-06-03 11:00:00,溢水,十堰市,竹山县,32.2786,110.0842,508.8,950.1,24.0,68.0,20.2861292727634,41.545499999999976
Q2628,2025-06-03 11:00:00,深河,十堰市,竹山县,32.1117,110.2306,361.0,966.8,24.5,79.0,24.28566347908515,56.51699999999996
Q2655,2025-06-03 11:00:00,潘口,十堰市,竹山县,32.23,110.1844,273.8,975.8,24.8,73.0,22.84767376973781,38.98500000000002
Q2676,2025-06-03 11:00:00,北大街,十堰市,竹山县,32.2256,110.2261,307.0,972.2,26.7,60.0,21.020574730432585,41.87683333333336
Q2701,2025-06-03 11:00:00,龙坝,十堰市,竹溪县,32.3569,109.6453,563.6,943.9,25.3,58.0,18.702609080263095,39.389499999999984
Q2721,2025-06-03 11:00:00,泉溪,十堰市,竹溪县,32.0428,109.6986,849.5,914.1,21.6,80.0,20.631909969301,59.43550000000002
Q2745,2025-06-03 11:00:00,界牌沟,十堰市,竹溪县,32.1683,109.5989,655.4,935.5,22.0,80.0,21.14262809933288,55.22049999999996
Q2748,2025-06-03 11:00:00,天宝,十堰市,竹溪县,31.9983,109.7814,498.9,950.3,22.3,86.0,23.147874114892293,39.45700000000002
Q2757,2025-06-03 11:00:00,高子河,十堰市,竹溪县,31.8119,109.7686,1063.6,892.7,19.7,92.0,21.103460517236712,60.79700000000005
Q2903,2025-06-03 11:00:00,新华,省直辖县级行政区划,神农架林区,31.5953,110.8861,716.7,928.4,21.9,76.0,19.96322459185476,38.109000000000016
Q2906,2025-06-03 11:00:00,徐家庄,省直辖县级行政区划,神农架林区,31.5622,110.5533,1398.1,858.3,16.3,87.0,16.1128622503921,27.32649999999998
Q2910,2025-06-03 11:00:00,木鱼,省直辖县级行政区划,神农架林区,31.4828,110.3786,1245.0,871.9,18.6,74.0,15.848985060433996,25.24150000000005
Q2912,2025-06-03 11:00:00,神农架机场,省直辖县级行政区划,神农架林区,31.6119,110.3383,2597.4,744.8,9.9,46.0,5.607295922426557,9.1645
Q2916,2025-06-03 11:00:00,板桥,省直辖县级行政区划,神农架林区,31.4089,110.1781,1026.6,896.1,19.0,91.0,19.983657229002084,38.28699999999995
Q2923,2025-06-03 11:00:00,牛场坪,省直辖县级行政区划,神农架林区,31.5508,110.3911,2285.0,772.9,11.7,68.0,9.343653758322542,16.479499999999973
Q2925,2025-06-03 11:00:00,九冲,省直辖县级行政区划,神农架林区,31.4083,110.5553,699.8,930.3,20.3,86.0,20.47443801200948,29.55700000000004
Q2933,2025-06-03 11:00:00,大九湖,省直辖县级行政区划,神农架林区,31.4958,109.9953,1752.0,824.1,15.2,74.0,12.773278553026168,19.409499999999998
Q2940,2025-06-03 11:00:00,红花,省直辖县级行政区划,神农架林区,31.3992,110.475,819.5,917.5,19.8,84.0,19.388380186404618,37.50050000000002
Q2950,2025-06-03 11:00:00,阳日,省直辖县级行政区划,神农架林区,31.7328,110.8061,498.0,951.6,22.9,70.0,19.54089185508738,35.36450000000003
Q2957,2025-06-03 11:00:00,青天袍,省直辖县级行政区划,神农架林区,31.5144,110.3881,1569.0,843.3,17.5,67.0,13.39051472827574,23.72299999999999
Q3005,2025-06-03 11:00:00,隆中,襄阳市,襄城区,31.9889,112.0322,107.3,994.2,24.6,73.0,22.57597052610052,44.75850000000003
Q3008,2025-06-03 11:00:00,襄阳老站,襄阳市,襄城区,32.0283,112.1664,68.6,998.6,27.0,56.0,19.96876659965254,38.2145
Q3012,2025-06-03 11:00:00,刘集小学,襄阳市,襄州区,32.1517,112.2992,70.1,998.1,26.7,64.0,22.42194637912809,44.8835
Q3100,2025-06-03 11:00:00,东津,襄阳市,襄州区,32.0631,112.2203,69.7,998.1,26.9,63.0,22.33310090943788,44.99399999999998
Q3101,2025-06-03 11:00:00,朱集,襄阳市,襄州区,32.2967,112.3483,79.0,997.6,26.3,66.0,22.583135177721022,44.18850000000005
Q3103,2025-06-03 11:00:00,峪山,襄阳市,襄州区,31.9919,112.3706,93.0,996.5,27.3,57.0,20.686687499823176,40.48350000000004
Q3104,2025-06-03 11:00:00,龙王,襄阳市,襄州区,32.2089,111.9589,86.0,995.1,27.6,65.0,24.008520715477324,39.091499999999975
Q3106,2025-06-03 11:00:00,黄龙,襄阳市,襄州区,31.9858,112.4556,84.6,994.0,26.9,62.0,21.978607244208703,36.43449999999997
Q3107,2025-06-03 11:00:00,石桥,襄阳市,襄州区,32.3633,111.9611,110.7,993.6,28.7,49.0,19.29756860347438,44.684999999999945
Q3108,2025-06-03 11:00:00,程河,襄阳市,襄州区,32.2664,112.4508,114.6,994.1,27.3,54.0,19.597914473516692,33.249
Q3109,2025-06-03 11:00:00,伙牌,襄阳市,襄州区,32.1878,112.1847,108.3,993.8,28.1,48.0,18.255022585623923,34.04850000000006
Q3112,2025-06-03 11:00:00,张湾,襄阳市,襄州区,32.0886,112.1903,65.4,998.5,28.0,46.0,17.392615235060354,35.20199999999998
Q3113,2025-06-03 11:00:00,黄集,襄阳市,襄州区,32.3253,112.1328,142.2,990.2,28.0,39.0,14.745912916681606,23.138500000000004
Q3202,2025-06-03 11:00:00,枣阳吴店,襄阳市,枣阳市,31.9703,112.75,167.5,987.2,26.6,58.0,20.200444081154547,28.929500000000026
Q3203,2025-06-03 11:00:00,七方,襄阳市,枣阳市,32.2017,112.5589,131.0,991.1,27.4,52.0,18.98307819440033,34.62149999999996
Q3206,2025-06-03 11:00:00,枣阳新市,襄阳市,枣阳市,32.3414,112.9942,241.1,978.7,28.0,32.0,12.099210598302856,20.720500000000012
Q3207,2025-06-03 11:00:00,刘升榆树,襄阳市,枣阳市,32.12,112.8781,156.0,987.9,27.2,59.0,21.28722414573109,35.46650000000009
Q3212,2025-06-03 11:00:00,琚湾,襄阳市,枣阳市,32.0417,112.5906,72.0,996.1,27.0,69.0,24.60437313171473,42.669
Q3217,2025-06-03 11:00:00,姚棚水库,襄阳市,枣阳市,32.3253,112.8719,177.3,985.9,27.1,55.0,19.727804261314983,34.969000000000044
Q3218,2025-06-03 11:00:00,唐店,襄阳市,枣阳市,31.8503,112.8028,140.0,990.0,26.3,67.0,22.92530389253498,31.403999999999996
Q3222,2025-06-03 11:00:00,耿集,襄阳市,枣阳市,31.9303,112.5761,156.0,988.1,26.1,71.0,24.00826187532429,35.01100000000004
Q3237,2025-06-03 11:00:00,王城,襄阳市,枣阳市,31.9519,112.9217,115.0,993.0,25.4,74.0,24.004416630909127,53.60600000000003
Q3240,2025-06-03 11:00:00,北城,襄阳市,枣阳市,32.1411,112.7553,125.5,991.9,27.8,52.0,19.43285625561157,27.198000000000043
Q3305,2025-06-03 11:00:00,老河口半店,襄阳市,老河口市,32.4536,111.7536,153.1,988.1,27.3,62.0,22.501309210333982,33.407999999999944
Q3309,2025-06-03 11:00:00,方营,襄阳市,老河口市,32.3367,111.7022,90.0,996.1,26.5,80.0,27.698777491203337,51.69349999999998
Q3311,2025-06-03 11:00:00,老河口黄营,襄阳市,老河口市,32.3472,111.6742,80.3,996.4,25.9,71.0,23.725488501787407,49.55499999999997
Q3314,2025-06-03 11:00:00,农垦示范园,襄阳市,老河口市,32.4319,111.8458,148.3,989.4,28.0,49.0,18.52691622865125,26.37199999999999
Q3315,2025-06-03 11:00:00,老河口黑虎山水库,襄阳市,老河口市,32.5408,111.6622,163.3,987.2,27.7,56.0,20.805666544315603,33.187000000000005
Q3317,2025-06-03 11:00:00,古城水库,襄阳市,老河口市,32.5203,111.7786,145.2,989.4,27.9,57.0,21.426240067217403,40.76441666666668
Q3318,2025-06-03 11:00:00,老河口西关,襄阳市,老河口市,32.4217,111.6878,84.4,995.3,26.4,70.0,24.093752621835108,39.29049999999998
Q3321,2025-06-03 11:00:00,老河口老站,襄阳市,老河口市,32.38,111.67,90.0,995.8,27.4,61.0,22.26861095881577,40.51599999999999
Q3326,2025-06-03 11:00:00,白鹤岗,襄阳市,老河口市,32.2931,111.7247,89.0,996.1,27.2,59.0,21.28722414573109,40.58950000000006
Q3401,2025-06-03 11:00:00,五山,襄阳市,谷城县,32.2931,111.3314,180.0,986.5,26.1,72.0,24.346406408779565,29.973
Q3404,2025-06-03 11:00:00,谷城南河,襄阳市,谷城县,32.1678,111.4981,146.4,989.4,26.2,72.0,24.49090218085447,37.83949999999999
Q3405,2025-06-03 11:00:00,赵湾,襄阳市,谷城县,31.9917,111.4303,518.0,949.3,23.6,74.0,21.55067017991341,38.49849999999994
Q3409,2025-06-03 11:00:00,薤山,襄阳市,谷城县,32.1725,111.4061,701.7,929.0,22.8,63.0,17.480461682193713,28.25350000000003
Q3413,2025-06-03 11:00:00,茨河,襄阳市,谷城县,32.0483,111.8314,158.0,988.0,25.9,71.0,23.725488501787407,34.72949999999996
Q3414,2025-06-03 11:00:00,谷城城关,襄阳市,谷城县,32.2692,111.6333,86.6,996.5,27.3,0.0,0.0,6.176500000000001
Q3420,2025-06-03 11:00:00,紫金,襄阳市,谷城县,32.1342,111.3078,247.7,975.8,26.4,68.0,23.405359689782685,44.78599999999996
Q3501,2025-06-03 11:00:00,寺坪,襄阳市,保康县,31.9906,111.1233,275.0,975.8,25.9,73.0,24.393812121556063,51.97299999999999
Q3516,2025-06-03 11:00:00,两峪,襄阳市,保康县,31.5581,111.3953,660.0,933.3,23.4,70.0,20.141171820452023,37.64999999999995
Q3517,2025-06-03 11:00:00,歇马毛家岭,襄阳市,保康县,31.6419,111.1967,796.0,918.4,23.3,54.0,15.443876629181108,27.4725
Q3520,2025-06-03 11:00:00,保康天宝寨,襄阳市,保康县,31.4017,111.2936,997.0,898.8,21.1,61.0,15.256668512236727,28.477999999999994
Q3525,2025-06-03 11:00:00,马良产业园,襄阳市,保康县,31.4942,111.3539,292.0,974.4,24.2,100.0,30.193201143173905,55.783500000000025
Q3545,2025-06-03 11:00:00,尧治河,襄阳市,保康县,31.8447,110.8022,1576.0,840.7,17.0,69.0,13.36071880354518,24.56600000000001
Q3555,2025-06-03 11:00:00,团结,襄阳市,保康县,31.68,111.0128,1064.0,889.3,20.6,65.0,15.764246830450734,25.077
Q3606,2025-06-03 11:00:00,武镇,襄阳市,南漳县,31.6647,111.9922,120.0,993.2,25.3,82.0,26.44161973416507,50.01850000000001
Q3608,2025-06-03 11:00:00,东巩,襄阳市,南漳县,31.3292,111.8253,183.0,982.3,24.1,84.0,25.21041409685504,50.26900000000004
Q3617,2025-06-03 11:00:00,薛坪,襄阳市,南漳县,31.6231,111.6778,820.0,917.4,20.6,76.0,18.432042447911627,27.56450000000002
Q3618,2025-06-03 11:00:00,长坪,襄阳市,南漳县,31.7775,111.5617,254.0,979.8,23.2,81.0,23.02615821366893,46.75749999999998
Q3623,2025-06-03 11:00:00,南漳大坪,襄阳市,南漳县,31.5489,111.8342,343.2,968.2,23.0,93.0,26.11928624831407,45.53999999999997
Q3632,2025-06-03 11:00:00,赵店,襄阳市,南漳县,31.9058,111.6194,271.6,975.8,24.8,69.0,21.59574643988916,35.58100000000002
Q3641,2025-06-03 11:00:00,漫云,襄阳市,南漳县,31.4556,111.6847,342.0,967.9,24.6,78.0,24.12226987720329,50.18599999999999
Q3748,2025-06-03 11:00:00,高楼,襄阳市,宜城市,31.6356,112.5942,141.0,990.6,25.8,66.0,21.924268179259887,27.784500000000023
Q3750,2025-06-03 11:00:00,孔湾,襄阳市,宜城市,31.5681,112.2661,55.0,1000.3,26.5,65.0,22.505256711602712,39.778
Q3751,2025-06-03 11:00:00,二库,襄阳市,宜城市,31.7467,112.4303,89.0,995.8,26.8,57.0,20.087537896185555,32.37500000000001
Q3752,2025-06-03 11:00:00,小南河,襄阳市,宜城市,31.4622,111.9878,177.5,986.6,24.9,75.0,23.61431045344645,46.17550000000006
Q3760,2025-06-03 11:00:00,刘猴,襄阳市,宜城市,31.4853,112.0169,159.0,989.3,26.0,76.0,25.54724892257401,46.98549999999997
Q3770,2025-06-03 11:00:00,谭湾,襄阳市,宜城市,31.7736,112.0389,94.0,995.2,26.8,63.0,22.202015569468248,31.161000000000005
Q3782,2025-06-03 11:00:00,联合,襄阳市,宜城市,31.8692,112.2653,86.0,996.3,26.2,81.0,27.55226495346128,43.32300000000006
Q3792,2025-06-03 11:00:00,流水,襄阳市,宜城市,31.5683,112.455,62.0,1000.1,25.3,77.0,24.829325847935497,46.00500000000001
Q3802,2025-06-03 11:00:00,殷店,随州市,随县,32.0808,113.5014,145.6,989.5,26.2,64.0,21.7696908274262,41.27399999999997
Q3803,2025-06-03 11:00:00,洪山,随州市,随县,31.6611,112.9072,154.4,988.9,25.5,70.0,22.84235030801528,52.01999999999995
Q3804,2025-06-03 11:00:00,柳林,随州市,随县,31.5336,113.2278,120.0,992.7,25.6,71.0,23.306791315151635,37.01099999999992
Q3805,2025-06-03 11:00:00,唐镇,随州市,随县,32.0003,113.105,127.7,991.9,26.7,66.0,23.122632203475845,43.12950000000004
Q3807,2025-06-03 11:00:00,厉山,随州市,随县,31.8839,113.3125,92.0,996.3,27.4,66.0,24.093906939046573,42.55350000000003
Q3809,2025-06-03 11:00:00,淮河,随州市,随县,32.3436,113.6333,153.8,988.5,25.5,78.0,25.45290462893132,49.94449999999997
Q3812,2025-06-03 11:00:00,万店,随州市,曾都区,31.8386,113.5169,115.0,992.9,27.7,64.0,23.77790462207497,34.695999999999984
Q3815,2025-06-03 11:00:00,澴潭,随州市,随县,31.8106,113.0514,115.3,993.1,26.2,70.0,23.8105993424974,44.35549999999992
Q3820,2025-06-03 11:00:00,吴山,随州市,随县,32.1531,113.0822,215.4,981.7,26.6,56.0,19.50387704387336,37.95850000000004
Q3823,2025-06-03 11:00:00,南郊,随州市,曾都区,31.7278,113.2831,64.1,998.9,25.7,80.0,26.417614557559155,52.00050000000001
Q3829,2025-06-03 11:00:00,大堰坡,随州市,曾都区,31.61,113.4317,85.0,997.4,26.4,76.0,26.15893141799241,48.63600000000006
Q3830,2025-06-03 11:00:00,长岗,随州市,随县,31.53,112.9711,228.2,980.7,24.0,81.0,24.164359869026985,46.72004166666673
Q3831,2025-06-03 11:00:00,雷达站,随州市,曾都区,31.7164,113.3869,96.2,995.5,27.5,59.0,21.665096093192737,35.781000000000056
Q3832,2025-06-03 11:00:00,府河,随州市,曾都区,31.4911,113.5678,65.8,998.9,26.3,73.0,24.97831618141871,43.0515
Q3836,2025-06-03 11:00:00,新城,随州市,随县,32.3561,113.1931,215.4,981.8,24.2,65.0,19.62558074306304,37.25900000000001
Q3844,2025-06-03 11:00:00,东庄畈,随州市,随县,31.5131,113.0106,274.3,975.6,23.1,70.0,19.77909594329847,29.52850000000002
Q3845,2025-06-03 11:00:00,城南新区,随州市,曾都区,31.6922,113.3744,78.4,997.4,26.7,68.0,23.8233180278236,46.42250000000006
Q3847,2025-06-03 11:00:00,金顶,随州市,随县,31.4867,112.9781,1042.0,893.1,20.6,29.0,7.033279355124172,11.919999999999993
Q3852,2025-06-03 11:00:00,王家河,随州市,随县,31.9353,113.3081,122.2,992.4,26.6,71.0,24.72812982348229,39.22849999999995
Q3853,2025-06-03 11:00:00,银杏谷,随州市,曾都区,31.4347,113.2972,175.7,986.3,25.5,76.0,24.800266048702312,43.54250000000004
Q3854,2025-06-03 11:00:00,自在谷,随州市,随县,31.4703,112.9844,467.3,954.6,20.4,63.0,15.091702350533495,27.058499999999995
Q3855,2025-06-03 11:00:00,状元台,随州市,随县,31.4778,112.9647,981.1,899.8,20.8,30.0,7.366059065382168,12.375999999999992
Q3856,2025-06-03 11:00:00,北郊,随州市,曾都区,31.7839,113.3958,105.4,994.4,26.7,69.0,24.173660939997472,40.09250000000001
Q3857,2025-06-03 11:00:00,西城,随州市,曾都区,31.7206,113.3617,64.5,998.9,27.3,65.0,23.59008223664047,41.34550000000002
Q3901,2025-06-03 11:00:00,余店,随州市,广水市,31.7872,113.6322,109.6,993.7,26.9,67.0,23.75107557035457,37.91779999999999
Q3902,2025-06-03 11:00:00,长岭,随州市,广水市,31.4711,113.5781,47.3,1000.8,26.5,74.0,25.62136917936309,48.56599999999992
Q3909,2025-06-03 11:00:00,蔡河,随州市,广水市,31.7264,113.8322,120.0,993.0,27.2,67.0,24.173627419728533,35.52499999999998
Q3911,2025-06-03 11:00:00,太平,随州市,广水市,31.4608,113.9217,46.4,999.2,26.9,71.0,25.16905023127126,44.9245
Q3913,2025-06-03 11:00:00,武胜关,随州市,广水市,31.7358,114.0353,100.0,994.0,25.5,79.0,25.77922391904582,52.13800000000001
Q3918,2025-06-03 11:00:00,应山,随州市,广水市,31.62,113.82,93.3,995.6,27.7,58.0,21.54872606375544,35.10250000000002
Q3924,2025-06-03 11:00:00,尹家湾,随州市,广水市,32.0019,113.7164,203.6,983.2,22.7,78.0,21.5115141779038,37.66100000000001
Q4000,2025-06-03 11:00:00,葛洲坝,宜昌市,西陵区,30.7433,111.2694,67.8,998.9,25.2,76.0,24.361309954492373,41.48800000000002
Q4001,2025-06-03 11:00:00,王家河公园,宜昌市,伍家岗区,30.6589,111.3303,56.3,1000.6,26.5,61.0,21.120317837042546,39.72749999999998
Q4002,2025-06-03 11:00:00,窑湾,宜昌市,西陵区,30.7186,111.3436,160.0,987.2,26.1,65.0,21.979394674592665,47.44799999999989
Q4003,2025-06-03 11:00:00,猇亭,宜昌市,猇亭区,30.5061,111.4444,42.6,1001.2,26.7,63.0,22.071603466954212,44.09599999999994
Q4005,2025-06-03 11:00:00,土城,宜昌市,点军区,30.6931,111.0022,615.0,938.6,21.9,85.0,22.327290661942826,40.02500000000002
Q4015,2025-06-03 11:00:00,白龙岗公园,宜昌市,西陵区,30.7067,111.2972,116.6,991.9,27.1,59.0,21.16255366213789,38.62649999999997
Q4019,2025-06-03 11:00:00,艾家小学,宜昌市,点军区,30.6183,111.3422,87.0,996.7,26.0,59.0,19.83273271620877,42.997999999999976
Q4022,2025-06-03 11:00:00,猇亭古战场,宜昌市,猇亭区,30.5697,111.3964,78.5,997.7,26.2,72.0,24.49090218085447,40.75250000000004
Q4023,2025-06-03 11:00:00,长岭,宜昌市,点军区,30.6519,111.205,100.0,995.3,26.1,78.0,26.3752736095112,43.96200000000002
Q4025,2025-06-03 11:00:00,鸣翠谷,宜昌市,点军区,30.7389,111.2333,98.8,995.4,24.7,76.0,23.64481443454489,34.07500000000002
Q4026,2025-06-03 11:00:00,沙河公园,宜昌市,西陵区,30.7417,111.3144,86.3,996.9,26.1,68.0,22.99382827495848,33.75649999999998
Q4032,2025-06-03 11:00:00,宜昌一中,宜昌市,点军区,30.7086,111.2361,78.9,997.6,26.6,73.0,25.424696860763483,38.88650000000004
Q4033,2025-06-03 11:00:00,水井湾,宜昌市,伍家岗区,30.6853,111.3367,84.3,997.1,24.9,78.0,24.55888287158431,42.07900000000002
Q4034,2025-06-03 11:00:00,龙盘湖,宜昌市,伍家岗区,30.6161,111.4,62.5,999.6,25.3,81.0,26.11916095691916,43.40500000000003
Q4035,2025-06-03 11:00:00,碧桂园公园,宜昌市,伍家岗区,30.6478,111.3658,88.6,996.6,26.8,54.0,19.030299059544213,39.58750000000002
Q4036,2025-06-03 11:00:00,夷陵中学,宜昌市,夷陵区,30.6967,111.3817,113.0,993.9,25.5,73.0,23.821308178358795,38.99650000000005
Q4037,2025-06-03 11:00:00,李家咀,宜昌市,点军区,30.7214,111.1625,389.1,963.2,23.7,79.0,23.145917034792348,43.90349999999999
Q4105,2025-06-03 11:00:00,太平溪,宜昌市,夷陵区,30.8789,110.9697,215.0,982.7,24.3,75.0,22.781218135578182,48.85774999999997
Q4109,2025-06-03 11:00:00,樟村坪林场,宜昌市,夷陵区,31.2667,111.15,1162.0,883.1,17.3,81.0,15.98516473460881,33.87350000000001
Q4111,2025-06-03 11:00:00,鸦鹊岭,宜昌市,夷陵区,30.6117,111.5211,109.2,994.5,26.4,63.0,21.6843773596516,33.065999999999974
Q4112,2025-06-03 11:00:00,王家垭,宜昌市,夷陵区,30.9667,110.9878,990.0,899.8,19.9,59.0,13.70277724275262,28.94000000000002
Q4113,2025-06-03 11:00:00,古村坪,宜昌市,夷陵区,30.9228,110.9672,855.0,913.3,21.8,48.0,12.531540312660423,20.250499999999985
Q4115,2025-06-03 11:00:00,百里荒,宜昌市,夷陵区,30.96,111.5114,1251.8,872.0,19.1,47.0,10.385854329670348,15.74200000000001
Q4120,2025-06-03 11:00:00,秀水,宜昌市,夷陵区,31.1456,111.0747,1068.2,891.1,19.9,82.0,19.044537862808724,27.36249999999994
Q4127,2025-06-03 11:00:00,十字沟,宜昌市,夷陵区,31.0511,111.4406,402.0,962.4,22.6,74.0,20.28477272164329,42.97150000000007
Q4131,2025-06-03 11:00:00,二户坪,宜昌市,夷陵区,31.0117,111.3114,945.0,905.4,20.9,65.0,16.058363990012715,26.38599999999997
Q4140,2025-06-03 11:00:00,三峡大瀑布,宜昌市,夷陵区,30.9325,111.3158,169.1,985.6,22.6,89.0,24.39655097603044,39.47749999999996
Q4146,2025-06-03 11:00:00,沙坪,宜昌市,夷陵区,30.9192,111.0428,403.0,962.0,23.0,81.0,22.749055764660643,47.86399999999999
Q4148,2025-06-03 11:00:00,黄金河,宜昌市,夷陵区,31.0078,110.9369,705.9,929.2,21.7,76.0,19.720636439303476,39.71149999999998
Q4150,2025-06-03 11:00:00,古村,宜昌市,夷陵区,31.4353,111.2158,1098.9,888.2,19.9,71.0,16.48978278365146,22.22900000000002
Q4153,2025-06-03 11:00:00,马卧泥,宜昌市,夷陵区,31.2117,111.2406,1073.1,890.9,20.3,61.0,14.522566496890448,26.031
Q4154,2025-06-03 11:00:00,青龙,宜昌市,夷陵区,30.7428,111.5075,108.8,994.4,25.7,68.0,22.454972373925283,36.3565
Q4201,2025-06-03 11:00:00,傅家堰,宜昌市,五峰土家族自治县,30.3053,110.4817,705.3,928.2,22.3,57.0,15.342195634289078,20.836999999999968
Q4202,2025-06-03 11:00:00,长乐坪,宜昌市,五峰土家族自治县,30.1778,110.8722,1004.1,898.3,20.2,63.0,14.906233138028702,24.50700000000001
Q4203,2025-06-03 11:00:00,湾潭,宜昌市,五峰土家族自治县,30.0528,110.4344,1139.2,882.3,19.2,71.0,15.787430200519823,28.198
Q4204,2025-06-03 11:00:00,仁和坪,宜昌市,五峰土家族自治县,30.1022,111.2453,591.9,941.3,21.6,71.0,18.31082009775464,28.00949999999999
Q4205,2025-06-03 11:00:00,牛庄,宜昌市,五峰土家族自治县,30.2381,110.3611,1830.5,815.8,15.4,38.0,6.644068400553931,14.7505
Q4206,2025-06-03 11:00:00,采花,宜昌市,五峰土家族自治县,30.2056,110.445,506.8,951.0,22.2,75.0,20.06448535798616,39.151500000000006
Q4207,2025-06-03 11:00:00,渔关,宜昌市,五峰土家族自治县,30.1831,111.075,255.1,977.9,25.7,61.0,20.14343110013885,27.8935
Q4208,2025-06-03 11:00:00,清水湾,宜昌市,五峰土家族自治县,30.0797,110.9669,853.1,913.0,20.9,66.0,16.30541574370522,31.131500000000024
Q4209,2025-06-03 11:00:00,后河,宜昌市,五峰土家族自治县,30.0789,110.6214,952.7,903.7,17.7,84.0,17.001362147497762,31.831500000000023
Q4210,2025-06-03 11:00:00,水浕司,宜昌市,五峰土家族自治县,30.2494,110.6283,564.8,944.5,23.0,76.0,21.34479306313838,37.00700000000004
Q4213,2025-06-03 11:00:00,北风垭,宜昌市,五峰土家族自治县,30.14,110.5681,2213.7,779.6,11.7,33.0,4.5344202062447625,12.208999999999998
Q4214,2025-06-03 11:00:00,涨水坪,宜昌市,五峰土家族自治县,30.2553,111.02,737.6,926.2,21.1,67.0,16.757324431473126,32.75450000000004
Q4215,2025-06-03 11:00:00,三教庙,宜昌市,五峰土家族自治县,30.2011,110.9022,1031.0,894.5,19.1,72.0,15.91024493055883,28.096500000000034
Q4218,2025-06-03 11:00:00,大龙坪,宜昌市,五峰土家族自治县,30.3589,110.4706,1157.3,882.6,19.1,56.0,12.374634945990204,21.69400000000002
Q4238,2025-06-03 11:00:00,万里,宜昌市,五峰土家族自治县,30.1997,110.4069,1174.1,880.6,20.0,57.0,13.320598603416723,26.351
Q4249,2025-06-03 11:00:00,柴埠溪,宜昌市,五峰土家族自治县,30.2219,110.8947,1259.0,872.6,17.0,71.0,13.747986015242144,26.57699999999998
Q4252,2025-06-03 11:00:00,万马池,宜昌市,五峰土家族自治县,30.2056,110.665,619.4,938.8,23.3,65.0,18.58985149808837,27.322000000000006
Q4309,2025-06-03 11:00:00,胡家畈,宜昌市,枝江市,30.5808,111.6733,125.7,991.8,26.2,68.0,23.130296504140336,50.249000000000045
Q4321,2025-06-03 11:00:00,雅畈,宜昌市,枝江市,30.3967,111.5886,68.0,998.9,26.3,62.0,21.214460318465207,35.24349999999998
Q4323,2025-06-03 11:00:00,马家店,宜昌市,枝江市,30.43,111.7592,44.5,1001.7,27.0,60.0,21.395107071056287,41.96149999999997
Q4325,2025-06-03 11:00:00,万福垴,宜昌市,枝江市,30.4386,111.4522,55.9,1000.3,26.5,69.0,23.890195586162875,36.10900000000005
Q4326,2025-06-03 11:00:00,田家河,宜昌市,枝江市,30.3369,111.5311,57.0,1000.3,27.4,64.0,23.36378854695425,38.33949999999997
Q4327,2025-06-03 11:00:00,姚家港工业园,宜昌市,枝江市,30.4011,111.6131,87.7,996.7,27.3,48.0,17.420368420903728,23.087
Q4401,2025-06-03 11:00:00,社坪,宜昌市,长阳土家族自治县,30.63,110.5428,506.0,950.6,21.5,78.0,19.9932849794726,33.50100000000006
Q4403,2025-06-03 11:00:00,渔峡口,宜昌市,长阳土家族自治县,30.4286,110.4992,380.0,965.6,24.5,75.0,23.056009632042866,42.5945
Q4404,2025-06-03 11:00:00,高家堰,宜昌市,长阳土家族自治县,30.6069,111.0583,167.0,988.0,23.9,83.0,24.612515274093383,49.46650000000004
Q4406,2025-06-03 11:00:00,大堰,宜昌市,长阳土家族自治县,30.3353,111.0731,631.0,937.1,22.0,71.0,18.76408243815793,33.81499999999998
Q4411,2025-06-03 11:00:00,横山,宜昌市,长阳土家族自治县,30.3692,110.9569,473.0,954.0,22.3,75.0,20.187099518801418,27.976
Q4415,2025-06-03 11:00:00,火烧坪,宜昌市,长阳土家族自治县,30.4944,110.7997,1546.9,843.5,15.3,59.0,10.249759387887998,18.53200000000002
Q4425,2025-06-03 11:00:00,榔坪,宜昌市,长阳土家族自治县,30.6219,110.4972,490.0,954.5,21.7,78.0,20.239600556127247,29.22500000000004
Q4437,2025-06-03 11:00:00,中岭,宜昌市,长阳土家族自治县,30.6211,110.8139,1055.0,893.0,18.1,71.0,14.73674475612774,23.788000000000007
Q4443,2025-06-03 11:00:00,清江画廊,宜昌市,长阳土家族自治县,30.4703,111.1336,190.3,985.4,24.7,62.0,19.2891907229182,31.797999999999984
Q4446,2025-06-03 11:00:00,三洞水,宜昌市,长阳土家族自治县,30.3936,111.1128,220.0,983.5,25.1,61.0,19.436935616829253,28.57200000000005
Q4447,2025-06-03 11:00:00,都镇湾,宜昌市,长阳土家族自治县,30.4117,110.97,290.0,975.6,25.8,68.0,22.588639942267765,40.93949999999998
Q4453,2025-06-03 11:00:00,崩尖子,宜昌市,长阳土家族自治县,30.3731,110.7244,283.3,975.5,22.7,82.0,22.61466875112963,39.97900000000001
Q4510,2025-06-03 11:00:00,九道河,宜昌市,宜都市,30.1967,111.4717,199.8,984.3,25.0,74.0,23.43897782778591,47.397000000000006
Q4519,2025-06-03 11:00:00,陆城,宜昌市,宜都市,30.3839,111.4547,74.1,998.4,28.2,46.0,17.596698097576063,32.713
Q4604,2025-06-03 11:00:00,草埠湖,宜昌市,当阳市,30.5725,111.9686,74.0,1000.2,26.5,65.0,22.505256711602712,40.81050000000008
Q4606,2025-06-03 11:00:00,王店,宜昌市,当阳市,30.7075,111.675,158.6,988.5,25.4,77.0,24.977568656486525,48.16250000000005
Q4610,2025-06-03 11:00:00,红旗岗,宜昌市,当阳市,31.0844,111.9219,102.3,992.8,24.8,80.0,25.038546596972942,50.33400000000007
Q4611,2025-06-03 11:00:00,淯溪光明,宜昌市,当阳市,30.9275,111.9269,58.0,1000.4,25.0,82.0,25.972921376735734,49.97749999999997
Q4612,2025-06-03 11:00:00,向家草坝,宜昌市,当阳市,30.9167,111.685,96.0,995.9,25.0,81.0,25.65617843311701,50.61700000000002
Q4614,2025-06-03 11:00:00,长坂雄风,宜昌市,当阳市,30.8369,111.7611,70.0,998.8,26.7,66.0,23.122632203475845,45.76050000000001
Q4701,2025-06-03 11:00:00,嫘祖,宜昌市,远安县,31.1906,111.4081,553.8,945.6,22.7,71.0,19.580993674758588,33.07800000000005
Q4708,2025-06-03 11:00:00,茅坪场,宜昌市,远安县,31.1481,111.6794,179.8,986.0,23.5,76.0,21.999988381918943,39.81150000000002
Q4709,2025-06-03 11:00:00,洋坪,宜昌市,远安县,31.2208,111.5594,152.4,990.1,24.8,81.0,25.35152842943511,48.82100000000003
Q4710,2025-06-03 11:00:00,晓坪水库,宜昌市,远安县,31.1881,111.7553,391.9,962.9,21.6,77.0,19.858213345452214,39.11400000000005
Q4718,2025-06-03 11:00:00,芭芒店,宜昌市,远安县,31.2361,111.5361,186.0,983.9,25.5,66.0,21.53707314755727,38.95600000000002
Q4729,2025-06-03 11:00:00,龙凤,宜昌市,远安县,30.9167,111.5608,723.5,924.3,19.8,68.0,15.695355388994216,30.031000000000013
Q4801,2025-06-03 11:00:00,高桥,宜昌市,兴山县,31.2092,110.53,992.5,898.8,19.6,72.0,16.413451009270595,31.448000000000057
Q4802,2025-06-03 11:00:00,昭君,宜昌市,兴山县,31.2261,110.7697,286.0,975.3,22.8,79.0,21.919944014179418,40.26849999999991
Q4804,2025-06-03 11:00:00,峡口,宜昌市,兴山县,31.1192,110.7786,266.0,978.7,24.1,76.0,22.80942227810694,34.963375000000035
Q4806,2025-06-03 11:00:00,榛子,宜昌市,兴山县,31.5008,111.0083,1281.0,869.5,17.7,71.0,14.37019895800406,26.2445
Q4808,2025-06-03 11:00:00,南对河,宜昌市,兴山县,31.1778,111.0017,644.1,936.5,20.4,88.0,21.080473124554725,36.22300000000002
Q4818,2025-06-03 11:00:00,观音河,宜昌市,兴山县,31.5183,110.8078,498.7,954.7,22.2,79.0,21.134591243745422,36.93250000000001
Q4837,2025-06-03 11:00:00,和平,宜昌市,兴山县,31.4728,110.9975,1301.6,868.4,18.9,71.0,15.494553738630142,24.032000000000004
Q4901,2025-06-03 11:00:00,彭家坡,宜昌市,秭归县,31.0306,110.6972,190.3,984.8,24.2,74.0,22.34296884594869,46.1645
Q4902,2025-06-03 11:00:00,郭家坝,宜昌市,秭归县,30.9564,110.7569,351.0,968.8,23.0,74.0,20.783087982529477,40.90300000000005
Q4903,2025-06-03 11:00:00,两河口,宜昌市,秭归县,30.8722,110.5756,620.5,938.6,21.4,84.0,21.39966319613818,40.15900000000005
Q4905,2025-06-03 11:00:00,杨林桥,宜昌市,秭归县,30.7458,110.7553,421.8,960.9,22.7,89.0,24.54518925427485,42.96933333333336
Q4909,2025-06-03 11:00:00,沙镇溪,宜昌市,秭归县,30.9614,110.6022,420.0,960.8,22.8,77.0,21.365008722681207,41.39600000000002
Q4911,2025-06-03 11:00:00,九畹溪,宜昌市,秭归县,30.8442,110.7836,499.0,952.2,21.8,86.0,22.452343060183257,42.35399999999995
Q4918,2025-06-03 11:00:00,金缸城,宜昌市,秭归县,30.8361,110.9464,547.7,945.9,22.1,83.0,22.06972706027966,40.42099999999999
Q4921,2025-06-03 11:00:00,芝兰,宜昌市,秭归县,30.7814,110.7939,271.1,976.9,24.2,77.0,23.248764880243908,42.93299999999997
Q4932,2025-06-03 11:00:00,九岭头,宜昌市,秭归县,30.9803,110.8039,1385.0,859.6,15.2,85.0,14.672009148746271,30.30300000000002
Q4941,2025-06-03 11:00:00,高潮,宜昌市,秭归县,30.9881,110.4783,753.0,926.0,20.1,84.0,19.75233439171754,33.86950000000007
Q4945,2025-06-03 11:00:00,七甲,宜昌市,秭归县,30.7944,110.4961,1330.0,865.3,17.5,79.0,15.788815873638558,29.359999999999992
Q4950,2025-06-03 11:00:00,雁落坪,宜昌市,秭归县,30.8117,110.3497,985.0,899.9,19.7,86.0,19.727147874808228,35.84399999999996
Q4957,2025-06-03 11:00:00,三台寺,宜昌市,秭归县,30.6814,110.7139,1085.0,890.9,18.4,67.0,14.170989398480293,26.9335
Q4962,2025-06-03 11:00:00,吴家沟,宜昌市,秭归县,30.9811,110.7606,209.2,981.8,23.9,71.0,21.054079330850968,45.75162500000002
Q5102,2025-06-03 11:00:00,白杨坪,恩施土家族苗族自治州,恩施市,30.4808,109.5828,638.9,936.7,22.9,88.0,24.56569261782414,47.052
Q5106,2025-06-03 11:00:00,三岔,恩施土家族苗族自治州,恩施市,30.2978,109.6278,1054.7,893.2,20.0,86.0,20.097745261295408,40.26600000000002
Q5109,2025-06-03 11:00:00,芭蕉,恩施土家族苗族自治州,恩施市,30.1222,109.3956,599.8,940.8,22.9,79.0,22.05329223645576,40.11299999999997
Q5116,2025-06-03 11:00:00,金龙坝,恩施土家族苗族自治州,恩施市,30.0906,109.1692,881.0,912.1,20.6,80.0,19.40214994517013,38.64899999999998
Q5122,2025-06-03 11:00:00,望城坡,恩施土家族苗族自治州,恩施市,30.3303,109.4231,1113.0,887.2,18.9,73.0,15.931020041126764,36.606499999999954
Q5133,2025-06-03 11:00:00,小卫家山,恩施土家族苗族自治州,恩施市,30.3539,109.6558,1312.4,867.6,19.1,74.0,16.35219617862991,36.394000000000034
Q5135,2025-06-03 11:00:00,神堂,恩施土家族苗族自治州,恩施市,30.3583,109.8217,1567.0,842.1,17.3,69.0,13.616992181333428,26.402500000000032
Q5150,2025-06-03 11:00:00,大峡谷顶,恩施土家族苗族自治州,恩施市,30.4167,109.1628,1615.0,835.2,16.2,56.0,10.305567726588524,17.411500000000007
Q5153,2025-06-03 11:00:00,马者滑坡点,恩施土家族苗族自治州,恩施市,30.3733,109.3019,946.0,905.5,21.8,77.0,20.10267925155943,42.228500000000025
Q5206,2025-06-03 11:00:00,宜影古镇,恩施土家族苗族自治州,利川市,30.3353,109.1053,1025.3,897.1,20.3,73.0,17.379464824147583,29.34399999999997
Q5207,2025-06-03 11:00:00,元堡,恩施土家族苗族自治州,利川市,30.2233,109.0339,1088.3,888.1,19.0,83.0,18.22685219788102,32.83650000000002
Q5208,2025-06-03 11:00:00,黄泥塘,恩施土家族苗族自治州,利川市,30.0775,108.8592,1469.7,856.3,17.7,74.0,14.977390463271837,26.166999999999945
Q5209,2025-06-03 11:00:00,龙桥,恩施土家族苗族自治州,利川市,29.9294,108.7097,474.0,954.3,22.5,87.0,23.70378740931356,44.40699999999995
Q5210,2025-06-03 11:00:00,福宝山,恩施土家族苗族自治州,利川市,30.2089,108.7014,1479.9,849.4,16.7,84.0,15.958410330436935,27.686999999999998
Q5211,2025-06-03 11:00:00,建南,恩施土家族苗族自治州,利川市,30.4353,108.5392,676.0,933.4,22.3,83.0,22.34039013414024,43.40049999999994
Q5214,2025-06-03 11:00:00,南坪,恩施土家族苗族自治州,利川市,30.43,108.7925,1129.0,885.7,19.2,64.0,14.230922997651671,27.464500000000044
Q5222,2025-06-03 11:00:00,凉雾,恩施土家族苗族自治州,利川市,30.2664,108.805,1092.5,887.8,20.5,77.0,18.559681385052823,31.42349999999998
Q5226,2025-06-03 11:00:00,利川团堡,恩施土家族苗族自治州,利川市,30.3353,109.1494,986.8,899.5,20.6,81.0,19.64467681948476,38.60999999999997
Q5241,2025-06-03 11:00:00,小河,恩施土家族苗族自治州,利川市,30.0786,108.6025,1074.0,892.1,19.0,85.0,18.666053455661284,37.16550000000004
Q5249,2025-06-03 11:00:00,铁峰,恩施土家族苗族自治州,利川市,30.4533,108.6578,1558.5,842.1,15.8,87.0,15.606431047356825,29.84899999999996
Q5250,2025-06-03 11:00:00,药材,恩施土家族苗族自治州,利川市,30.4922,108.7469,1406.0,855.7,16.6,96.0,18.12260138030721,33.56549999999997
Q5301,2025-06-03 11:00:00,黄金洞,恩施土家族苗族自治州,咸丰县,29.9539,109.0781,788.1,919.8,20.6,89.0,21.58489181400177,44.51504166666669
Q5307,2025-06-03 11:00:00,朝阳寺,恩施土家族苗族自治州,咸丰县,29.6125,108.9175,468.0,955.2,23.6,86.0,25.0453734523318,45.91800000000003
Q5309,2025-06-03 11:00:00,坪坝营,恩施土家族苗族自治州,咸丰县,29.3997,108.9803,1268.8,871.2,17.1,90.0,17.53782806446269,32.79849999999995
Q5310,2025-06-03 11:00:00,茅坝,恩施土家族苗族自治州,咸丰县,29.7658,108.8233,723.6,927.8,21.5,85.0,21.78755414429706,38.24250000000002
Q5326,2025-06-03 11:00:00,李子溪,恩施土家族苗族自治州,咸丰县,29.8839,108.9089,832.0,916.8,20.7,90.0,21.962431938595405,47.449999999999946
Q5327,2025-06-03 11:00:00,中心场,恩施土家族苗族自治州,咸丰县,29.9194,108.9083,847.0,915.0,19.7,92.0,21.103460517236712,47.98599999999996
Q5330,2025-06-03 11:00:00,八家台,恩施土家族苗族自治州,咸丰县,29.8736,108.8114,869.0,910.3,21.2,86.0,21.64194387333661,47.46500000000008
Q5338,2025-06-03 11:00:00,柏杨坪,恩施土家族苗族自治州,咸丰县,29.8175,109.0397,872.4,909.5,20.3,76.0,18.09368940596187,32.122500000000024
Q5409,2025-06-03 11:00:00,翔凤,恩施土家族苗族自治州,来凤县,29.4669,109.4019,458.0,956.3,24.9,77.0,24.24402539887169,44.23950000000003
Q5421,2025-06-03 11:00:00,兴隆坳,恩施土家族苗族自治州,来凤县,29.3261,109.2883,602.0,938.6,23.5,87.0,25.18419722667037,48.12899999999997
Q5422,2025-06-03 11:00:00,沙坝水库,恩施土家族苗族自治州,来凤县,29.4094,109.3228,512.0,949.8,23.4,78.0,22.44302002850369,47.09149999999996
Q5508,2025-06-03 11:00:00,沙道,恩施土家族苗族自治州,宣恩县,29.6986,109.5653,589.0,941.7,23.7,78.0,22.8529307432127,48.31799999999995
Q5509,2025-06-03 11:00:00,椿木营,恩施土家族苗族自治州,宣恩县,30.0575,109.8269,1681.0,830.3,16.3,82.0,15.18683568427761,22.95649999999999
Q5515,2025-06-03 11:00:00,中间河,恩施土家族苗族自治州,宣恩县,30.1294,109.6347,664.8,933.6,22.6,80.0,21.92948402339815,44.27850000000002
Q5516,2025-06-03 11:00:00,长潭北,恩施土家族苗族自治州,宣恩县,30.0081,109.5883,490.9,952.4,22.6,85.0,23.30007677486053,47.89549999999999
Q5517,2025-06-03 11:00:00,荆竹坪,恩施土家族苗族自治州,宣恩县,29.96,109.3461,1134.7,884.7,17.6,84.0,16.89443944101863,35.437000000000005
Q5530,2025-06-03 11:00:00,洗草坝,恩施土家族苗族自治州,宣恩县,29.9867,109.3608,743.4,925.7,19.4,91.0,20.488292069239908,44.64850000000001
Q5532,2025-06-03 11:00:00,金盆村,恩施土家族苗族自治州,宣恩县,29.8356,109.6717,655.8,934.9,22.0,87.0,22.99260805802451,54.78950000000002
Q5539,2025-06-03 11:00:00,竹园,恩施土家族苗族自治州,宣恩县,29.9019,109.26,1180.2,880.5,18.3,84.0,17.65547288328658,32.323000000000015
Q5543,2025-06-03 11:00:00,彭家寨,恩施土家族苗族自治州,宣恩县,29.6717,109.6153,582.9,941.8,21.9,91.0,23.903334708668204,48.37949999999997
Q5601,2025-06-03 11:00:00,江坪河,恩施土家族苗族自治州,鹤峰县,29.7383,110.3472,467.0,954.2,22.6,74.0,20.28477272164329,38.85649999999999
Q5603,2025-06-03 11:00:00,蛤蟆颈,恩施土家族苗族自治州,鹤峰县,30.0658,110.2706,1382.0,858.0,17.9,77.0,15.782243235261964,28.370000000000022
Q5605,2025-06-03 11:00:00,清湖,恩施土家族苗族自治州,鹤峰县,30.0139,110.2697,1300.0,865.9,18.6,70.0,14.9922831652754,20.92200000000001
Q5610,2025-06-03 11:00:00,五里,恩施土家族苗族自治州,鹤峰县,29.8969,110.3406,1142.0,884.5,19.6,75.0,17.097344801323533,36.62449999999997
Q5620,2025-06-03 11:00:00,堰塘,恩施土家族苗族自治州,鹤峰县,29.8628,109.8564,1175.0,880.5,18.0,86.0,17.738222828825503,33.69075000000004
Q5621,2025-06-03 11:00:00,云蒙,恩施土家族苗族自治州,鹤峰县,30.0564,110.0675,1011.3,896.9,17.8,94.0,19.145650239027187,32.08125000000003
Q5626,2025-06-03 11:00:00,龚家垭,恩施土家族苗族自治州,鹤峰县,30.1083,110.1294,1215.7,876.4,19.6,72.0,16.413451009270595,28.10050000000001
Q5628,2025-06-03 11:00:00,马家,恩施土家族苗族自治州,鹤峰县,29.7681,110.5636,509.0,948.5,22.4,84.0,22.747614291603444,43.48499999999999
Q5629,2025-06-03 11:00:00,细杉,恩施土家族苗族自治州,鹤峰县,29.8014,110.6133,673.7,932.2,20.8,87.0,21.36157128960829,31.655000000000022
Q5630,2025-06-03 11:00:00,堰垭,恩施土家族苗族自治州,鹤峰县,29.7203,110.2667,912.3,907.4,21.4,81.0,20.635389510561826,36.3635
Q5632,2025-06-03 11:00:00,上六峰,恩施土家族苗族自治州,鹤峰县,29.9206,110.4636,1194.0,878.4,17.4,87.0,17.278163840864103,35.77149999999998
Q5633,2025-06-03 11:00:00,中坪,恩施土家族苗族自治州,鹤峰县,29.9917,110.4858,1137.0,882.1,18.0,85.0,17.53196442383916,33.06575000000005
Q5634,2025-06-03 11:00:00,水泉,恩施土家族苗族自治州,鹤峰县,29.9133,110.2561,606.5,939.4,22.8,84.0,23.307282242924952,43.02100000000002
Q5706,2025-06-03 11:00:00,溪丘湾,恩施土家族苗族自治州,巴东县,31.1572,110.4386,741.0,925.2,20.5,100.0,24.103482318250418,49.40899999999998
Q5707,2025-06-03 11:00:00,大支坪,恩施土家族苗族自治州,巴东县,30.6875,110.1708,1411.0,857.0,18.2,46.0,9.60794514147464,16.50200000000002
Q5708,2025-06-03 11:00:00,朱砂土,恩施土家族苗族自治州,巴东县,30.8936,110.3064,1166.0,879.5,19.1,65.0,14.363415562310056,24.435000000000016
Q5709,2025-06-03 11:00:00,玉米塘,恩施土家族苗族自治州,巴东县,30.6925,110.2486,1570.6,839.4,16.2,63.0,11.593763692412086,21.141
Q5710,2025-06-03 11:00:00,茅山岭,恩施土家族苗族自治州,巴东县,31.2233,110.2003,942.7,902.6,19.3,100.0,22.37483075849228,43.85958333333336
Q5712,2025-06-03 11:00:00,税家,恩施土家族苗族自治州,巴东县,30.9331,110.2219,1150.3,883.2,17.8,76.0,15.479461895383684,26.112000000000027
Q5720,2025-06-03 11:00:00,高家坡,恩施土家族苗族自治州,巴东县,31.1225,110.4797,735.0,926.4,20.9,90.0,22.234657832325297,40.84449999999998
Q5730,2025-06-03 11:00:00,麻沙坪,恩施土家族苗族自治州,巴东县,30.7125,110.4111,1234.0,873.5,17.9,82.0,16.807064224564687,34.64149999999992
Q5732,2025-06-03 11:00:00,庙坪,恩施土家族苗族自治州,巴东县,30.6672,110.2142,1261.9,870.9,17.3,77.0,15.195773883517017,27.55350000000001
Q5736,2025-06-03 11:00:00,倒卜龙,恩施土家族苗族自治州,巴东县,30.4069,110.1308,950.0,902.8,21.4,51.0,12.992652654798182,25.5975
Q5751,2025-06-03 11:00:00,绿葱坡滑雪场,恩施土家族苗族自治州,巴东县,30.8117,110.2419,1663.0,831.1,15.8,80.0,14.35074119297179,28.6385
Q5802,2025-06-03 11:00:00,茅田,恩施土家族苗族自治州,建始县,30.8097,109.8839,1364.3,861.4,16.2,83.0,15.27432359476513,30.97699999999997
Q5804,2025-06-03 11:00:00,高坪,恩施土家族苗族自治州,建始县,30.5989,110.0597,1239.1,871.2,19.0,60.0,13.176037733407966,26.430999999999987
Q5819,2025-06-03 11:00:00,封竹,恩施土家族苗族自治州,建始县,30.8222,109.9811,1731.3,825.3,13.7,81.0,12.689085268748828,28.03950000000002
Q5823,2025-06-03 11:00:00,石垭子,恩施土家族苗族自治州,建始县,30.6128,110.0208,777.3,921.1,21.1,74.0,18.508089670582255,33.282000000000025
Q5824,2025-06-03 11:00:00,落水洞,恩施土家族苗族自治州,建始县,30.5825,109.9603,917.0,905.4,20.4,84.0,20.12226980071133,39.72950000000004
Q5827,2025-06-03 11:00:00,冷竹,恩施土家族苗族自治州,建始县,30.5347,109.9972,1227.8,874.2,17.4,81.0,16.086566334597613,32.2145
Q5829,2025-06-03 11:00:00,粟谷坝,恩施土家族苗族自治州,建始县,30.3572,110.0744,754.5,922.4,21.1,70.0,17.507652391091323,30.04700000000001
Q5831,2025-06-03 11:00:00,竹园坝,恩施土家族苗族自治州,建始县,30.2125,109.9622,1551.0,842.8,17.4,64.0,12.710373400175891,23.87550000000002
Q5836,2025-06-03 11:00:00,野三河景区,恩施土家族苗族自治州,建始县,30.6983,110.0806,896.7,910.1,19.6,86.0,19.60495537218432,36.94249999999997
Q6080,2025-06-03 11:00:00,掇刀,荆门市,掇刀区,30.975,112.2028,108.5,993.9,26.6,65.0,22.63842871163872,34.10050000000004
Q6082,2025-06-03 11:00:00,麻城,荆门市,掇刀区,30.9114,112.2447,85.0,997.1,25.7,78.0,25.757174193620173,33.147000000000006
Q6083,2025-06-03 11:00:00,樊桥,荆门市,掇刀区,30.7958,112.2522,82.0,997.7,25.8,77.0,25.5783128758032,31.762500000000017
Q6084,2025-06-03 11:00:00,凤凰,荆门市,掇刀区,30.9525,112.1789,106.0,994.7,25.7,76.0,25.096733829681195,26.095500000000047
Q6085,2025-06-03 11:00:00,龙泉,荆门市,掇刀区,30.8675,112.0964,97.5,995.7,25.5,75.0,24.473946758587804,25.058500000000038
Q6086,2025-06-03 11:00:00,仙女,荆门市,掇刀区,31.0422,112.1217,190.0,985.3,24.6,76.0,23.503750136762186,35.72450000000007
Q6111,2025-06-03 11:00:00,后港,荆门市,沙洋县,30.5242,112.3883,31.2,1003.2,25.9,73.0,24.393812121556063,46.14449999999997
Q6113,2025-06-03 11:00:00,高阳,荆门市,沙洋县,30.7592,112.46,65.0,999.5,25.4,81.0,26.275104690589725,42.126000000000005
Q6114,2025-06-03 11:00:00,五里,荆门市,沙洋县,30.7297,112.2397,67.0,999.3,25.8,75.0,24.91394111279532,25.557500000000047
Q6115,2025-06-03 11:00:00,十里,荆门市,沙洋县,30.6244,112.1758,56.2,1000.3,25.0,79.0,25.02269254587955,40.2955
Q6117,2025-06-03 11:00:00,拾回桥,荆门市,沙洋县,30.5508,112.275,36.5,1002.7,26.5,69.0,23.890195586162875,47.55849999999997
Q6118,2025-06-03 11:00:00,曾集,荆门市,沙洋县,30.7172,112.3717,71.0,998.9,25.8,74.0,24.581755231291385,43.26350000000004
Q6122,2025-06-03 11:00:00,雷集,荆门市,掇刀区,30.8122,112.2886,104.0,994.9,25.4,80.0,25.950720682063924,32.8775
Q6125,2025-06-03 11:00:00,双堰,荆门市,沙洋县,30.8186,112.4253,60.1,1000.1,25.8,79.0,26.242684638811077,40.72016666666674
Q6128,2025-06-03 11:00:00,港口,荆门市,沙洋县,30.4275,112.3442,40.0,1002.3,26.0,79.0,26.5556929589914,55.66750000000012
Q6129,2025-06-03 11:00:00,姚集,荆门市,沙洋县,30.8017,112.6122,40.0,1002.3,26.1,77.0,26.03712907605593,48.22150000000002
Q6160,2025-06-03 11:00:00,石桥驿,荆门市,东宝区,31.2861,112.1533,98.0,995.5,25.9,76.0,25.396297551209056,30.870500000000035
Q6162,2025-06-03 11:00:00,仙居,荆门市,东宝区,31.3903,112.0286,129.0,991.9,25.0,74.0,23.43897782778591,38.43700000000008
Q6163,2025-06-03 11:00:00,马河,荆门市,东宝区,31.1444,111.935,134.0,991.5,23.4,85.0,24.45713721054889,45.40949999999992
Q6164,2025-06-03 11:00:00,栗溪,荆门市,东宝区,31.2678,111.9847,231.2,980.6,24.2,79.0,23.852628903107384,46.206500000000005
Q6167,2025-06-03 11:00:00,观音寺,荆门市,东宝区,31.0697,111.925,129.0,991.7,24.5,84.0,25.82273078788801,48.965499999999984
Q6168,2025-06-03 11:00:00,东宝,荆门市,东宝区,31.0633,112.2033,110.0,994.1,26.4,60.0,20.651787961572957,37.833999999999975
Q6169,2025-06-03 11:00:00,岩垱,荆门市,东宝区,31.2031,112.1422,112.5,994.0,24.8,67.0,20.96978277496484,36.406499999999966
Q6170,2025-06-03 11:00:00,象河,荆门市,东宝区,31.3072,112.1028,121.0,992.9,24.0,71.0,21.18110556420884,40.90500000000006
Q6171,2025-06-03 11:00:00,安河,荆门市,东宝区,31.0814,112.1022,246.3,979.0,24.9,73.0,22.98459550802121,44.238000000000014
Q6172,2025-06-03 11:00:00,圣境山,荆门市,东宝区,31.12,112.1464,355.3,966.8,24.8,49.0,15.33610979064593,28.675500000000035
Q6173,2025-06-03 11:00:00,东宝八角,荆门市,东宝区,31.1497,112.2619,70.8,998.0,25.5,80.0,26.105543209160327,32.86949999999999
Q6174,2025-06-03 11:00:00,文丰,荆门市,东宝区,31.1786,112.0386,179.5,986.1,23.8,82.0,24.17004362856217,46.260000000000055
Q6175,2025-06-03 11:00:00,琵琶洲,荆门市,东宝区,31.135,111.9811,156.5,988.7,23.1,76.0,21.474447024152628,39.84
Q6176,2025-06-03 11:00:00,铁坪,荆门市,东宝区,31.2347,111.9575,270.2,976.2,23.4,79.0,22.730751054510144,39.94850000000008
Q6210,2025-06-03 11:00:00,长寿,荆门市,钟祥市,31.4994,112.5936,124.4,992.4,25.5,76.0,24.800266048702312,55.70500000000003
Q6213,2025-06-03 11:00:00,客店,荆门市,钟祥市,31.4353,112.8739,207.8,983.1,25.2,70.0,22.4380486422956,38.16800000000001
Q6217,2025-06-03 11:00:00,张集,荆门市,钟祥市,31.5064,112.72,136.9,990.9,25.5,74.0,24.1476274684733,43.38500000000008
Q6218,2025-06-03 11:00:00,洋梓,荆门市,钟祥市,31.2917,112.6356,56.0,1001.2,26.2,71.0,24.150750761675937,44.65800000000003
Q6219,2025-06-03 11:00:00,柴湖,荆门市,钟祥市,30.9944,112.5881,40.0,1002.2,26.0,75.0,25.211100910434872,43.78199999999999
Q6220,2025-06-03 11:00:00,磷矿,荆门市,钟祥市,31.2944,112.4272,47.9,1001.0,24.8,85.0,26.60345575928375,49.90199999999997
Q6223,2025-06-03 11:00:00,九里,荆门市,钟祥市,31.1669,112.6503,53.0,1001.4,26.6,73.0,25.424696860763483,44.03199999999997
Q6224,2025-06-03 11:00:00,文集,荆门市,钟祥市,31.1594,112.5319,54.6,1001.3,25.6,80.0,26.26117331284692,42.81549999999996
Q6235,2025-06-03 11:00:00,洪山寺,荆门市,钟祥市,31.4969,112.5197,56.0,999.3,26.7,71.0,24.87434676434523,49.052
Q6236,2025-06-03 11:00:00,北山,荆门市,钟祥市,31.2022,112.4103,93.0,996.1,25.4,76.0,24.653184647960728,42.65150000000001
Q6237,2025-06-03 11:00:00,陈坡,荆门市,钟祥市,31.0467,112.4686,43.0,1000.9,26.6,76.0,26.46954741668527,49.79199999999994
Q6260,2025-06-03 11:00:00,钟祥杨集,荆门市,钟祥市,31.3961,112.4883,59.0,1000.7,26.3,74.0,25.320484896232664,47.2355
Q6263,2025-06-03 11:00:00,明显陵,荆门市,钟祥市,31.2106,112.6344,65.0,999.7,24.3,88.0,26.72996261241174,56.7629999999999
Q6264,2025-06-03 11:00:00,郢中,荆门市,钟祥市,31.1667,112.5667,65.8,999.5,26.5,63.0,21.812787274322627,42.49799999999996
Q6317,2025-06-03 11:00:00,宋河,荆门市,京山市,31.1814,113.3008,77.2,997.7,26.1,73.0,24.68455094223484,48.27199999999998
Q6319,2025-06-03 11:00:00,永兴,荆门市,京山市,30.9697,113.2225,63.0,998.9,26.4,73.0,25.12634201991376,40.56700000000002
Q6320,2025-06-03 11:00:00,钱场,荆门市,京山市,30.8547,113.0992,49.6,1001.2,26.7,71.0,24.87434676434523,44.95049999999996
Q6321,2025-06-03 11:00:00,石龙,荆门市,京山市,30.8972,112.8411,34.0,1002.2,26.3,73.0,24.97831618141871,51.78366666666671
Q6322,2025-06-03 11:00:00,永漋,荆门市,京山市,30.7744,112.8278,33.9,1002.9,26.1,74.0,25.022695475690107,44.53499999999998
Q6323,2025-06-03 11:00:00,坪坝,荆门市,京山市,31.2839,113.3547,73.0,997.8,26.4,75.0,25.81473495196619,48.5255
Q6324,2025-06-03 11:00:00,屈家岭,荆门市,市辖区,30.8344,112.945,77.0,998.1,25.5,75.0,24.473946758587804,47.44950000000001
Q6333,2025-06-03 11:00:00,三阳,荆门市,京山市,31.3436,113.1756,203.2,983.5,25.2,71.0,22.7585921943284,41.34450000000001
Q6335,2025-06-03 11:00:00,三台,荆门市,京山市,31.2819,112.9369,174.2,986.3,24.9,76.0,23.92916792615907,46.53550000000001
Q6336,2025-06-03 11:00:00,将军岭,荆门市,京山市,31.2428,112.9794,208.9,983.1,25.7,70.0,23.11541273786425,44.87650000000008
Q6339,2025-06-03 11:00:00,空山洞,荆门市,京山市,30.9928,113.045,105.0,994.8,25.3,76.0,24.506867070689584,39.322
Q6343,2025-06-03 11:00:00,四股泉,荆门市,京山市,31.1531,113.2286,226.5,980.9,24.7,76.0,23.64481443454489,46.83850000000001
Q6344,2025-06-03 11:00:00,马岭,荆门市,京山市,31.0558,113.4464,45.0,1000.7,26.3,73.0,24.97831618141871,43.73199999999997
Q6349,2025-06-03 11:00:00,中南山,荆门市,京山市,30.9269,113.0072,111.0,994.4,25.7,73.0,24.106073283772723,42.68049999999996
Q6353,2025-06-03 11:00:00,黄台,荆门市,京山市,31.1539,112.8736,115.4,993.7,25.9,74.0,24.727973931440392,44.62099999999992
Q6358,2025-06-03 11:00:00,绿林寨,荆门市,京山市,31.3367,113.0661,174.0,987.7,25.9,72.0,24.05965031167173,45.468000000000046
Q6370,2025-06-03 11:00:00,罗汉寺,荆门市,市辖区,30.9961,112.6831,38.0,1002.4,26.2,78.0,26.531810695925675,40.72
Q6371,2025-06-03 11:00:00,长滩办事处,荆门市,市辖区,30.9972,112.7556,57.0,1000.6,26.2,76.0,25.85150785756861,52.33550000000002
Q6372,2025-06-03 11:00:00,月宝山,荆门市,市辖区,30.9675,112.7822,89.0,996.6,25.5,78.0,25.45290462893132,49.22550000000002
Q6373,2025-06-03 11:00:00,牙谷山,荆门市,市辖区,30.9711,112.8208,105.0,994.9,25.6,78.0,25.60464398002574,42.24050000000002
Q6374,2025-06-03 11:00:00,刘台,荆门市,市辖区,30.8964,112.7422,38.5,1002.7,26.2,79.0,26.871962115104207,49.82950000000002
Q6375,2025-06-03 11:00:00,种业基地,荆门市,市辖区,30.8661,112.8697,73.3,998.8,25.8,75.0,24.91394111279532,42.3665
Q6376,2025-06-03 11:00:00,蔡垱,荆门市,市辖区,30.7656,112.8836,33.1,1002.9,26.2,76.0,25.85150785756861,52.7354999999999
Q6401,2025-06-03 11:00:00,洈水,荆州市,松滋市,29.9694,111.5644,100.3,996.3,26.9,58.0,20.56063258329201,36.30499999999999
Q6402,2025-06-03 11:00:00,沙道观,荆州市,松滋市,30.1794,111.9433,38.4,1002.1,27.0,62.0,22.108277306758165,40.533499999999975
Q6403,2025-06-03 11:00:00,纸厂河,荆州市,松滋市,30.0286,111.8453,52.1,1001.6,25.6,71.0,23.306791315151635,37.53250000000005
Q6404,2025-06-03 11:00:00,南海,荆州市,松滋市,30.1169,111.85,48.2,1002.4,26.5,55.0,19.04290952520229,30.39399999999994
Q6406,2025-06-03 11:00:00,卸甲坪,荆州市,松滋市,30.03,111.37,136.0,992.6,26.4,60.0,20.651787961572957,32.53900000000001
Q6407,2025-06-03 11:00:00,北干渠,荆州市,松滋市,30.0261,111.6894,43.0,1000.4,27.5,59.0,21.665096093192737,43.19200000000003
Q6408,2025-06-03 11:00:00,北河,荆州市,松滋市,30.0728,111.6294,164.0,988.1,26.3,54.0,18.47711059995357,23.49750000000001
Q6409,2025-06-03 11:00:00,陈店,荆州市,松滋市,30.2792,111.6517,122.0,992.1,26.2,62.0,21.089387989069124,37.56150000000001
Q6411,2025-06-03 11:00:00,涴市,荆州市,松滋市,30.2714,112.0189,50.1,1002.1,26.3,57.0,19.50361674439543,38.283
Q6412,2025-06-03 11:00:00,杨林市,荆州市,松滋市,29.9758,111.7756,69.2,999.2,26.4,64.0,22.028573825677817,42.7095
Q6414,2025-06-03 11:00:00,八宝,荆州市,松滋市,30.18,111.8686,46.1,1002.2,26.0,72.0,24.20265687401748,47.97847499999999
Q6415,2025-06-03 11:00:00,万家,荆州市,松滋市,29.9686,111.6961,76.2,999.7,27.1,59.0,21.16255366213789,36.46399999999996
Q6417,2025-06-03 11:00:00,三堰淌,荆州市,松滋市,30.0903,111.4008,626.8,937.8,21.6,72.0,18.5687189723709,28.47699999999997
Q6418,2025-06-03 11:00:00,卸甲坪村,荆州市,松滋市,30.0397,111.3681,220.0,981.5,24.5,66.0,20.28928847619772,34.01600000000006
Q6426,2025-06-03 11:00:00,新江口,荆州市,松滋市,30.1769,111.7736,69.5,999.0,27.6,51.0,18.83745471522067,32.79300000000002
Q6494,2025-06-03 11:00:00,南平,荆州市,公安县,29.9206,112.0969,44.0,1002.5,26.8,66.0,23.259254406109594,39.92350000000002
Q6495,2025-06-03 11:00:00,狮子口,荆州市,公安县,29.99,112.0072,48.0,1001.8,25.8,64.0,21.25989641625201,35.43100000000005
Q6496,2025-06-03 11:00:00,杨家厂,荆州市,公安县,30.0592,112.3197,30.0,1002.9,26.5,67.0,23.197726148882797,30.51400000000004
Q6497,2025-06-03 11:00:00,孟家溪,荆州市,公安县,29.8575,112.0914,40.0,1003.0,26.6,68.0,23.683279267560508,27.874499999999983
Q6498,2025-06-03 11:00:00,麻豪口,荆州市,公安县,29.9631,112.3392,40.0,1002.9,27.6,62.0,22.900435143993757,37.10450000000001
Q6499,2025-06-03 11:00:00,夹竹园,荆州市,公安县,29.99,112.1083,37.0,1002.8,27.0,62.0,22.108277306758165,36.04799999999995
Q6500,2025-06-03 11:00:00,甘厂,荆州市,公安县,29.7447,112.0739,36.9,1003.1,26.6,76.0,26.46954741668527,42.64300000000004
Q6502,2025-06-03 11:00:00,斑竹垱,荆州市,公安县,30.0544,112.0081,39.5,1002.6,26.9,58.0,20.56063258329201,32.43150000000002
Q6503,2025-06-03 11:00:00,埠河,荆州市,公安县,30.2919,112.2406,44.0,1002.1,26.9,65.0,23.042088239896223,37.4235
Q6577,2025-06-03 11:00:00,大垸,荆州市,石首市,29.8425,112.4731,35.7,1002.9,27.4,60.0,21.90355176276961,32.31900000000002
Q6651,2025-06-03 11:00:00,监利汪桥,荆州市,监利市,29.98,112.7044,26.1,1003.5,26.5,69.0,23.890195586162875,38.733500000000014
Q6656,2025-06-03 11:00:00,监利上车,荆州市,监利市,29.8086,113.0083,26.5,1003.6,26.9,63.0,22.33310090943788,39.51099999999993
Q6657,2025-06-03 11:00:00,监利周老嘴,荆州市,监利市,30.0322,112.9767,25.1,1003.4,25.9,67.0,22.38884126225009,48.703
Q6658,2025-06-03 11:00:00,监利朱河,荆州市,监利市,29.7317,113.1064,24.9,1003.8,26.5,65.0,22.505256711602712,34.94549999999997
Q6659,2025-06-03 11:00:00,监利福田,荆州市,监利市,29.9039,113.0831,24.7,1003.8,25.5,72.0,23.494988888244293,39.84600000000001
Q6660,2025-06-03 11:00:00,监利黄歇口,荆州市,监利市,30.0361,112.8011,26.1,1003.6,27.5,58.0,21.297891074664044,38.98400000000001
Q6661,2025-06-03 11:00:00,监利大垸,荆州市,监利市,29.8486,112.7075,24.2,1003.0,26.9,65.0,23.042088239896223,34.03200000000002
Q6662,2025-06-03 11:00:00,监利网市,荆州市,监利市,30.1097,113.1147,25.8,1003.7,26.8,71.0,25.021319133845168,48.53999999999999
Q6665,2025-06-03 11:00:00,监利分盐,荆州市,监利市,29.9844,113.0503,31.9,1003.5,26.7,62.0,21.72126055478034,32.9865
Q6667,2025-06-03 11:00:00,监利柘木,荆州市,监利市,29.59,113.1403,26.4,1003.8,26.3,60.0,20.53012288883729,31.388500000000025
Q6668,2025-06-03 11:00:00,监利汴河,荆州市,监利市,29.8086,113.0872,25.1,1003.9,26.5,65.0,22.505256711602712,35.13549999999996
Q6670,2025-06-03 11:00:00,三洲,荆州市,监利市,29.545,112.9406,29.0,1003.6,26.7,62.0,21.72126055478034,33.94949999999997
Q6750,2025-06-03 11:00:00,曹市,荆州市,洪湖市,29.8625,113.5478,29.8,1003.7,26.8,73.0,25.726145024939395,45.47
Q6751,2025-06-03 11:00:00,黄家口,荆州市,洪湖市,30.0486,113.5617,20.0,1004.1,25.4,76.0,24.653184647960728,49.70549999999991
Q6753,2025-06-03 11:00:00,瞿家湾渡口,荆州市,洪湖市,29.9325,113.2267,30.0,1003.8,26.7,71.0,24.87434676434523,40.32999999999998
Q6754,2025-06-03 11:00:00,洪狮渔场,荆州市,洪湖市,29.9217,113.29,20.0,1004.0,26.5,69.0,23.890195586162875,37.22249999999997
Q6755,2025-06-03 11:00:00,瞿家湾,荆州市,洪湖市,29.9614,113.1831,23.5,1003.8,26.0,70.0,23.53036084973921,42.00850000000005
Q6756,2025-06-03 11:00:00,八卦洲,荆州市,洪湖市,29.8175,113.4078,34.0,1004.3,26.1,82.0,27.72785174333228,49.42150000000005
Q6757,2025-06-03 11:00:00,螺山,荆州市,洪湖市,29.6706,113.3161,26.7,1004.0,25.4,65.0,21.084960554176934,39.54550000000004
Q6758,2025-06-03 11:00:00,乌林,荆州市,洪湖市,29.9078,113.6072,30.0,1004.1,26.6,69.0,24.031562786201096,38.227500000000006
Q6759,2025-06-03 11:00:00,大沙,荆州市,洪湖市,30.0072,113.8642,30.0,1004.2,26.2,66.0,22.449993665783264,35.922500000000035
Q6760,2025-06-03 11:00:00,燕窝,荆州市,洪湖市,30.0958,113.9672,30.0,1003.8,25.6,71.0,23.306791315151635,42.16999999999999
Q6761,2025-06-03 11:00:00,汊河,荆州市,洪湖市,29.9578,113.4517,27.6,1004.1,26.8,64.0,22.554428515015363,41.56599999999997
Q6764,2025-06-03 11:00:00,大同湖,荆州市,洪湖市,30.0467,113.7133,23.7,1004.3,26.1,69.0,23.33197280841375,42.91649999999998
Q6767,2025-06-03 11:00:00,峰口,荆州市,洪湖市,30.1211,113.3494,25.3,1004.0,27.0,69.0,24.60437313171473,40.63100000000003
Q6769,2025-06-03 11:00:00,土地湖,荆州市,洪湖市,29.9361,113.3403,20.0,1004.0,25.9,71.0,23.725488501787407,42.44050000000003
Q6770,2025-06-03 11:00:00,袁新泵站,荆州市,洪湖市,29.7106,113.3156,20.0,1004.1,25.0,77.0,24.38920665864209,38.36150000000001
Q6771,2025-06-03 11:00:00,府场,荆州市,洪湖市,30.1222,113.1589,31.2,1003.7,26.9,71.0,25.16905023127126,41.48887499999998
Q6772,2025-06-03 11:00:00,洪湖龙口,荆州市,洪湖市,29.9878,113.7756,25.1,1004.1,26.0,64.0,21.51347277690443,32.050499999999985
Q6773,2025-06-03 11:00:00,洪湖经开区,荆州市,洪湖市,29.8489,113.4908,23.2,1004.0,26.6,64.0,22.29014519299812,39.20249999999988
Q6847,2025-06-03 11:00:00,江滩公园,荆州市,洪湖市,29.8033,113.4594,28.5,1003.2,26.5,64.0,22.159021992962668,35.306499999999964
Q6853,2025-06-03 11:00:00,纪南,荆州市,荆州区,30.4272,112.2525,33.0,1002.7,25.4,79.0,25.626336673538123,48.16900000000003
Q6856,2025-06-03 11:00:00,荆州中学,荆州市,荆州区,30.3653,112.2097,32.0,1003.1,26.5,64.0,22.159021992962668,31.00549999999995
Q6862,2025-06-03 11:00:00,乐居,荆州市,荆州区,30.3531,112.1147,38.6,1003.2,26.6,74.0,25.772980379404075,47.07149999999996
Q6863,2025-06-03 11:00:00,麋鹿,荆州市,石首市,29.7822,112.5547,35.4,1003.1,24.3,89.0,27.033712187552783,50.87464999999998
Q6901,2025-06-03 11:00:00,观音垱,荆州市,沙市区,30.3797,112.4003,28.0,1002.9,26.2,78.0,26.531810695925675,50.8935
Q6951,2025-06-03 11:00:00,秦市,荆州市,江陵县,29.9672,112.6025,30.3,1003.5,26.9,67.0,23.75107557035457,35.79450000000005
Q6953,2025-06-03 11:00:00,沙岗,荆州市,江陵县,30.0603,112.6308,30.0,1003.3,27.0,63.0,22.464862424609105,30.261499999999923
Q6954,2025-06-03 11:00:00,熊河,荆州市,江陵县,30.1106,112.44,30.1,1003.3,27.1,63.0,22.5973030629608,34.35299999999992
Q6957,2025-06-03 11:00:00,三湖,荆州市,江陵县,30.1967,112.5561,26.0,1003.7,26.7,63.0,22.071603466954212,36.607
Q6958,2025-06-03 11:00:00,郝穴,荆州市,江陵县,29.9919,112.4553,31.3,1003.1,27.8,60.0,22.422526448782573,37.400999999999975
Q6960,2025-06-03 11:00:00,江北农场,荆州市,江陵县,30.1814,112.3494,30.0,1003.3,26.0,68.0,22.85806482546096,38.03599999999997
Q7030,2025-06-03 11:00:00,悟峰山,孝感市,大悟县,31.7775,114.1636,92.4,995.6,24.3,83.0,25.211214736706527,46.81195833333333
Q7038,2025-06-03 11:00:00,新城,孝感市,大悟县,31.4925,114.2794,120.0,991.4,25.9,70.0,23.391326691903075,44.73550000000001
Q7087,2025-06-03 11:00:00,河口茶园,孝感市,大悟县,31.3186,114.3764,56.4,998.5,25.8,72.0,23.91738346828351,37.18350000000003
Q7092,2025-06-03 11:00:00,大悟城关,孝感市,大悟县,31.5711,114.1214,74.9,996.9,26.8,64.0,22.554428515015363,34.43199999999997
Q7138,2025-06-03 11:00:00,雷公,孝感市,安陆市,31.2953,113.515,101.0,995.0,26.3,75.0,25.66265361104662,47.12549999999997
Q7165,2025-06-03 11:00:00,接官,孝感市,安陆市,31.4175,113.7522,68.6,998.5,26.9,68.0,24.105569235583744,38.90159999999997
Q7166,2025-06-03 11:00:00,辛榨,孝感市,安陆市,31.1122,113.6156,45.9,1001.3,26.2,74.0,25.171205019211538,44.248000000000026
Q7167,2025-06-03 11:00:00,府河,孝感市,安陆市,31.2575,113.6686,36.4,1002.3,26.7,77.0,26.976404237388486,53.780499999999975
Q7218,2025-06-03 11:00:00,田店,孝感市,应城市,31.0317,113.4494,52.5,1000.8,26.2,72.0,24.49090218085447,45.474
Q7266,2025-06-03 11:00:00,义和,孝感市,应城市,30.7686,113.4944,28.9,1003.4,26.3,72.0,24.636147466604758,39.04650000000001
Q7315,2025-06-03 11:00:00,城隍,孝感市,汉川市,30.6261,113.7594,24.9,1003.6,26.5,69.0,23.890195586162875,40.17369999999996
Q7316,2025-06-03 11:00:00,华严农场,孝感市,汉川市,30.6256,113.6964,24.1,1003.9,26.5,74.0,25.62136917936309,34.125499999999995
Q7317,2025-06-03 11:00:00,回龙,孝感市,汉川市,30.565,113.4961,24.3,1003.6,25.8,75.0,24.91394111279532,40.5934999999999
Q7318,2025-06-03 11:00:00,脉旺,孝感市,汉川市,30.5175,113.5933,23.9,1003.5,25.9,74.0,24.727973931440392,35.62299999999993
Q7350,2025-06-03 11:00:00,庙头,孝感市,汉川市,30.5944,113.7875,27.0,1003.6,26.2,70.0,23.8105993424974,40.65724999999996
Q7354,2025-06-03 11:00:00,刘家隔,孝感市,汉川市,30.7539,113.8008,25.0,1003.9,25.0,77.0,24.38920665864209,49.51150000000003
Q7358,2025-06-03 11:00:00,麻河,孝感市,汉川市,30.775,113.6914,22.2,1004.1,25.6,79.0,25.932908646436324,49.385875000000006
Q7378,2025-06-03 11:00:00,南河,孝感市,汉川市,30.4967,113.7769,25.0,1003.3,25.9,69.0,23.057164882018743,36.334499999999984
Q7387,2025-06-03 11:00:00,新河,孝感市,汉川市,30.6956,113.9111,30.0,1003.8,26.1,65.0,21.979394674592665,41.98350000000002
Q7392,2025-06-03 11:00:00,西江,孝感市,汉川市,30.4806,113.6775,24.0,1003.7,26.4,73.0,25.12634201991376,41.02199999999996
Q7393,2025-06-03 11:00:00,韩集,孝感市,汉川市,30.6742,113.5964,28.0,1004.0,26.9,68.0,24.105569235583744,43.36837499999999
Q7426,2025-06-03 11:00:00,周巷,孝感市,孝昌县,31.2169,114.1108,105.8,994.7,25.6,73.0,23.963320647972807,48.317
Q7432,2025-06-03 11:00:00,丰和,孝感市,孝昌县,31.1422,114.1475,85.0,996.8,26.3,69.0,23.60964132216289,43.12749999999995
Q7442,2025-06-03 11:00:00,花西,孝感市,孝昌县,31.1939,113.8561,72.2,998.2,26.0,81.0,27.227988983269668,49.42200000000005
Q7461,2025-06-03 11:00:00,双峰山景区,孝感市,孝昌县,31.2011,114.1914,582.5,942.9,21.5,81.0,20.76225747868308,43.56649999999997
Q7538,2025-06-03 11:00:00,隔蒲潭,孝感市,云梦县,30.9461,113.7253,28.7,1003.5,26.3,67.0,22.92530389253498,39.55599999999995
Q7546,2025-06-03 11:00:00,倒店,孝感市,云梦县,31.1844,113.7389,58.9,999.6,26.3,74.0,25.320484896232664,41.84299999999997
Q7554,2025-06-03 11:00:00,清明河,孝感市,云梦县,31.0272,113.6944,34.0,1003.1,26.5,69.0,23.890195586162875,33.6345
Q7618,2025-06-03 11:00:00,杨店,孝感市,孝南区,31.025,114.1083,52.0,1001.5,26.7,69.0,24.173660939997472,49.70050000000004
Q7622,2025-06-03 11:00:00,陡岗,孝感市,孝南区,31.0397,113.8556,30.1,1002.5,26.3,72.0,24.636147466604758,47.92799999999999
Q7626,2025-06-03 11:00:00,肖港,孝感市,孝南区,31.0981,113.975,46.5,1000.8,26.3,71.0,24.293978751790803,46.58225000000004
Q7630,2025-06-03 11:00:00,毛陈,孝感市,孝南区,30.8239,113.9908,23.2,1003.9,26.2,71.0,24.150750761675937,46.395
Q7642,2025-06-03 11:00:00,新铺,孝感市,孝南区,30.9806,113.98,46.2,1001.2,25.5,69.0,22.51603101790078,44.73999999999997
Q7650,2025-06-03 11:00:00,卧龙,孝感市,孝南区,30.8961,113.9025,27.1,1003.9,26.8,65.0,22.90684146056248,36.27800000000001
Q7654,2025-06-03 11:00:00,闵集,孝感市,孝南区,30.8508,114.1303,46.2,1002.8,25.5,74.0,24.1476274684733,41.71100000000005
Q7658,2025-06-03 11:00:00,东山头,孝感市,孝南区,30.7981,114.0183,25.3,1003.9,26.1,72.0,24.346406408779565,44.18200000000001
Q7659,2025-06-03 11:00:00,朱湖,孝感市,孝南区,30.8081,113.9397,19.7,1004.1,26.2,75.0,25.51135643839007,45.76550000000004
Q7663,2025-06-03 11:00:00,郑家河,孝感市,市辖区,31.3603,113.2903,96.0,995.3,26.7,74.0,25.925375500866856,49.896
Q7701,2025-06-03 11:00:00,拖市,省直辖县级行政区划,天门市,30.7267,112.8314,40.0,1002.9,26.3,72.0,24.636147466604758,46.30899999999997
Q7704,2025-06-03 11:00:00,佛子山,省直辖县级行政区划,天门市,30.7503,113.0092,35.2,1002.7,26.1,76.0,25.698984542600652,53.39524999999996
Q7705,2025-06-03 11:00:00,汪场,省直辖县级行政区划,天门市,30.61,113.0192,26.7,1003.5,26.0,77.0,25.88339693471314,52.04049999999997
