Station_Id_C,Datetime,Lat,Lon,Alti,City,Station_Name,Cnty,PRS,TEM,RHU,PWV,VAP
57544,2025-06-03 00:00:00,29.4583,109.4433,485.4,湘西土家族苗族自治州,龙山,龙山县,954.8,19.6,91,40.7,20.744778358939225
57554,2025-06-03 00:00:00,29.4011,110.1622,318.8,张家界市,桑植,桑植县,972.6,19.8,92,41.8,21.234892585109822
57558,2025-06-03 00:00:00,29.1183,110.4172,218.5,张家界市,张家界,永定区,983.8,19.7,99,43.5,22.709158600069937
57562,2025-06-03 00:00:00,29.5833,111.3633,119,常德市,石门,石门县,994.6,22.2,81,38.4,21.66964418662506
57564,2025-06-03 00:00:00,29.4317,111.0892,168.7,张家界市,慈利,慈利县,988.1,21.3,94,37.1,23.800802118969415
57565,2025-06-03 00:00:00,29.6669,111.7253,40.2,常德市,澧县,澧县,1003.6,23.0,83,38.1,23.310760845269545
57566,2025-06-03 00:00:00,29.4692,111.67,86,常德市,临澧,临澧县,997.7,22.4,89,46.42645025747127,24.101638951817936
57574,2025-06-03 00:00:00,29.3517,112.4317,40.3,益阳市,南县,南县,1003.6,22.2,99,60.14321053729171,26.485120672541736
57575,2025-06-03 00:00:00,29.525,112.5567,49.4,岳阳市,华容,华容县,1002.5,22.4,80,37.6,21.664394563431856
57577,2025-06-03 00:00:00,29.4103,112.205,42.2,常德市,安乡,安乡县,1004.3,22.3,96,37.3,25.839487384065816
57584,2025-06-03 00:00:00,29.3808,113.088,52.7,岳阳市,岳阳,岳阳楼区,1002.4,22.6,92,35.3,25.21890662690787
57585,2025-06-03 00:00:00,29.4814,113.4478,64,岳阳市,临湘,临湘市,1001.2,21.4,95,36.9,24.202000043251516
57587,2025-06-03 00:00:00,29.1914,113.1092,48.4,岳阳市,洞庭湖,岳阳县,1002.7,21.1,94,39.077571719657364,23.510276068036926
57640,2025-06-03 00:00:00,28.5364,109.4625,532.8,湘西土家族苗族自治州,花垣,花垣县,949.1,18.1,96,44.5014393807953,19.92573938856708
57642,2025-06-03 00:00:00,28.6808,109.6481,438.1,湘西土家族苗族自治州,保靖,保靖县,959.9,18.8,96,51.5165524392169,20.81982298451022
57643,2025-06-03 00:00:00,29.0083,109.8383,272.6,湘西土家族苗族自治州,永顺,永顺县,978.5,20.1,92,41.8,21.633509095690638
57646,2025-06-03 00:00:00,28.6222,109.9469,318,湘西土家族苗族自治州,古丈,古丈县,973.2,19.5,100,43.3,22.655148472136535
57649,2025-06-03 00:00:00,28.2381,109.6825,253.6,湘西土家族苗族自治州,吉首,吉首市,980.0,19.7,92,45.1,21.103460517236712
57655,2025-06-03 00:00:00,28.4633,110.4031,151.6,怀化市,沅陵县,沅陵县,991.7,19.8,100,44.8,23.081404983815023
57657,2025-06-03 00:00:00,28.21,110.2286,216.4,湘西土家族苗族自治州,泸溪,泸溪县,984.5,18.7,100,49.917296255756625,21.55206085216996
57658,2025-06-03 00:00:00,28.0069,110.1928,155.3,怀化市,辰溪,辰溪县,991.8,19.9,95,47.3,22.063793865449135
57661,2025-06-03 00:00:00,28.9133,111.4797,51.1,常德市,桃源,桃源县,1002.7,21.6,87,41,22.437202091614836
57662,2025-06-03 00:00:00,29.1164,111.6767,151.4,常德市,常德,武陵区,990.8,20.8,89,38.5,21.8526418939671
57663,2025-06-03 00:00:00,28.9203,111.9583,36.2,常德市,汉寿,汉寿县,1004.3,21.6,87,40,22.437202091614836
57666,2025-06-03 00:00:00,28.5159,112.1366,139.4,益阳市,桃江,桃江县,992.5,21.0,83,40.3,20.631842335248397
57669,2025-06-03 00:00:00,28.3847,111.2203,129.8,益阳市,安化,安化县,986.1,20.3,88,45.4,20.950587733219006
57671,2025-06-03 00:00:00,28.84,112.3722,43.7,益阳市,沅江,沅江市,1003.7,21.9,99,40.6,26.004726770968702
57673,2025-06-03 00:00:00,28.7283,112.9253,63,岳阳市,湘阴,湘阴县,1001.2,21.8,94,45.578378097303656,24.54093311229333
57674,2025-06-03 00:00:00,28.5722,112.3783,49.6,益阳市,赫山,赫山区,994.8,21.5,84,46.2,21.531229977893567
57678,2025-06-03 00:00:00,28.2514,112.5433,60.9,长沙市,宁乡,宁乡市,999.6,21.5,87,44.5,22.30020247710405
57679,2025-06-03 00:00:00,28.2117,113.1972,103.6,长沙市,长沙黄花,长沙县,996.6,21.4,82,45.9,20.89014740575394
57680,2025-06-03 00:00:00,28.8565,113.1071,82,岳阳市,汨罗,汨罗市,999.5,21.6,82,42.2,21.14770771853352
57682,2025-06-03 00:00:00,28.7117,113.5717,106.9,岳阳市,平江,平江县,996.3,21.0,100,41,24.85764136776915
57687,2025-06-03 00:00:00,28.1086,112.7864,119,长沙市,长沙,岳麓区,994.6,20.3,97,40.67365421321143,23.09326147866186
57688,2025-06-03 00:00:00,28.1561,113.6308,102.6,长沙市,浏阳,浏阳市,996.5,21.2,82,52,20.635341832716303
57740,2025-06-03 00:00:00,27.9528,109.5953,353,湘西土家族苗族自治州,凤凰,凤凰县,969.4,19.0,92,46.4,20.20325785789222
57743,2025-06-03 00:00:00,27.8586,109.8139,176.8,怀化市,麻阳国家基本观测站,麻阳苗族自治县,986.8,19.4,96,48.1,21.614022402714625
57744,2025-06-03 00:00:00,27.3682,109.1635,353,怀化市,新晃,新晃侗族自治县,969.5,19.4,92,47.6,20.71343813593485
57745,2025-06-03 00:00:00,27.4547,109.6811,272.2,怀化市,芷江,芷江侗族自治县,978.5,19.3,95,43.01040664281754,21.256089220567667
57749,2025-06-03 00:00:00,27.6069,110.0306,286.9,怀化市,怀化,鹤城区,976.5,19.1,100,43.44573931971903,22.097562403553933
57752,2025-06-03 00:00:00,27.9125,110.6008,207.4,怀化市,溆浦,溆浦县,985.7,19.2,100,45.4,22.235817183830736
57754,2025-06-03 00:00:00,27.2117,109.8353,252,怀化市,洪江,洪江市,980.4,19.6,91,40.38782313365491,20.744778358939225
57758,2025-06-03 00:00:00,27.0253,110.6067,342.2,邵阳市,洞口,洞口县,969.8,19.0,100,46.5,21.960062889013276
57760,2025-06-03 00:00:00,27.6964,111.4367,249.2,娄底市,冷水江,冷水江市,979.9,20.0,96,48.212385644428814,22.434692384701854
57761,2025-06-03 00:00:00,27.7467,111.2939,215.4,娄底市,新化,新化县,984.4,20.4,85,43.6,20.361820631672177
57762,2025-06-03 00:00:00,27.6961,111.7033,167.2,娄底市,涟源,涟源市,979.9,19.9,86,46.2,19.973539709775004
57763,2025-06-03 00:00:00,27.6911,112.0019,155.5,娄底市,娄底,娄底市,984.9,20.3,86,44.5,20.474438012009482
57765,2025-06-03 00:00:00,27.325,110.4072,1386.6,怀化市,雪峰山,洪江市,857.1,15.2,80,31.55171826747785,13.808949787055317
57766,2025-06-03 00:00:00,27.185,111.4536,311,邵阳市,邵阳,大祥区,973.3,19.2,95,46.81369982048198,21.1240263246392
57767,2025-06-03 00:00:00,27.1133,111.0325,310.8,邵阳市,隆回,隆回县,973.3,19.4,89,44.6,20.037999935850017
57768,2025-06-03 00:00:00,27.3411,111.4464,294.1,邵阳市,新邵,新邵县,975.0,18.7,100,43.4,21.55206085216996
57769,2025-06-03 00:00:00,27.2375,111.7361,253.9,邵阳市,邵东,邵东市,974.0,19.3,100,46.1,22.37483075849228
57771,2025-06-03 00:00:00,27.8867,112.5925,127.6,湘潭市,韶山,韶山市,993.5,20.5,97,45.285356534083476,23.380377848702903
57772,2025-06-03 00:00:00,27.751,112.5059,86.9,湘潭市,湘乡,湘乡市,998.5,20.6,93,45.8,22.554999311260282
57773,2025-06-03 00:00:00,27.8756,112.8275,63.8,湘潭市,湘潭观测站,雨湖区,1000.9,21.1,89,45.72897536189735,22.259729468673257
57774,2025-06-03 00:00:00,27.4486,112.1733,103.1,娄底市,双峰,双峰县,990.9,19.7,94,50.3,21.562231398046205
57776,2025-06-03 00:00:00,27.2961,112.6936,1265.9,衡阳市,南岳,南岳区,869.8,12.8,100,44.779580455244776,14.771799326606466
57777,2025-06-03 00:00:00,27.2581,112.8372,159.1,衡阳市,衡山,衡山县,990.0,20.9,92,57.47646820978479,22.728761339710307
57778,2025-06-03 00:00:00,27.0525,112.9847,112.4,衡阳市,衡东,衡东县,995.4,22.0,90,51.9,23.78545661174949
57779,2025-06-03 00:00:00,27.0556,113.3528,115.2,株洲市,攸县,攸县,994.6,21.2,98,50.1,24.661749995197535
57780,2025-06-03 00:00:00,27.8689,113.1736,74.6,株洲市,株洲,荷塘区,999.6,21.4,100,52.919473955010524,25.475789519212125
57781,2025-06-03 00:00:00,27.6406,113.5069,75.9,株洲市,醴陵,醴陵市,999.6,21.5,81,52.2,20.762257478683082
57841,2025-06-03 00:00:00,26.5619,109.6736,322.5,怀化市,靖州,靖州苗族侗族自治县,972.2,19.4,95,52.1,21.38887633601968
57842,2025-06-03 00:00:00,26.8767,109.7208,287.8,怀化市,会同,会同县,976.8,19.8,89,51.3,20.54245043559537
57845,2025-06-03 00:00:00,26.1589,109.7778,400.2,怀化市,通道,通道侗族自治县,963.5,19.2,88,49.1,19.56751912177105
57846,2025-06-03 00:00:00,26.5867,110.1419,382.7,邵阳市,绥宁,绥宁县,965.3,19.1,94,48.9,20.771708659340696
57851,2025-06-03 00:00:00,26.4418,110.8528,348.4,邵阳市,新宁,新宁县,969.3,19.2,100,49.7,22.235817183830736
57853,2025-06-03 00:00:00,26.7386,110.6371,340.1,邵阳市,武冈,武冈市,969.9,19.7,86,46.4,19.727147874808228
57857,2025-06-03 00:00:00,26.3726,110.311,479.1,邵阳市,城步,城步苗族自治县,954.8,18.7,93,48.8,20.043416592518064
57860,2025-06-03 00:00:00,27.0022,111.2884,288.5,邵阳市,邵阳县,邵阳县,968.1,19.2,98,49.5,21.791100840154122
57865,2025-06-03 00:00:00,26.4956,111.6161,192.8,永州市,冷水滩,冷水滩区,986.6,20.7,92,52.98855954468428,22.450485981675303
57866,2025-06-03 00:00:00,26.226,111.6167,173.4,永州市,永州,零陵区,988.8,20.1,94,52,22.103802771683913
57867,2025-06-03 00:00:00,26.4025,111.2892,174.9,永州市,东安,东安县,988.9,21.0,87,49.7,21.62614798995916
57868,2025-06-03 00:00:00,26.5494,111.8622,163.3,永州市,祁阳,祁阳市,989.7,20.9,91,49.745098140328885,22.481709586017804
57870,2025-06-03 00:00:00,26.7633,112.0825,218.9,衡阳市,祁东,祁东县,983.3,20.3,94,48.9,22.379036896847573
57871,2025-06-03 00:00:00,26.9742,112.3669,90.8,衡阳市,衡阳县,衡阳县,997.8,21.7,84,44.24910315958273,21.796492906598573
57872,2025-06-03 00:00:00,26.9775,112.5942,122.1,衡阳市,衡阳,石鼓区,994.5,21.6,84,51.5,21.663505467766047
57874,2025-06-03 00:00:00,26.4092,112.3939,119,衡阳市,常宁,常宁市,994.9,21.4,83,52.3,21.14490530094606
57875,2025-06-03 00:00:00,26.755,112.6914,137,衡阳市,衡南,衡南县,992.2,21.8,88,52.24800725632437,22.974490573210776
57876,2025-06-03 00:00:00,26.4278,112.8292,138,衡阳市,耒阳,耒阳市,992.7,21.0,88,52.6,21.874724403636854
57881,2025-06-03 00:00:00,26.7139,113.2586,104.8,郴州市,安仁,安仁县,986.0,20.5,100,56.3,24.103482318250418
57882,2025-06-03 00:00:00,26.7892,113.545,133.2,株洲市,茶陵,茶陵县,992.1,21.4,87,40.735675091389844,22.163936881714548
57886,2025-06-03 00:00:00,26.4778,113.7922,273.2,株洲市,炎陵,炎陵县,977.2,20.3,79,51.1,18.807913987776153
57887,2025-06-03 00:00:00,26.1192,113.1144,169.4,郴州市,永兴,永兴县,988.8,21.9,86,53.5,22.589964669730385
57889,2025-06-03 00:00:00,26.0797,113.9447,834.1,郴州市,桂东,桂东县,914.5,20.8,75,36.151407936349585,18.415147663455418
57962,2025-06-03 00:00:00,25.9617,111.6544,206.7,永州市,双牌,双牌县,984.8,20.0,100,50.9,23.36947123406443
57965,2025-06-03 00:00:00,25.5339,111.5958,192.7,永州市,道县,道县,986.2,20.3,93,52.6,22.140962036242815
57966,2025-06-03 00:00:00,25.5947,111.9594,243.1,永州市,宁远,宁远县,980.2,20.5,91,52.7,21.934168909607884
57969,2025-06-03 00:00:00,25.2758,111.3106,259.4,永州市,江永,江永县,977.4,19.1,98,50.63213486401151,21.655611155482855
57971,2025-06-03 00:00:00,25.9117,112.2067,227.4,永州市,新田,新田县,982.7,20.7,98,51.1,23.914648110914996
57972,2025-06-03 00:00:00,25.7356,112.9772,368.6,郴州市,郴州,北湖区,966.4,18.7,97,46.13725592079433,20.905499026604858
57973,2025-06-03 00:00:00,25.7494,112.7247,329.8,郴州市,桂阳,桂阳县,971.0,20.1,84,50.9,19.75233439171754
57974,2025-06-03 00:00:00,25.5814,112.3653,214.5,郴州市,嘉禾,嘉禾县,983.8,20.5,100,44.56227855972373,24.103482318250418
57975,2025-06-03 00:00:00,25.4006,112.1678,345.9,永州市,蓝山,蓝山县,969.0,19.1,100,56.78156053564532,22.097562403553933
57976,2025-06-03 00:00:00,25.4058,112.9406,225.2,郴州市,宜章,宜章县,982.6,20.9,86,55.4,21.24645081755528
57978,2025-06-03 00:00:00,25.2731,112.5461,295.7,郴州市,临武,临武县,974.8,19.8,91,51.8,21.004078535271674
57981,2025-06-03 00:00:00,25.9744,113.2169,142.2,郴州市,资兴,资兴市,992.0,20.9,94,54.2,23.222864847095313
57985,2025-06-03 00:00:00,25.5558,113.6881,648.2,郴州市,汝城,汝城县,935.5,17.7,100,53.2,20.23971684225924
59063,2025-06-03 00:00:00,25.1819,111.5703,265.7,永州市,江华,江华瑶族自治县,977.3,19.8,92,52.89027623727819,21.234892585109822
P1000,2025-06-03 00:00:00,29.5819,109.5853,523,湘西土家族苗族自治州,石牌,龙山县,945.9,18.8,92,37.73656497751622,19.95233036015563
P1001,2025-06-03 00:00:00,29.4103,109.5969,803.2,湘西土家族苗族自治州,茨岩塘,龙山县,919.7,17.9,96,39.41017267890401,19.67656299461232
P1003,2025-06-03 00:00:00,29.3381,109.4894,848,湘西土家族苗族自治州,茅坪,龙山县,912.4,17.4,100,34.23083271573865,19.85995843777483
P1006,2025-06-03 00:00:00,29.2897,109.4136,1224,湘西土家族苗族自治州,可立坡,龙山县,874.3,15.5,100,31.26354756911012,17.596941250149197
P1009,2025-06-03 00:00:00,28.8125,109.3497,330.2,湘西土家族苗族自治州,树木,龙山县,970.2,19.6,100,44.52944963309415,22.796459735098047
P1016,2025-06-03 00:00:00,28.2761,109.6769,243.7,湘西土家族苗族自治州,红枫林场,吉首市,978.9,19.2,100,46.426375113357466,22.235817183830736
P1018,2025-06-03 00:00:00,29.1372,109.3714,791.6,湘西土家族苗族自治州,喳啦坪,龙山县,917.8,17.1,100,35.42980125966539,19.48647562718077
P1021,2025-06-03 00:00:00,29.0394,109.3542,338,湘西土家族苗族自治州,咱果,龙山县,969.1,19.1,97,41.62715800456809,21.434635531447313
P1060,2025-06-03 00:00:00,29.1431,109.6892,372,湘西土家族苗族自治州,两岔,永顺县,965.5,19.3,100,45.70692540853589,22.37483075849228
P1062,2025-06-03 00:00:00,29.0975,109.7117,307.2,湘西土家族苗族自治州,首车,永顺县,969.8,19.5,95,41.45010192334643,21.52239104852971
P1063,2025-06-03 00:00:00,28.9867,109.6683,434.2,湘西土家族苗族自治州,西歧,永顺县,960.1,18.8,100,34.337691196945485,21.687315608864814
P1066,2025-06-03 00:00:00,28.8458,110.1953,845.2,湘西土家族苗族自治州,三合,永顺县,912.9,17.5,96,40.11539197658824,19.186409162902553
P1069,2025-06-03 00:00:00,29.0336,110.2889,352.2,湘西土家族苗族自治州,永茂,永顺县,961.8,18.9,97,42.70799284817089,21.168615671086247
P1070,2025-06-03 00:00:00,29.0189,110.1378,543.6,湘西土家族苗族自治州,五里,永顺县,947.3,18.3,99,37.89017406453754,20.808235898159186
P1073,2025-06-03 00:00:00,28.8172,110.1172,218.7,湘西土家族苗族自治州,长官,永顺县,981.1,19.5,94,46.002833343974416,21.295839563808343
P1074,2025-06-03 00:00:00,28.8608,109.9961,615.3,湘西土家族苗族自治州,马鞍,永顺县,946.0,18.3,67,26.160067394481317,14.082341466430965
P1075,2025-06-03 00:00:00,29.2,109.8333,561.1,湘西土家族苗族自治州,李家,永顺县,942.8,17.9,98,42.49423541029405,20.08649139033341
P1076,2025-06-03 00:00:00,29.2864,109.8842,447.4,湘西土家族苗族自治州,毛坝,永顺县,956.1,18.3,99,37.89017406453754,20.808235898159186
P1077,2025-06-03 00:00:00,29.2017,109.9564,405.1,湘西土家族苗族自治州,隆发,永顺县,960.7,18.7,98,38.576763647790784,21.12101963512656
P1083,2025-06-03 00:00:00,29.1953,109.7719,750.7,湘西土家族苗族自治州,岩门,永顺县,923.7,17.9,100,37.446784581834834,20.4964197860545
P1086,2025-06-03 00:00:00,29.1339,110.1864,401.2,湘西土家族苗族自治州,柯溪,永顺县,962.2,18.8,100,38.980516640426615,21.687315608864814
P1089,2025-06-03 00:00:00,29.0811,109.9828,625.8,湘西土家族苗族自治州,天堂,永顺县,937.3,17.7,99,41.93969873146547,20.03731967383665
P1091,2025-06-03 00:00:00,28.7372,109.965,486.3,湘西土家族苗族自治州,新区,永顺县,951.8,18.3,98,42.29929294568451,20.59805169716768
P1093,2025-06-03 00:00:00,28.8628,109.7828,399.7,湘西土家族苗族自治州,西那司,永顺县,962.1,19.0,98,37.72008392964028,21.520861631233014
P1095,2025-06-03 00:00:00,29.2839,110.0114,435.2,湘西土家族苗族自治州,砂坝,永顺县,956.6,18.5,99,40.31103624856689,21.070934009328244
P1096,2025-06-03 00:00:00,28.9219,110.3042,576.2,湘西土家族苗族自治州,朗溪,永顺县,941.4,19.1,90,40.754405836412964,19.887806163198537
P1097,2025-06-03 00:00:00,28.8928,109.6961,441.7,湘西土家族苗族自治州,宝石,永顺县,954.9,18.4,99,39.1684199644622,20.939223141038045
P1098,2025-06-03 00:00:00,28.8408,109.2558,1225,湘西土家族苗族自治州,八面山景区,龙山县,873.0,16.3,85,33.18420622398249,15.742451623946305
P1099,2025-06-03 00:00:00,28.2106,109.5614,268.4,湘西土家族苗族自治州,黄石洞水库,吉首市,973.5,18.7,86,29.579530650848795,18.53477233286616
P1100,2025-06-03 00:00:00,28.4428,109.4178,544.4,湘西土家族苗族自治州,三塘,花垣县,948.5,18.0,99,45.89588221097188,20.419582093647964
P1101,2025-06-03 00:00:00,28.5158,109.5869,675.8,湘西土家族苗族自治州,排力,保靖县,930.6,18.6,93,43.34643932862185,19.91831906243732
P1103,2025-06-03 00:00:00,28.5381,109.7606,363,湘西土家族苗族自治州,葫芦,保靖县,967.1,18.6,96,52.53441080945628,20.560845483806265
P1104,2025-06-03 00:00:00,28.1497,109.3761,837.6,湘西土家族苗族自治州,两林,凤凰县,914.0,17.7,100,30.77907654458168,20.23971684225924
P1113,2025-06-03 00:00:00,28.61,109.3547,325.4,湘西土家族苗族自治州,毛沟,保靖县,970.3,19.0,97,45.16884972449976,21.301261002342876
P1127,2025-06-03 00:00:00,28.6269,109.5519,214.7,湘西土家族苗族自治州,复兴,保靖县,981.9,19.9,100,54.07127069367356,23.225046174156986
P1152,2025-06-03 00:00:00,28.5181,109.2814,301.4,湘西土家族苗族自治州,曲乐,花垣县,971.5,18.8,99,46.40745136569868,21.47044245277617
P1154,2025-06-03 00:00:00,28.4247,109.5,742.3,湘西土家族苗族自治州,排达鲁,花垣县,923.8,18.0,100,45.78111849888862,20.625840498634304
P1172,2025-06-03 00:00:00,28.4964,109.3892,520.6,湘西土家族苗族自治州,祥和,花垣县,948.5,18.0,100,45.79644403785953,20.625840498634304
P1173,2025-06-03 00:00:00,28.5092,109.4736,478.5,湘西土家族苗族自治州,兄弟河水库,花垣县,953.7,18.3,99,54.020977619458854,20.808235898159186
P1203,2025-06-03 00:00:00,28.6939,109.8253,382.8,湘西土家族苗族自治州,米多,古丈县,963.2,18.8,100,49.69368765809346,21.687315608864814
P1208,2025-06-03 00:00:00,28.4803,109.8911,271,湘西土家族苗族自治州,中寨,古丈县,975.5,19.2,97,51.24302947003353,21.568742668315814
P1231,2025-06-03 00:00:00,28.3511,109.9481,345.4,湘西土家族苗族自治州,大坪,吉首市,966.9,18.6,100,49.39484316559796,21.41754737896486
P1232,2025-06-03 00:00:00,28.3381,109.5619,622.2,湘西土家族苗族自治州,排兄,吉首市,935.7,17.8,100,43.095798435576036,20.367713020241688
P1233,2025-06-03 00:00:00,28.2128,109.695,265.6,湘西土家族苗族自治州,周家寨,吉首市,976.1,19.3,97,44.59491788089823,21.70358583573751
P1236,2025-06-03 00:00:00,28.2122,109.8067,176.6,湘西土家族苗族自治州,河溪,吉首市,986.8,19.8,96,49.18690767970631,22.15814878446242
P1240,2025-06-03 00:00:00,28.3172,109.6519,388,湘西土家族苗族自治州,寨阳炮点,吉首市,962.5,18.4,100,35.254261576525735,21.150730445492975
P1241,2025-06-03 00:00:00,28.3233,109.5911,212.6,湘西土家族苗族自治州,矮寨,吉首市,982.2,19.7,93,48.03092567929632,21.332845957641457
P1246,2025-06-03 00:00:00,28.2561,109.6425,176.2,湘西土家族苗族自治州,八月湖水库,吉首市,984.7,19.5,98,47.880009257093974,22.202045502693807
P1248,2025-06-03 00:00:00,28.2953,109.7417,275.3,湘西土家族苗族自治州,镇溪,吉首市,976.9,19.9,95,50.21062004481876,22.063793865449135
P1291,2025-06-03 00:00:00,28.2233,110.0886,290.9,湘西土家族苗族自治州,大长坡,泸溪县,973.4,18.9,96,45.12075218732869,20.950382519837937
P1295,2025-06-03 00:00:00,28.0111,109.9969,235.1,湘西土家族苗族自治州,公羊,泸溪县,980.1,18.7,99,47.54403669786745,21.33654024364826
P1298,2025-06-03 00:00:00,28.1747,109.9475,213.8,湘西土家族苗族自治州,白羊溪,泸溪县,981.9,18.7,98,46.77417041793958,21.12101963512656
P1300,2025-06-03 00:00:00,28.1306,109.7322,140.2,湘西土家族苗族自治州,水卡,泸溪县,985.5,19.2,94,43.73047597735396,20.901668152800895
P1302,2025-06-03 00:00:00,28.11,109.89,383.2,湘西土家族苗族自治州,永兴场,泸溪县,963.9,18.3,100,39.100494280738324,21.018420099150696
P1303,2025-06-03 00:00:00,28.1264,109.8864,345,湘西土家族苗族自治州,小章,泸溪县,967.0,18.4,99,43.01075715717624,20.939223141038045
P1304,2025-06-03 00:00:00,28.2622,109.9231,150,湘西土家族苗族自治州,潭溪,泸溪县,992.7,19.9,96,54.71742326005638,22.296044327190703
P1306,2025-06-03 00:00:00,28.2403,110.0172,130,湘西土家族苗族自治州,甘溪,泸溪县,993.8,19.6,97,51.268959609088824,22.112565943045105
P1307,2025-06-03 00:00:00,28.3397,110.0339,230.1,湘西土家族苗族自治州,梁家潭,泸溪县,981.8,18.8,99,48.59635142779078,21.47044245277617
P1321,2025-06-03 00:00:00,28.0744,110.0911,139,湘西土家族苗族自治州,罗家,泸溪县,992.3,20.0,100,38.270496247947825,23.36947123406443
P1333,2025-06-03 00:00:00,27.9553,109.9908,172.6,湘西土家族苗族自治州,石榴坪,泸溪县,988.6,19.1,99,46.403651124603776,21.876586779518394
P1345,2025-06-03 00:00:00,28.0725,109.3836,799.3,湘西土家族苗族自治州,腊尔山,凤凰县,917.6,17.5,94,36.828503175444524,18.786692305342083
P1346,2025-06-03 00:00:00,28.1683,109.6061,226,湘西土家族苗族自治州,拉务,凤凰县,980.7,19.3,87,35.38386898657456,19.466102759888287
P1347,2025-06-03 00:00:00,28.0433,109.4572,605.5,湘西土家族苗族自治州,山江,凤凰县,938.9,18.2,100,37.63427672831656,20.886837264075304
P1348,2025-06-03 00:00:00,28.095,109.6017,337.4,湘西土家族苗族自治州,吉信,凤凰县,969.3,18.5,83,40.670814878619304,17.665530533073174
P1349,2025-06-03 00:00:00,27.9136,109.3144,673.9,湘西土家族苗族自治州,龙塘河水库,凤凰县,931.1,17.6,97,35.76243665427105,19.509055068795323
P1357,2025-06-03 00:00:00,27.9906,109.5111,378.5,湘西土家族苗族自治州,长潭岗水库,凤凰县,964.2,18.3,97,44.538921320888946,20.38786749617617
P1358,2025-06-03 00:00:00,28.0781,109.7528,401.4,湘西土家族苗族自治州,雷公洞,凤凰县,961.3,17.8,82,31.144810586698576,16.701524676598183
P1359,2025-06-03 00:00:00,27.8781,109.4486,427.3,湘西土家族苗族自治州,新场中学,凤凰县,960.9,19.0,97,35.64857644459848,21.301261002342876
P1367,2025-06-03 00:00:00,27.8942,109.5522,398.9,湘西土家族苗族自治州,林峰,凤凰县,962.3,18.1,82,29.124065528080745,17.019902394401047
P1368,2025-06-03 00:00:00,27.9197,109.6119,322,湘西土家族苗族自治州,古城,凤凰县,969.6,19.1,100,41.047523251066266,22.097562403553933
P1370,2025-06-03 00:00:00,28.2753,109.7925,162.3,湘西土家族苗族自治州,马鞍,吉首市,988.3,19.7,96,48.08603380983644,22.021002278855697
P1371,2025-06-03 00:00:00,28.1964,109.9825,359.9,湘西土家族苗族自治州,马入田,泸溪县,966.4,18.5,83,40.60290191126399,17.665530533073174
P1372,2025-06-03 00:00:00,28.755,109.85,433.1,湘西土家族苗族自治州,红石林,古丈县,959.1,18.7,98,44.92995952724998,21.12101963512656
P1373,2025-06-03 00:00:00,28.4178,109.9347,236,湘西土家族苗族自治州,坪坝学校,古丈县,982.0,19.0,100,51.21785807138038,21.960062889013276
P1374,2025-06-03 00:00:00,28.1769,109.4631,766.4,湘西土家族苗族自治州,大坪,凤凰县,921.2,17.0,84,20.957684321999235,16.265222891272394
P1375,2025-06-03 00:00:00,28.0228,109.5153,444,湘西土家族苗族自治州,建塘,凤凰县,956.7,17.7,97,35.49922361636537,19.63252533699146
P1376,2025-06-03 00:00:00,28.4506,109.8275,339.8,湘西土家族苗族自治州,团结,吉首市,968.9,18.5,100,43.47416497329949,21.283771726594185
P1383,2025-06-03 00:00:00,28.7953,110.2147,765.7,湘西土家族苗族自治州,竹坪,永顺县,921.0,17.9,92,40.58538351092925,18.85670620317014
P1385,2025-06-03 00:00:00,28.4478,109.7886,222.1,湘西土家族苗族自治州,冷寨河茶园,保靖县,982.0,18.8,96,46.648205878154904,20.81982298451022
P1386,2025-06-03 00:00:00,28.7764,109.7872,444.3,湘西土家族苗族自治州,友和,永顺县,956.8,18.6,98,48.60998511283584,20.98919643138556
P1387,2025-06-03 00:00:00,29.1019,109.9569,411.8,湘西土家族苗族自治州,颗砂,永顺县,960.3,18.7,99,37.31839611102503,21.33654024364826
P1390,2025-06-03 00:00:00,29.5056,109.4525,526,湘西土家族苗族自治州,白泥,龙山县,948.4,18.8,98,48.31604110885065,21.25356929668752
P1393,2025-06-03 00:00:00,29.5736,109.7031,817.3,湘西土家族苗族自治州,乌鸦,龙山县,918.1,16.6,96,33.17342412444347,18.12260138030721
P1395,2025-06-03 00:00:00,29.1778,109.6242,590,湘西土家族苗族自治州,马蹄,龙山县,942.5,18.1,98,43.37228637898548,20.340858959162233
P1397,2025-06-03 00:00:00,28.9228,109.4531,327,湘西土家族苗族自治州,金星,龙山县,969.0,19.5,97,48.05685350501842,21.975494017972437
P1400,2025-06-03 00:00:00,28.3761,109.6114,780.8,湘西土家族苗族自治州,排料,花垣县,921.8,18.1,87,40.694358468350664,18.05770132088892
P1414,2025-06-03 00:00:00,28.9036,110.0658,714.9,湘西土家族苗族自治州,花桥,永顺县,927.4,17.6,98,31.68112489262467,19.71017934785507
P1415,2025-06-03 00:00:00,28.4339,109.7911,219,湘西土家族苗族自治州,隘口,吉首市,981.7,19.0,100,50.80164893679119,21.960062889013276
P1416,2025-06-03 00:00:00,29.4122,109.9217,352.6,湘西土家族苗族自治州,万民,永顺县,965.4,19.0,95,41.56075790886306,20.862059744562615
P1418,2025-06-03 00:00:00,27.8297,109.6186,448.7,湘西土家族苗族自治州,水打田,凤凰县,955.6,18.6,91,39.0938432852773,19.489968114858023
P1421,2025-06-03 00:00:00,27.9817,109.3531,650.8,湘西土家族苗族自治州,麻冲,凤凰县,933.3,17.2,96,37.91476536250551,18.825866977259334
P1422,2025-06-03 00:00:00,28.1561,109.7278,172.8,湘西土家族苗族自治州,大兴,吉首市,987.5,19.6,100,49.148153474729504,22.796459735098047
P1423,2025-06-03 00:00:00,28.3494,109.7561,174.4,湘西土家族苗族自治州,峒河,吉首市,986.9,20.0,93,47.57107025601578,21.73360824767992
P1424,2025-06-03 00:00:00,28.3158,109.8158,272.3,湘西土家族苗族自治州,深坳,吉首市,975.9,18.8,100,40.40019662527213,21.687315608864814
P1425,2025-06-03 00:00:00,28.3147,109.6806,262.5,湘西土家族苗族自治州,曙光,吉首市,977.0,19.4,100,49.13360856466014,22.514606669494402
P1438,2025-06-03 00:00:00,28.2097,109.6703,261.4,湘西土家族苗族自治州,高新区,吉首市,976.1,22.6,97,48.89534231871355,26.589499378370252
P1439,2025-06-03 00:00:00,28.2308,109.5711,667.8,湘西土家族苗族自治州,十八湾,吉首市,931.8,18.9,87,35.2608567754177,18.98628415860313
P1440,2025-06-03 00:00:00,28.2758,109.8289,166.4,湘西土家族苗族自治州,司马,吉首市,986.8,19.8,97,53.879197264411715,22.38896283430057
P1441,2025-06-03 00:00:00,28.3139,109.7672,227,湘西土家族苗族自治州,望江坳,吉首市,980.2,19.6,96,45.35829255306099,21.884601345694126
P1442,2025-06-03 00:00:00,28.1961,109.8253,365.1,湘西土家族苗族自治州,楠木,吉首市,965.4,18.3,100,37.05316148212244,21.018420099150696
P1443,2025-06-03 00:00:00,28.3708,109.8458,446.9,湘西土家族苗族自治州,檀木,吉首市,955.3,18.3,100,43.15386378634569,21.018420099150696
P1444,2025-06-03 00:00:00,28.3614,109.6964,195.1,湘西土家族苗族自治州,龙舞,吉首市,983.6,19.6,96,49.19056370291955,21.884601345694126
P1446,2025-06-03 00:00:00,28.8114,109.7364,295.3,湘西土家族苗族自治州,柏杨,永顺县,977.0,19.4,98,38.00870611749727,22.064314536104515
P1450,2025-06-03 00:00:00,29.1842,109.8922,440,湘西土家族苗族自治州,廻龙,永顺县,956.7,18.6,97,40.113922440606274,20.775020957595913
P1451,2025-06-03 00:00:00,28.9425,110.0286,559.4,湘西土家族苗族自治州,铜瓦,永顺县,943.7,18.1,98,43.37228637898548,20.340858959162233
P1452,2025-06-03 00:00:00,29.3308,109.8131,454.2,湘西土家族苗族自治州,西库,永顺县,955.6,18.9,95,42.94897684323499,20.732149368589624
P1461,2025-06-03 00:00:00,28.7444,109.8122,359.8,湘西土家族苗族自治州,坐苦坝,古丈县,965.2,18.7,99,50.0649710235409,21.33654024364826
P1462,2025-06-03 00:00:00,28.5697,109.8733,687.3,湘西土家族苗族自治州,翁草,古丈县,929.4,17.6,100,36.634386053639524,20.11242790597456
P1463,2025-06-03 00:00:00,28.0042,109.8947,202.1,湘西土家族苗族自治州,晒洲田,泸溪县,983.9,18.7,100,46.67807271855249,21.55206085216996
P1472,2025-06-03 00:00:00,27.9958,109.8042,279.5,湘西土家族苗族自治州,踏虎,泸溪县,975.9,18.8,96,43.70743870495594,20.81982298451022
P1473,2025-06-03 00:00:00,28.1917,110.1078,325.8,湘西土家族苗族自治州,顺江田,泸溪县,970.0,18.9,98,46.2689494272478,21.386848822334564
P1479,2025-06-03 00:00:00,28.5933,109.8417,636.5,湘西土家族苗族自治州,排茹,古丈县,934.4,17.3,100,43.49171613962773,19.734771277294826
P1480,2025-06-03 00:00:00,29.1408,110.0103,392.3,湘西土家族苗族自治州,车坪,永顺县,961.9,18.7,82,43.35144840657502,17.672689898779364
P1484,2025-06-03 00:00:00,29.4811,109.4144,510,湘西土家族苗族自治州,华塘,龙山县,949.3,19.1,98,46.91661212605711,21.655611155482855
P1485,2025-06-03 00:00:00,28.9583,109.3989,254.1,湘西土家族苗族自治州,贾市,龙山县,977.9,20.2,82,41.76269375667841,19.401763766957988
P1486,2025-06-03 00:00:00,29.33,109.9081,442.7,湘西土家族苗族自治州,团结,永顺县,955.0,18.1,99,35.22761265813107,20.548418744459806
P1487,2025-06-03 00:00:00,29.2878,109.8228,539.5,湘西土家族苗族自治州,农林,永顺县,945.2,17.9,99,42.15351130992663,20.291455588193955
P1488,2025-06-03 00:00:00,28.9267,110.2083,345.3,湘西土家族苗族自治州,官坝,永顺县,969.2,19.4,93,44.281502405232985,20.938584202629794
P1489,2025-06-03 00:00:00,28.8511,110.3261,326.9,湘西土家族苗族自治州,楠木,永顺县,971.0,19.0,96,41.025772796869724,21.081660373452745
P1490,2025-06-03 00:00:00,29.2603,109.73,392.5,湘西土家族苗族自治州,新场,永顺县,961.5,18.6,98,39.709085870319434,20.98919643138556
P1501,2025-06-03 00:00:00,29.5308,110.0994,318.6,张家界市,凉水口,桑植县,973.2,20.4,100,52.58107440984402,23.955083096084916
P1503,2025-06-03 00:00:00,29.5092,110.2944,334.5,张家界市,芙蓉桥,桑植县,970.9,20.1,93,40.28001315062291,21.868655933687275
P1504,2025-06-03 00:00:00,29.7025,110.5811,1067.1,张家界市,人潮溪镇白石,桑植县,892.1,16.0,100,34.99977593523227,18.16930843102324
P1505,2025-06-03 00:00:00,29.67,109.8344,1053,张家界市,八大公山,桑植县,893.5,15.4,87,33.22171630773516,15.211419759162947
P1506,2025-06-03 00:00:00,29.6097,110.4733,538.8,张家界市,官地坪,桑植县,945.5,19.1,100,41.20251032887115,22.097562403553933
P1508,2025-06-03 00:00:00,29.4389,110.2358,290.4,张家界市,瑞塔铺,桑植县,975.8,19.9,100,45.70270284958912,23.225046174156986
P1509,2025-06-03 00:00:00,29.4633,110.4847,376,张家界市,走马坪,桑植县,964.5,19.6,93,41.05330070104934,21.200707553641184
P1510,2025-06-03 00:00:00,29.6764,110.1533,394,张家界市,龙潭坪,桑植县,961.2,20.0,100,58.54312159512586,23.36947123406443
P1511,2025-06-03 00:00:00,29.6558,110.0108,503.9,张家界市,桑植坪,桑植县,952.3,19.0,100,40.44541361668202,21.960062889013276
P1512,2025-06-03 00:00:00,29.7036,109.9156,438.1,张家界市,五道水,桑植县,962.8,19.5,98,41.05463836063178,22.202045502693807
P1513,2025-06-03 00:00:00,29.3911,110.0075,489.3,张家界市,廖家村,桑植县,954.6,18.4,100,40.17409568187901,21.150730445492975
P1514,2025-06-03 00:00:00,29.4925,109.9892,307.4,张家界市,陈家河,桑植县,971.5,20.2,100,55.188950334811544,23.660687520680476
P1515,2025-06-03 00:00:00,29.5467,109.8644,377.4,张家界市,河口,桑植县,966.1,19.9,97,50.37801616930087,22.528294788932275
P1516,2025-06-03 00:00:00,29.4869,110.1578,458.6,张家界市,洪家关,桑植县,957.1,19.1,100,41.20251032887115,22.097562403553933
P1517,2025-06-03 00:00:00,29.4761,110.2389,298,张家界市,刘家坪,桑植县,975.3,16.7,99,27.189252726401477,18.808126460872106
P1518,2025-06-03 00:00:00,29.6175,110.6047,271,张家界市,人潮溪,桑植县,980.7,20.8,94,50.96868975357356,23.08031840486413
P1521,2025-06-03 00:00:00,29.3569,110.0775,311.6,张家界市,利福塔,桑植县,973.7,19.8,100,49.8542845346482,23.081404983815023
P1522,2025-06-03 00:00:00,29.5875,110.0053,564.7,张家界市,沙塔坪,桑植县,944.7,19.0,100,40.44541361668202,21.960062889013276
P1523,2025-06-03 00:00:00,29.5469,110.3881,455,张家界市,马合口,桑植县,958.1,19.8,93,40.43494077908447,21.46570663494797
P1524,2025-06-03 00:00:00,29.4897,110.3567,490.6,张家界市,麦地坪,桑植县,953.7,19.5,100,41.23719215828394,22.655148472136535
P1526,2025-06-03 00:00:00,29.6494,110.0861,485.5,张家界市,苦竹坪,桑植县,954.9,19.6,93,39.8758162796125,21.200707553641184
P1527,2025-06-03 00:00:00,29.4667,109.8192,616.8,张家界市,上河溪,桑植县,941.2,19.1,100,41.20251032887115,22.097562403553933
P1528,2025-06-03 00:00:00,29.4292,110.3028,346.7,张家界市,空壳树,桑植县,969.8,20.1,93,42.15348748070895,21.868655933687275
P1529,2025-06-03 00:00:00,29.6306,110.3592,241.2,张家界市,淋溪河,桑植县,982.0,20.0,100,43.41151635259537,23.36947123406443
P1530,2025-06-03 00:00:00,29.4875,110.5503,375.6,张家界市,竹叶坪,桑植县,968.4,20.4,100,43.656706127826546,23.955083096084916
P1531,2025-06-03 00:00:00,29.6497,109.8639,644.8,张家界市,细砂坪,桑植县,937.0,18.4,99,39.45160489219915,20.939223141038045
P1532,2025-06-03 00:00:00,29.5192,110.1553,475,张家界市,桥自弯,桑植县,955.4,19.4,95,40.75080749397026,21.38887633601968
P1533,2025-06-03 00:00:00,29.3258,109.9839,385.8,张家界市,上洞街,桑植县,965.0,18.6,100,43.73705834765165,21.41754737896486
P1534,2025-06-03 00:00:00,29.77,110.0656,1327,张家界市,天平山,桑植县,866.8,13.8,100,30.750193820685325,15.767721309169742
P1537,2025-06-03 00:00:00,29.3897,110.1606,367.6,张家界市,澧源,桑植县,967.7,19.3,100,44.20120736742372,22.37483075849228
P1538,2025-06-03 00:00:00,29.5481,110.4925,475.3,张家界市,分水岭,桑植县,954.6,20.0,99,48.69279089141791,23.135776521723788
P1540,2025-06-03 00:00:00,29.6375,110.275,795.2,张家界市,天星山林场,桑植县,921.2,18.2,100,38.31316843026446,20.886837264075304
P1542,2025-06-03 00:00:00,29.4267,110.1075,286.6,张家界市,洪家关乡南岔,桑植县,976.3,19.8,100,50.096603252388064,23.081404983815023
P1543,2025-06-03 00:00:00,29.465,109.91,626.7,张家界市,夹石河,桑植县,942.1,19.1,100,41.20251032887115,22.097562403553933
P1544,2025-06-03 00:00:00,29.7122,110.1894,786.9,张家界市,赶坪,桑植县,921.8,18.0,96,41.092417471395336,19.80080687868893
P1545,2025-06-03 00:00:00,29.5228,110.6036,838.8,张家界市,竹叶坪乡鸡公垭,桑植县,917.7,17.4,100,41.247102550734624,19.85995843777483
P1546,2025-06-03 00:00:00,29.7336,109.8025,681,张家界市,五道水镇连家湾,桑植县,933.9,17.1,98,35.71097413949662,19.096746114637156
P1547,2025-06-03 00:00:00,29.7419,110.0153,1127.8,张家界市,四门岩林场,桑植县,886.8,14.8,100,34.34747934007177,16.822288283036794
P1549,2025-06-03 00:00:00,29.5375,109.8092,631.2,张家界市,河口乡塘坊,桑植县,938.9,19.0,94,43.33883079835184,20.64245911567248
P1601,2025-06-03 00:00:00,29.3428,110.5597,450.3,张家界市,武陵源,武陵源区,957.8,19.8,100,39.73794070136984,23.081404983815023
P1602,2025-06-03 00:00:00,29.2456,110.5181,332.9,张家界市,协合,武陵源区,972.1,19.5,100,41.319903811933735,22.655148472136535
P1603,2025-06-03 00:00:00,29.3553,110.5294,375.4,张家界市,军地坪,武陵源区,967.5,20.1,100,43.66193694957288,23.514683799663736
P1604,2025-06-03 00:00:00,29.4078,110.4433,547,张家界市,天子山,武陵源区,948.6,18.5,98,39.834673194673556,20.858096292062303
P1605,2025-06-03 00:00:00,29.3589,110.3836,359.4,张家界市,中湖,武陵源区,963.0,18.8,100,38.850766925538636,21.687315608864814
P1606,2025-06-03 00:00:00,29.3664,110.5828,264.5,张家界市,索溪峪,武陵源区,976.2,19.9,100,44.61115578147426,23.225046174156986
P1607,2025-06-03 00:00:00,29.3031,110.4344,652.9,张家界市,锣鼓塔,武陵源区,935.8,18.1,100,41.45392936788951,20.75597852975738
P1610,2025-06-03 00:00:00,29.3897,110.4583,1087,张家界市,武陵源景区,武陵源区,888.2,18.3,74,28.888357816693542,15.553630873371512
P1702,2025-06-03 00:00:00,29.5033,110.7636,152.1,张家界市,江垭,慈利县,989.3,20.6,100,42.23426263541884,24.252687431462665
P1703,2025-06-03 00:00:00,29.2647,110.725,156.6,张家界市,阳和,慈利县,988.5,20.2,100,52.21419066178561,23.660687520680476
P1708,2025-06-03 00:00:00,29.3925,110.9825,170.4,张家界市,岩泊渡,慈利县,988.5,21.3,88,48.58480900098514,22.281601983716047
P1709,2025-06-03 00:00:00,29.4267,110.6156,352.4,张家界市,三官寺,慈利县,966.4,20.1,93,45.46738203600126,21.868655933687275
P1717,2025-06-03 00:00:00,29.1594,110.8261,840.7,张家界市,洞溪,慈利县,913.2,16.9,96,33.694019427761674,18.471292528143614
P1718,2025-06-03 00:00:00,29.4986,111.3256,102.8,张家界市,广福桥,慈利县,994.5,22.5,100,59.401513487411584,27.2457326543834
P1722,2025-06-03 00:00:00,29.5528,111.0339,179.4,张家界市,东岳观,慈利县,987.2,20.6,93,41.64065747539479,22.554999311260282
P1731,2025-06-03 00:00:00,29.4453,110.9283,589.6,张家界市,高峰,慈利县,942.6,19.2,99,40.63625095415696,22.01345901199243
P1732,2025-06-03 00:00:00,29.175,110.6789,239.8,张家界市,金岩,慈利县,981.4,19.5,100,43.22054615055263,22.655148472136535
P1733,2025-06-03 00:00:00,29.2819,110.9356,595.3,张家界市,赵家垭水库,慈利县,940.4,18.4,100,38.66742662305705,21.150730445492975
P1734,2025-06-03 00:00:00,29.6422,110.9561,395.1,张家界市,国太桥,慈利县,984.7,20.1,94,51.01115782649205,22.103802771683913
P1746,2025-06-03 00:00:00,29.4006,110.6997,614.9,张家界市,大峡谷,慈利县,939.6,19.9,100,41.892759129099574,23.225046174156986
P1801,2025-06-03 00:00:00,29.0119,110.4953,498.1,张家界市,天门山,永定区,950.1,17.9,98,42.46753056393413,20.08649139033341
P1802,2025-06-03 00:00:00,29.2275,110.6203,292,张家界市,合作桥,永定区,976.0,19.4,100,40.13314125101773,22.514606669494402
P1803,2025-06-03 00:00:00,29.0169,110.7228,372.2,张家界市,沅古坪,永定区,966.8,19.0,99,43.296596293181175,21.740462260123145
P1804,2025-06-03 00:00:00,29.2819,110.3253,386.9,张家界市,教字垭,永定区,951.5,18.9,100,39.02394264294807,21.823315124831183
P1805,2025-06-03 00:00:00,29.1869,110.3919,219.4,张家界市,尹家溪,永定区,981.2,19.7,100,41.19207229390804,22.938544040474685
P1806,2025-06-03 00:00:00,29.1486,110.5622,190.4,张家界市,阳湖坪,永定区,987.9,20.0,100,47.02846964870683,23.36947123406443
P1807,2025-06-03 00:00:00,29.165,110.2031,187.1,张家界市,茅岩河,永定区,984.5,20.0,99,49.9924062802139,23.135776521723788
P1808,2025-06-03 00:00:00,29.0464,110.8164,383.1,张家界市,王家坪,永定区,965.3,19.0,100,42.038668930735,21.960062889013276
P1809,2025-06-03 00:00:00,29.1167,110.3794,214,张家界市,枫香岗,永定区,984.5,19.9,100,47.526332284000645,23.225046174156986
P1810,2025-06-03 00:00:00,29.1853,110.1164,336.1,张家界市,罗塔坪,永定区,967.2,18.8,100,36.68770010130862,21.687315608864814
P1811,2025-06-03 00:00:00,29.2661,110.2558,369.4,张家界市,罗水,永定区,967.1,19.2,98,47.1358678123938,21.791100840154122
P1812,2025-06-03 00:00:00,29.0867,110.3375,162,张家界市,后坪,永定区,987.8,20.5,80,44.090912331823375,19.282785854600338
P1813,2025-06-03 00:00:00,29.1603,110.4053,173.8,张家界市,大庸桥,永定区,988.7,20.0,100,46.96514844454495,23.36947123406443
P1814,2025-06-03 00:00:00,29.3397,110.3097,504.2,张家界市,桥头,永定区,950.2,18.5,100,41.13087402375242,21.283771726594185
P1815,2025-06-03 00:00:00,28.9797,110.6728,392,张家界市,和平岗,永定区,972.9,19.0,95,43.3526301944689,20.862059744562615
P1816,2025-06-03 00:00:00,29.0183,110.6217,602.7,张家界市,谢家垭,永定区,938.7,18.6,93,39.90128879884098,19.91831906243732
P1817,2025-06-03 00:00:00,29.1556,110.3086,407.4,张家界市,三家馆,永定区,960.8,20.0,100,42.96568624405799,23.36947123406443
P1818,2025-06-03 00:00:00,28.9306,110.4356,348.6,张家界市,四都坪,永定区,966.6,19.2,100,46.65469047367438,22.235817183830736
P1820,2025-06-03 00:00:00,29.2656,110.15,376.2,张家界市,青安,永定区,963.9,18.8,97,38.97787620452663,21.03669614059887
P1821,2025-06-03 00:00:00,29.0967,110.4478,203.4,张家界市,南庄坪,永定区,985.5,20.1,100,51.361460619733826,23.514683799663736
P1822,2025-06-03 00:00:00,29.1864,110.5069,252.8,张家界市,新桥,永定区,980.0,19.3,100,41.77833252265493,22.37483075849228
P1824,2025-06-03 00:00:00,29.1114,110.5189,253.3,张家界市,西溪坪,永定区,979.9,20.1,100,44.494001148688675,23.514683799663736
P1826,2025-06-03 00:00:00,28.9906,110.8103,220.9,张家界市,马头溪,永定区,984.6,19.2,95,35.68876091219239,21.1240263246392
P1851,2025-06-03 00:00:00,29.3461,110.3644,468,张家界市,小溪峪水库,永定区,957.3,18.4,100,40.17409568187901,21.150730445492975
P1852,2025-06-03 00:00:00,29.0808,110.4783,255,张家界市,官黎坪,永定区,977.5,19.7,100,40.57634005616034,22.938544040474685
P1856,2025-06-03 00:00:00,29.1397,110.4892,186.8,张家界市,崇文,永定区,985.7,20.4,97,54.58034469603226,23.236430603202365
P1857,2025-06-03 00:00:00,29.2292,110.4403,248,张家界市,沙堤,永定区,977.8,19.3,100,44.35180244396033,22.37483075849228
P1858,2025-06-03 00:00:00,28.9697,110.4528,892.5,张家界市,姚家界,永定区,909.5,17.4,100,41.247102550734624,19.85995843777483
P1904,2025-06-03 00:00:00,29.9367,110.7842,285,常德市,壶瓶山,石门县,980.1,19.8,97,42.146895243695496,22.38896283430057
P1909,2025-06-03 00:00:00,29.8836,110.5408,1123,常德市,南北,石门县,886.6,17.5,97,37.25987514265676,19.386267591682785
P1910,2025-06-03 00:00:00,29.9258,110.6756,1469,常德市,东山峰,石门县,848.1,16.3,60,21.193155871308537,11.112318793373863
P1913,2025-06-03 00:00:00,29.7033,112.0272,38,常德市,青龙窖,澧县,1004.1,22.6,95,42.18537064735312,26.0412622777853
P1914,2025-06-03 00:00:00,29.8247,111.5922,99,常德市,金罗,澧县,996.3,22.2,83,46.07395339600186,22.204697129504687
P1920,2025-06-03 00:00:00,29.9772,111.0706,274,常德市,太平,石门县,976.6,19.1,94,43.32377576220593,20.771708659340696
P1931,2025-06-03 00:00:00,29.7106,111.5417,76,常德市,官亭水库,临澧县,999.0,22.4,87,47.204165566585615,23.56002908773214
P1933,2025-06-03 00:00:00,29.6758,111.6553,26.1,常德市,城头山,澧县,1003.1,23.4,82,34.37816390436773,23.593944132529515
P1940,2025-06-03 00:00:00,29.6808,111.1444,717.7,常德市,白云山林场,石门县,928.2,20.2,71,33.06069800038458,16.79908813968314
P1950,2025-06-03 00:00:00,29.5639,111.6178,55,常德市,停弦渡,临澧县,999.6,22.5,98,46.83203372841918,26.700818001295733
P1953,2025-06-03 00:00:00,29.5764,112.105,30,常德市,水管站,安乡县,1004.7,22.0,93,48.86497203945536,24.57830516547447
P1960,2025-06-03 00:00:00,29.5481,111.6556,70,常德市,水阁,临澧县,997.5,21.8,91,55.05590299153017,23.757711842752055
P1968,2025-06-03 00:00:00,29.5453,112.1906,41,常德市,安全,安乡县,1004.4,22.1,84,31.04430013175813,22.335627386307127
P1973,2025-06-03 00:00:00,29.4153,111.3825,100.9,常德市,蒙泉水库,石门县,996.4,22.1,87,44.19541411840369,23.133328364389527
P1979,2025-06-03 00:00:00,29.4189,111.9708,48.8,常德市,毛里湖,津市市,1004.0,22.8,88,48.82836749503765,24.417152825921377
P1981,2025-06-03 00:00:00,29.3769,111.5444,83,常德市,文家店,临澧县,998.4,21.7,87,46.63074708712741,22.574939081834238
P1985,2025-06-03 00:00:00,29.3478,111.7061,89,常德市,四新岗,临澧县,997.8,21.9,93,41.10746435559008,24.428682724243327
P1993,2025-06-03 00:00:00,29.28,112.1528,31,常德市,下渔口,安乡县,1004.6,22.9,100,51.9806527781383,27.915559792981977
P1999,2025-06-03 00:00:00,29.2581,111.5381,83.6,常德市,王家垱水库,桃源县,996.6,20.9,95,52.28189693348753,23.469916600787812
P2002,2025-06-03 00:00:00,29.1975,111.1814,98.5,常德市,黄石水库,桃源县,995.0,21.5,90,49.9635547953684,23.069174976314535
P2005,2025-06-03 00:00:00,29.1881,111.6328,20.4,常德市,蔡家岗,鼎城区,1003.7,21.4,94,39.696006873358755,23.947242148059395
P2025,2025-06-03 00:00:00,29.0611,110.9786,173.8,常德市,牛车河,桃源县,984.8,19.4,98,49.91002853271716,22.064314536104515
P2027,2025-06-03 00:00:00,29.0508,111.9961,27,常德市,罐头嘴,汉寿县,1004.6,21.3,91,51.571578458433784,23.041202051342733
P2028,2025-06-03 00:00:00,29.0361,111.6239,36,常德市,农科院,武陵区,1004.0,21.5,86,36.08831017678557,22.043878310700553
P2029,2025-06-03 00:00:00,29.0325,111.7306,29,常德市,东江,武陵区,1004.5,22.6,80,44.16243749502181,21.92948402339815
P2030,2025-06-03 00:00:00,29.0528,111.6778,51,常德市,文理学院,武陵区,1004.3,22.3,80,39.13896520656233,21.532906153388183
P2042,2025-06-03 00:00:00,28.9864,111.7983,28,常德市,观音寺电排,武陵区,1004.4,22.1,82,43.94601146458474,21.803826734252194
P2043,2025-06-03 00:00:00,28.8669,111.475,48.7,常德市,新桥电排,桃源县,1003.2,20.9,86,41.01155542205922,21.24645081755528
P2044,2025-06-03 00:00:00,28.9611,111.7544,50,常德市,伍家嘴,武陵区,1003.9,21.8,87,41.63182781353752,22.71341681669702
P2047,2025-06-03 00:00:00,28.945,110.9653,371.5,常德市,观音寺,桃源县,964.7,19.0,92,41.291309430453026,20.20325785789222
P2049,2025-06-03 00:00:00,28.91,111.7369,40,常德市,市二中,武陵区,1001.7,21.6,84,39.92504116613636,21.663505467766047
P2054,2025-06-03 00:00:00,28.8933,111.8183,55,常德市,聂家桥,汉寿县,1004.4,21.5,84,45.35619261268891,21.531229977893567
P2074,2025-06-03 00:00:00,28.7228,111.7731,86,常德市,江东市水库,汉寿县,998.0,21.5,88,43.95847412407889,22.556526643507546
P2075,2025-06-03 00:00:00,28.6942,112.1417,95,常德市,军山铺,汉寿县,997.4,22.5,76,39.48969210414915,20.706756817331385
P2076,2025-06-03 00:00:00,28.7069,111.5464,120,常德市,花岩溪,鼎城区,993.7,20.9,82,44.72689919671564,20.25824380278527
P2083,2025-06-03 00:00:00,28.6486,111.3175,56.6,常德市,沙坪,桃源县,1000.2,20.6,81,50.24473782098129,19.64467681948476
P2089,2025-06-03 00:00:00,29.8928,111.0164,418,常德市,里山河水库,石门县,959.1,19.1,99,51.42043329510364,21.876586779518394
P2090,2025-06-03 00:00:00,29.8706,111.8003,100,常德市,盐井,澧县,996.9,21.7,99,53.199637640213666,25.68872378277689
P2091,2025-06-03 00:00:00,29.2086,111.9756,30,常德市,南湖,武陵区,1004.4,22.5,86,43.204223969218816,23.431330082769723
P2092,2025-06-03 00:00:00,29.0175,112.0069,38,常德市,洲口,汉寿县,1004.3,22.5,84,49.066725872328796,22.886415429682053
P2093,2025-06-03 00:00:00,28.7522,111.33,58,常德市,剪市,桃源县,1002.3,20.7,88,37.18758615338289,21.474377895515506
P2106,2025-06-03 00:00:00,29.1533,112.1192,31,常德市,十美堂,鼎城区,1004.7,22.6,83,43.63063972185046,22.75183967427558
P2107,2025-06-03 00:00:00,29.7494,110.8531,213.4,常德市,南岳寺,石门县,984.6,19.8,96,47.3295817841141,22.15814878446242
P2122,2025-06-03 00:00:00,29.8147,111.1167,583,常德市,大同山林场,石门县,940.6,20.7,86,45.60308507797774,20.986323852435607
P2127,2025-06-03 00:00:00,29.8519,111.3928,228,常德市,芦茅,澧县,982.1,21.9,91,45.06745087272695,23.903334708668204
P2128,2025-06-03 00:00:00,29.7669,111.5272,83,常德市,王家厂水库,澧县,998.3,22.0,94,44.42532396632435,24.84258801671613
P2130,2025-06-03 00:00:00,29.3072,111.765,56,常德市,鳌山小学,临澧县,1000.1,22.3,83,41.0158445670992,22.34039013414024
P2135,2025-06-03 00:00:00,29.0197,111.5692,36,常德市,木塘垸,桃源县,1004.0,21.8,100,45.08822251929268,26.107375651375882
P2137,2025-06-03 00:00:00,28.7575,111.2289,73.4,常德市,凌津滩,桃源县,1000.1,20.3,100,42.95755849593348,23.807486060476144
P2139,2025-06-03 00:00:00,28.7408,112.1842,73,常德市,赤港湾水库,汉寿县,999.6,21.3,82,36.70767517141035,20.762401848462677
P2140,2025-06-03 00:00:00,28.6681,111.9919,60,常德市,斋家冲水库,汉寿县,1000.8,21.9,83,37.50882536943247,21.8019426463677
P2147,2025-06-03 00:00:00,28.85,111.65,56.3,常德市,草坪,鼎城区,1003.3,21.1,88,53.19418384981222,22.009620148800526
P2198,2025-06-03 00:00:00,28.6514,111.2442,114.3,常德市,杨溪桥,桃源县,996.1,20.7,94,51.104613611840186,22.938540024755202
P2203,2025-06-03 00:00:00,29.5131,111.7992,50,常德市,庹家峪水库,津市市,998.5,22.3,99,48.308369092224176,26.646971364817876
P2600,2025-06-03 00:00:00,29.4164,112.3169,34,益阳市,红堰湖,南县,1004.7,23.0,100,54.02546089847365,28.085254030445235
P2604,2025-06-03 00:00:00,29.2914,112.2467,35.5,益阳市,同跃,南县,1004.7,22.7,100,46.101786842941245,27.578864330645896
P2607,2025-06-03 00:00:00,29.2764,112.3436,32,益阳市,同湖,南县,1004.8,22.8,86,43.84683965549822,23.862217534423163
P2608,2025-06-03 00:00:00,29.1864,112.3614,34,益阳市,咸嘉垸,南县,1004.3,22.2,84,29.99363882110552,22.472223600944503
P2609,2025-06-03 00:00:00,29.1058,112.3444,26.8,益阳市,同春,南县,1004.9,21.7,89,38.408866510015784,23.093903198658012
P2614,2025-06-03 00:00:00,29.2403,112.4053,30,益阳市,青树嘴,南县,1004.8,22.6,86,45.84205846303267,23.574195325153006
P2615,2025-06-03 00:00:00,29.3075,112.2731,31,益阳市,六百弓,南县,1004.9,22.7,96,56.3468475546569,26.47570975742006
P2617,2025-06-03 00:00:00,29.295,112.5342,35,益阳市,大木桥,南县,1004.7,22.8,90,46.79895718650405,24.97208811741959
P2619,2025-06-03 00:00:00,29.2919,112.6567,31,益阳市,华东,南县,1005.2,22.7,93,46.60739536949197,25.648343827500685
P2631,2025-06-03 00:00:00,29.3522,112.4061,32.5,益阳市,一中,南县,1004.8,23.0,59,35.475000871046134,16.57029987796269
P2650,2025-06-03 00:00:00,29.1853,112.6258,33.9,益阳市,河坝,大通湖区,1005.1,21.7,90,36.04269269879869,23.3533852570699
P2652,2025-06-03 00:00:00,29.2256,112.5492,36,益阳市,沙堡州,大通湖区,1005.0,22.1,88,38.63378670182592,23.39922869041699
P2653,2025-06-03 00:00:00,29.1128,112.6697,33,益阳市,金盆,大通湖区,1005.2,21.9,85,35.92647787044489,22.327290661942826
P2654,2025-06-03 00:00:00,29.1294,112.4258,31,益阳市,千山红,大通湖区,1005.1,22.0,100,44.350637101542304,26.4282851241661
P2660,2025-06-03 00:00:00,29.0058,112.4864,34,益阳市,新村,沅江市,1005.2,21.9,92,50.32109474396784,24.166008716455764
P2667,2025-06-03 00:00:00,28.8325,112.3867,32,益阳市,城区水管站,沅江市,1005.0,22.8,74,29.11360016299288,20.532605785433883
P2673,2025-06-03 00:00:00,29.0719,112.4425,31,益阳市,乐安,沅江市,1005.2,22.2,100,41.61745110717663,26.75264714398155
P2674,2025-06-03 00:00:00,29.0364,112.2967,35,益阳市,南嘴,沅江市,1001.2,21.7,90,45.127280960344294,23.3533852570699
P2677,2025-06-03 00:00:00,29.0789,112.6986,42.9,益阳市,石东港,沅江市,1004.8,22.0,98,46.88744643976849,25.89971942168278
P2680,2025-06-03 00:00:00,28.9883,112.8406,30,益阳市,漉湖芦苇场,沅江市,1005.1,22.1,95,47.595106591265655,25.26053097260925
P2682,2025-06-03 00:00:00,28.9406,112.5828,32,益阳市,双洲,沅江市,1005.2,21.9,72,29.494105112644842,18.912528560704512
P2684,2025-06-03 00:00:00,29.1172,112.5633,41,益阳市,四季红,沅江市,1005.1,22.3,87,44.964772109203686,23.41703544180965
P2686,2025-06-03 00:00:00,28.7569,112.3478,46,益阳市,三眼塘,沅江市,1004.4,21.5,93,40.240557698827686,23.83814747552502
P2687,2025-06-03 00:00:00,28.9481,112.3022,62,益阳市,新湾,沅江市,998.8,21.1,92,42.78087237520332,23.01005742829146
P2720,2025-06-03 00:00:00,28.6861,112.2436,45,益阳市,新塘,资阳区,1000.5,21.9,72,26.934266086136514,18.912528560704512
P2721,2025-06-03 00:00:00,28.6033,112.2003,64.7,益阳市,新桥河,资阳区,1002.7,21.8,88,32.70204031039465,22.974490573210776
P2725,2025-06-03 00:00:00,28.6278,112.3161,49.2,益阳市,长春,资阳区,1003.5,21.9,81,40.86387653245734,21.276594630792577
P2726,2025-06-03 00:00:00,28.7667,112.4547,55,益阳市,张家塞,资阳区,1004.4,21.5,92,44.44878578602652,23.581823309121525
P2729,2025-06-03 00:00:00,28.8019,112.5844,38.9,益阳市,茈湖口,资阳区,1004.5,21.8,53,21.29449068292172,13.836909095229217
P2730,2025-06-03 00:00:00,28.6058,112.3467,31.5,益阳市,体育公园,资阳区,1004.8,22.3,77,23.58647277689889,20.725422172636126
P2731,2025-06-03 00:00:00,28.6103,112.1164,70,益阳市,蓼园,资阳区,1000.3,22.1,83,42.49781147473891,22.06972706027966
P2760,2025-06-03 00:00:00,28.5892,112.2936,36,益阳市,会龙山,赫山区,1003.8,20.9,90,45.909166817213524,22.234657832325297
P2761,2025-06-03 00:00:00,28.4789,112.2547,73,益阳市,自搭桥,赫山区,999.7,20.1,100,52.977645738236326,23.514683799663736
P2764,2025-06-03 00:00:00,28.4839,112.5231,58,益阳市,新安山,赫山区,1004.8,21.6,99,55.83106893073676,25.531988587009987
P2768,2025-06-03 00:00:00,28.5881,112.4486,36,益阳市,兰溪,赫山区,1004.8,21.9,37,16.94362450832421,9.718938288139817
P2769,2025-06-03 00:00:00,28.5042,112.395,46,益阳市,龙岭工业园,赫山区,1003.4,21.7,80,39.81719547089031,20.758564672951024
P2771,2025-06-03 00:00:00,28.3992,112.2811,53.1,益阳市,泥江口,赫山区,1000.1,20.3,85,33.98308959669134,20.23636315140472
P2773,2025-06-03 00:00:00,28.4111,112.4353,55.7,益阳市,鱼形山水库,赫山区,1001.5,21.1,91,54.47452891493423,22.759948108418726
P2774,2025-06-03 00:00:00,28.3506,112.4547,58,益阳市,朱公塘水库,赫山区,999.2,20.9,96,50.304351795666534,23.716968354480315
P2775,2025-06-03 00:00:00,28.6003,112.3694,46,益阳市,团洲,赫山区,1004.7,22.6,82,36.73432889032917,22.4777211239831
P2776,2025-06-03 00:00:00,28.4928,112.4283,44,益阳市,金山,赫山区,1002.3,21.1,88,42.54907193837521,22.009620148800526
P2777,2025-06-03 00:00:00,28.5083,112.4903,43,益阳市,笔架山,赫山区,1004.9,21.6,87,46.44222632388022,22.437202091614836
P2778,2025-06-03 00:00:00,28.3297,112.4097,80,益阳市,岳家桥,赫山区,999.0,20.9,78,32.73722202453787,19.270036788015258
P2780,2025-06-03 00:00:00,28.6306,112.5744,42,益阳市,八字哨,赫山区,1004.1,21.9,87,52.37629076765321,22.85263867751795
P2781,2025-06-03 00:00:00,28.4825,112.5644,39.7,益阳市,新和电排,赫山区,1004.9,21.3,86,42.75094957854471,21.77520193863159
P2782,2025-06-03 00:00:00,28.4753,112.5931,30,益阳市,红洲垸电排,赫山区,1004.4,21.3,100,56.680360289512684,25.320002254222782
P2784,2025-06-03 00:00:00,28.5456,112.6806,40,益阳市,流水口,赫山区,1004.5,21.8,100,50.43949956467547,26.107375651375882
P2789,2025-06-03 00:00:00,28.5414,112.4306,31,益阳市,大丰电排,赫山区,1004.4,21.5,93,53.4821145421349,23.83814747552502
P2820,2025-06-03 00:00:00,28.5617,112.3283,114.6,益阳市,市政府,赫山区,997.5,21.7,83,48.30166079263494,21.537010848186686
P2821,2025-06-03 00:00:00,28.5269,112.2589,56,益阳市,谢林港,赫山区,1003.1,20.9,99,30.846195834414992,24.458123615557827
P2823,2025-06-03 00:00:00,28.4403,112.4719,49,益阳市,管委会,赫山区,999.9,21.3,83,36.24156511060444,21.015601871004908
P2840,2025-06-03 00:00:00,28.6144,111.7447,112,益阳市,碧螺水库,桃江县,995.2,20.2,90,41.876777940817064,21.29461876861243
P2841,2025-06-03 00:00:00,28.5358,111.72,90.4,益阳市,武潭,桃江县,998.5,20.2,97,47.20679433471068,22.950866895060063
P2842,2025-06-03 00:00:00,28.4442,111.6533,55,益阳市,百乐,桃江县,1000.2,20.4,100,48.377037749156536,23.955083096084916
P2843,2025-06-03 00:00:00,28.5608,111.8267,80.2,益阳市,鲊埠,桃江县,999.9,20.8,91,42.08815973054871,22.343712498325914
P2845,2025-06-03 00:00:00,28.435,111.7794,80.1,益阳市,沂溪河电站,桃江县,999.6,20.0,88,44.460169186243284,20.5651346859767
P2847,2025-06-03 00:00:00,28.4878,111.8461,68,益阳市,大栗港,桃江县,997.1,20.5,90,41.133682091589854,21.693134086425374
P2848,2025-06-03 00:00:00,28.4094,111.8381,92,益阳市,泗里河,桃江县,996.2,20.3,99,47.70039804455765,23.569411199871382
P2849,2025-06-03 00:00:00,28.5997,111.9967,82.7,益阳市,修山,桃江县,999.1,21.2,98,46.69365564126488,24.661749995197535
P2850,2025-06-03 00:00:00,28.5514,111.9658,33,益阳市,沾溪,桃江县,1002.4,21.1,88,27.099787170339162,22.009620148800526
P2851,2025-06-03 00:00:00,28.4717,111.9447,52.4,益阳市,鸬鹚渡,桃江县,1000.5,19.6,92,44.031471098844996,20.972742956290205
P2852,2025-06-03 00:00:00,28.455,111.9333,124,益阳市,何家村,桃江县,997.1,19.3,100,49.498905874238055,22.37483075849228
P2853,2025-06-03 00:00:00,28.5383,112.0503,44,益阳市,水口山,桃江县,1001.5,20.9,93,40.58714385856463,22.97581309340281
P2854,2025-06-03 00:00:00,28.3933,112.04,175,益阳市,罗溪,桃江县,986.1,19.5,58,16.70105725637826,13.13998611383919
P2855,2025-06-03 00:00:00,28.3203,112.0681,146,益阳市,松木塘,桃江县,992.1,19.6,89,45.726960301503844,20.288849164237263
P2857,2025-06-03 00:00:00,28.5158,112.1367,51.5,益阳市,曹家仑,桃江县,1003.1,21.9,92,33.78320370557794,24.166008716455764
P2858,2025-06-03 00:00:00,28.4433,111.9942,76,益阳市,高桥,桃江县,997.6,19.7,97,49.65782644686297,22.25038771926044
P2859,2025-06-03 00:00:00,28.3208,112.0717,105,益阳市,桃花江水库,桃江县,996.0,20.3,81,34.207502684483366,19.284063708985677
P2860,2025-06-03 00:00:00,28.5742,112.2017,64,益阳市,花果山,桃江县,1003.8,21.7,83,31.22234873684693,21.537010848186686
P2861,2025-06-03 00:00:00,28.4258,112.1567,71,益阳市,石牛江,桃江县,1001.9,21.0,83,36.511653445386656,20.631842335248397
P2862,2025-06-03 00:00:00,28.4056,112.1633,41,益阳市,牛田,桃江县,1001.1,21.1,95,42.11289274227163,23.760385387909658
P2863,2025-06-03 00:00:00,28.2972,112.1433,176,益阳市,李家湾,桃江县,988.6,20.4,86,37.09064765819821,20.601371462633026
P2864,2025-06-03 00:00:00,28.2928,112.2267,114,益阳市,灰山港,桃江县,993.6,20.4,97,46.055054633818735,23.236430603202365
P2901,2025-06-03 00:00:00,28.2914,111.2853,271.2,益阳市,文溪,安化县,975.5,18.5,94,45.719775019883265,20.006745422998534
P2903,2025-06-03 00:00:00,28.4906,111.4861,143.3,益阳市,冷市,安化县,991.7,19.1,100,45.81405265576314,22.097562403553933
P2904,2025-06-03 00:00:00,28.3453,111.1011,195.9,益阳市,柘溪,安化县,985.9,19.0,100,44.998043503621744,21.960062889013276
P2905,2025-06-03 00:00:00,28.0603,111.7581,362,益阳市,清塘铺,安化县,968.0,17.8,100,35.15389578405962,20.367713020241688
P2907,2025-06-03 00:00:00,28.3919,111.4953,75.7,益阳市,小淹,安化县,999.0,19.4,100,45.42065720407969,22.514606669494402
P2908,2025-06-03 00:00:00,28.4631,111.3892,108.5,益阳市,龙塘,安化县,993.5,19.3,100,56.83730122777636,22.37483075849228
P2909,2025-06-03 00:00:00,28.2458,111.7108,158.9,益阳市,仙溪,安化县,992.3,19.4,100,51.65204205430339,22.514606669494402
P2910,2025-06-03 00:00:00,28.0986,111.5753,198.8,益阳市,乐安,安化县,984.4,19.1,100,56.119530037885696,22.097562403553933
P2911,2025-06-03 00:00:00,28.2603,111.7928,220.5,益阳市,九渡水,安化县,982.4,18.7,100,50.61066039941957,21.55206085216996
P2915,2025-06-03 00:00:00,28.0372,111.0864,221.9,益阳市,平口水厂,安化县,985.3,19.6,98,51.0517382450776,22.340530540396088
P2919,2025-06-03 00:00:00,28.3197,111.2906,148,益阳市,田庄,安化县,989.2,19.5,99,39.967794861570304,22.42859698741517
P2921,2025-06-03 00:00:00,28.2475,110.8294,272.4,益阳市,奎溪,安化县,977.7,19.0,99,41.54645031655945,21.740462260123145
P2925,2025-06-03 00:00:00,28.4467,111.2144,129.6,益阳市,红岩水库,安化县,991.7,20.0,98,51.9171844952672,22.902081809383144
P2926,2025-06-03 00:00:00,28.3411,111.6094,113.7,益阳市,滔溪,安化县,994.0,19.0,99,51.84049213630293,21.740462260123145
P2927,2025-06-03 00:00:00,28.1361,111.6633,188.7,益阳市,梅城,安化县,987.1,18.8,99,46.182806377091936,21.47044245277617
P2930,2025-06-03 00:00:00,28.0419,111.8275,307.3,益阳市,高明,安化县,973.6,18.4,100,47.39992054210123,21.150730445492975
P2931,2025-06-03 00:00:00,28.5319,111.6106,101.9,益阳市,羊角塘,安化县,997.1,19.7,100,44.61984680059693,22.938544040474685
P2936,2025-06-03 00:00:00,28.3739,111.4203,66.2,益阳市,红泥,安化县,999.3,19.3,91,47.03221622607744,20.361095990227977
P2954,2025-06-03 00:00:00,28.4353,111.2819,138,益阳市,马渡,安化县,991.4,19.5,100,49.77175795233275,22.655148472136535
P2956,2025-06-03 00:00:00,28.3475,111.4978,119.6,益阳市,大双,安化县,993.7,19.0,99,49.7266354536854,21.740462260123145
P3101,2025-06-03 00:00:00,28.4764,113.7175,320,岳阳市,白水水库,平江县,973.2,19.7,93,46.14394525654265,21.332845957641457
P3102,2025-06-03 00:00:00,28.7497,113.7131,142.9,岳阳市,童市,平江县,992.2,21.3,86,48.324793853139134,21.77520193863159
P3104,2025-06-03 00:00:00,28.6447,113.2828,77.1,岳阳市,向家,平江县,999.6,21.7,86,41.77262326272175,22.315457023422347
P3105,2025-06-03 00:00:00,28.9081,113.5981,148,岳阳市,大洲,平江县,991.4,21.0,96,37.92225827877338,23.863335713058383
P3106,2025-06-03 00:00:00,28.8419,113.6083,106.8,岳阳市,梅仙,平江县,995.8,20.9,85,37.672723999694185,20.99939906386278
P3109,2025-06-03 00:00:00,28.8483,113.9397,160,岳阳市,云洞水库,平江县,988.3,20.0,91,46.24553666582378,21.266218822998635
P3111,2025-06-03 00:00:00,28.7019,113.9439,130,岳阳市,长寿,平江县,993.7,20.4,100,47.70096806993092,23.955083096084916
P3112,2025-06-03 00:00:00,28.8733,113.5142,110,岳阳市,余坪,平江县,994.4,20.2,90,40.90411355456622,21.29461876861243
P3113,2025-06-03 00:00:00,29.0058,113.6906,183.8,岳阳市,板江,平江县,987.7,19.4,100,48.20342265388766,22.514606669494402
P3114,2025-06-03 00:00:00,29.0697,113.7783,177.6,岳阳市,上塔市,平江县,988.1,19.7,100,53.844637960752344,22.938544040474685
P3117,2025-06-03 00:00:00,28.9219,113.7825,384.5,岳阳市,大江洞水库,平江县,964.4,19.3,83,33.660105178883406,18.571109529548593
P3118,2025-06-03 00:00:00,28.9008,113.8356,274.8,岳阳市,虹桥正东,平江县,975.3,20.0,69,21.990311275126427,16.124935151504456
P3119,2025-06-03 00:00:00,28.9722,113.9222,360.2,岳阳市,石牛寨姜源,平江县,964.8,19.4,70,23.940652241726628,15.760224668646078
P3120,2025-06-03 00:00:00,28.5925,113.7253,100.8,岳阳市,三市,平江县,997.0,20.8,100,40.47778097583592,24.553530217940562
P3124,2025-06-03 00:00:00,28.5569,113.5975,130,岳阳市,秋湖水库,平江县,993.2,20.6,91,42.4417038532355,22.069945562631027
P3125,2025-06-03 00:00:00,28.6319,113.565,173.4,岳阳市,三阳,平江县,988.8,20.9,93,49.558313130629195,22.97581309340281
P3200,2025-06-03 00:00:00,28.8292,113.1581,32.8,岳阳市,罗江,汨罗市,1003.5,22.2,85,52.965882684601205,22.739750072384318
P3201,2025-06-03 00:00:00,28.5517,113.0753,638.8,岳阳市,玉池,汨罗市,934.9,18.5,86,35.018486211409616,18.304043684870997
P3204,2025-06-03 00:00:00,28.6881,113.1281,400,岳阳市,神鼎山,汨罗市,966.5,20.9,85,46.54038953501699,20.99939906386278
P3350,2025-06-03 00:00:00,29.3639,113.5269,71.1,岳阳市,忠防水库,临湘市,1000.1,22.1,88,49.317211894883556,23.39922869041699
P3354,2025-06-03 00:00:00,29.5292,113.4131,286.7,岳阳市,荆竹山,临湘市,975.2,21.8,73,26.67799359711208,19.058384225504394
P3411,2025-06-03 00:00:00,29.4556,112.6736,24.7,岳阳市,钱粮湖,君山区,1004.0,23.2,78,42.985321237834135,22.1733375390886
P3413,2025-06-03 00:00:00,29.4875,112.7797,16.8,岳阳市,采桑湖,君山区,1005.2,22.5,82,49.439711216670624,22.341500776594383
P3510,2025-06-03 00:00:00,28.6403,113.8283,110,岳阳市,老丁源水库,平江县,995.2,21.0,88,44.66482218740801,21.874724403636854
P3511,2025-06-03 00:00:00,28.7119,113.4317,75.6,岳阳市,瓮江,平江县,999.8,20.7,100,46.40908607643771,24.402702153994895
P3512,2025-06-03 00:00:00,28.7497,113.2425,32,岳阳市,伍市,平江县,1002.4,21.7,94,41.981736564953806,24.39131349071745
P3513,2025-06-03 00:00:00,28.8106,114.0467,132.1,岳阳市,龙门,平江县,992.5,20.4,88,41.00411376793091,21.080473124554725
P3518,2025-06-03 00:00:00,28.7714,113.0139,43.1,岳阳市,汨罗镇,汨罗市,1002.2,21.6,100,57.068513187641166,25.789887461626247
P3520,2025-06-03 00:00:00,28.9992,112.9692,32.8,岳阳市,磊石山,汨罗市,1004.1,22.6,100,50.96737709717432,27.411855029247686
P3521,2025-06-03 00:00:00,29.7411,113.4411,53,岳阳市,谷花,临湘市,1004.1,21.4,91,44.641450740522096,23.182968462483036
P3523,2025-06-03 00:00:00,29.2331,113.3939,96.7,岳阳市,白羊田,临湘市,996.8,21.0,91,50.778209543249574,22.62045364466993
P3525,2025-06-03 00:00:00,29.3758,112.7408,38.6,岳阳市,良心堡,君山区,1004.9,22.4,82,54.54981227858682,22.206004427517644
P3526,2025-06-03 00:00:00,28.9444,113.7353,183.1,岳阳市,南江,平江县,987.7,20.2,90,45.86873641885801,21.29461876861243
P3528,2025-06-03 00:00:00,29.6497,113.6189,16.2,岳阳市,定湖,临湘市,1004.0,21.5,80,39.60817123157903,20.505933312279588
P3529,2025-06-03 00:00:00,28.7086,112.7744,37,岳阳市,杨林寨,湘阴县,1004.4,21.8,86,44.15034696381356,22.452343060183257
P3531,2025-06-03 00:00:00,29.5717,112.5108,11,岳阳市,涛湖,华容县,1004.4,22.0,85,45.43122740367218,22.46404235554118
P3532,2025-06-03 00:00:00,29.6311,112.7356,37,岳阳市,东山水库,华容县,1002.0,22.2,55,17.989857650100024,14.713955929189854
P3534,2025-06-03 00:00:00,29.6011,112.8114,54.1,岳阳市,幸福水库,君山区,1001.1,21.3,86,55.042068692429766,21.77520193863159
P3536,2025-06-03 00:00:00,29.2639,113.5058,773.4,岳阳市,大云山,岳阳县,921.6,16.8,90,29.270947993598675,17.207261800297807
P3537,2025-06-03 00:00:00,29.0186,113.4906,131.3,岳阳市,张谷英,岳阳县,994.4,19.9,91,40.57414349975504,21.13479201848286
P3538,2025-06-03 00:00:00,29.4492,113.0503,33.7,岳阳市,展陈馆,君山区,1004.6,22.6,65,22.628992296814562,17.817705769010995
P3541,2025-06-03 00:00:00,29.0133,113.4411,122.7,岳阳市,岳坊水库,岳阳县,994.0,21.1,91,46.53678588208368,22.759948108418726
P3544,2025-06-03 00:00:00,29.2258,113.0858,28.4,岳阳市,麻塘,岳阳县,1005.2,22.1,99,45.046820789936156,26.324132276719116
P3547,2025-06-03 00:00:00,29.1339,113.0161,32.5,岳阳市,中洲,岳阳县,1004.2,21.3,89,43.952271314846136,22.534802006258275
P3552,2025-06-03 00:00:00,29.7919,113.52,12.4,岳阳市,黄盖,临湘市,1004.5,21.8,89,42.787137422266895,23.235564329724536
P3553,2025-06-03 00:00:00,29.565,113.6956,51.5,岳阳市,晓阳,临湘市,1000.3,20.7,89,46.19580922700444,21.718404917055455
P3554,2025-06-03 00:00:00,29.3889,113.6328,534.8,岳阳市,壁山,临湘市,945.5,19.1,86,38.76509351323699,19.00390366705638
P3558,2025-06-03 00:00:00,29.6639,113.3461,13.4,岳阳市,儒溪,临湘市,1003.8,22.0,79,40.34594139919601,20.878345248091218
P3559,2025-06-03 00:00:00,29.3117,113.4417,98.1,岳阳市,金盆,临湘市,996.3,21.2,84,38.35411329728302,21.138642853026457
P3562,2025-06-03 00:00:00,29.4708,112.4956,35,岳阳市,业谟小学,华容县,1004.7,22.5,93,49.69060404253169,25.33853136857656
P3565,2025-06-03 00:00:00,29.395,112.805,16.6,岳阳市,团华小学,华容县,1004.8,22.3,79,33.85043779025717,21.263744826470827
P3566,2025-06-03 00:00:00,29.7261,112.8489,43,岳阳市,小墨山,华容县,1003.6,21.4,100,57.007718188046326,25.475789519212125
P3568,2025-06-03 00:00:00,29.4917,112.4131,20,岳阳市,太仙,华容县,1004.6,21.8,99,50.72123969158147,25.846301894862123
P3570,2025-06-03 00:00:00,29.535,112.5558,14.6,岳阳市,华容河大堤,华容县,1004.2,22.8,79,40.31310097355718,21.919944014179418
P3572,2025-06-03 00:00:00,29.6033,112.4639,32,岳阳市,富强,华容县,1004.9,22.1,100,52.63660932504175,26.59003260274658
P3580,2025-06-03 00:00:00,28.7297,112.7042,27,岳阳市,湘滨,湘阴县,1004.4,21.8,90,46.78903362529305,23.496638086238292
P3587,2025-06-03 00:00:00,28.6281,112.5892,18,岳阳市,西林港,湘阴县,1005.2,21.9,49,32.01349401399587,12.871026381590571
P3588,2025-06-03 00:00:00,28.7647,112.9869,68,岳阳市,赛美水库,湘阴县,1001.8,21.7,88,40.597887520443535,22.834421140246125
P3589,2025-06-03 00:00:00,28.63,112.8128,29,岳阳市,城西水管会,湘阴县,1005.3,22.0,92,52.87346852827578,24.314022314232812
P3592,2025-06-03 00:00:00,29.4889,113.1922,30.9,岳阳市,象骨港,云溪区,1004.9,22.4,79,40.30888364066854,21.393589631388952
P3593,2025-06-03 00:00:00,29.5444,113.2581,50.8,岳阳市,丁山,云溪区,1003.3,22.4,81,40.41649298779621,21.935199495474752
P3594,2025-06-03 00:00:00,29.5942,113.3344,5.7,岳阳市,钢铁,云溪区,1004.1,23.4,72,37.782508056555564,20.716633872464943
P3595,2025-06-03 00:00:00,29.5531,113.3572,40,岳阳市,长岭街道,云溪区,1004.3,22.9,75,42.009580073798205,20.936669844736482
P3596,2025-06-03 00:00:00,29.4825,113.2631,54.4,岳阳市,洗马塘,云溪区,1003.4,21.7,82,42.768013737564246,21.277528789774795
P3599,2025-06-03 00:00:00,29.31,113.3339,73.2,岳阳市,兰桥水库,岳阳楼区,999.8,20.4,87,44.2904918685335,20.840922293593877
P3603,2025-06-03 00:00:00,29.4553,113.2167,62.3,岳阳市,滨湖,云溪区,999.6,22.5,74,31.454679743548652,20.161842164243716
P3604,2025-06-03 00:00:00,28.9742,112.92,27.8,岳阳市,凤凰乡磊石,市辖区,1005.7,22.3,84,48.17689715230856,22.60955146105759
P3605,2025-06-03 00:00:00,28.8606,112.9194,19.2,岳阳市,屈子诗园,市辖区,1005.2,22.3,83,44.92715831791234,22.34039013414024
P3614,2025-06-03 00:00:00,29.4533,113.3578,127.2,岳阳市,清溪水库,云溪区,995.6,21.3,82,37.82264080820461,20.762401848462677
P3615,2025-06-03 00:00:00,29.235,113.1386,95.4,岳阳市,东风水库,岳阳县,997.3,21.5,90,45.04568459324072,23.069174976314535
P3620,2025-06-03 00:00:00,29.1897,113.5236,90,岳阳市,铁山水库,岳阳县,997.7,20.5,91,43.13361588224652,21.934168909607884
P3621,2025-06-03 00:00:00,29.2997,113.1031,134,岳阳市,风雨山,岳阳楼区,992.5,21.3,81,39.064101667976686,20.509201825920453
P3622,2025-06-03 00:00:00,29.5075,113.6161,99.3,岳阳市,羊楼司,临湘市,997.1,20.5,93,39.57273407433569,22.41623855597289
P3630,2025-06-03 00:00:00,29.4447,113.3122,60.1,岳阳市,建设,云溪区,1001.4,21.9,82,41.488300836734254,21.539268638580133
P3631,2025-06-03 00:00:00,29.4083,113.3064,134.5,岳阳市,伍家洞水库,岳阳楼区,992.9,22.8,81,44.53719264840882,22.474879305677636
P3633,2025-06-03 00:00:00,28.5319,113.0111,58.8,岳阳市,桥坪水库,汨罗市,1001.1,21.4,100,40.162077020016866,25.475789519212125
P3636,2025-06-03 00:00:00,28.5908,113.835,130.5,岳阳市,沱龙峡,平江县,993.3,21.9,91,38.23123845970445,23.903334708668204
P3637,2025-06-03 00:00:00,28.9742,113.8178,1160,岳阳市,幕阜山,平江县,880.0,16.8,63,20.847119748791524,12.045083260208465
P3640,2025-06-03 00:00:00,28.6933,113.0358,60.6,岳阳市,白水苗圃,汨罗市,999.2,21.4,97,49.479247647013736,24.711515833635758
P3641,2025-06-03 00:00:00,29.6411,113.4997,21,岳阳市,源潭,临湘市,1004.6,22.6,84,39.76010883528986,23.025958224568054
P3643,2025-06-03 00:00:00,29.3719,113.4747,103.6,岳阳市,桃矿,临湘市,996.2,21.9,80,41.56412006763065,21.013920623005014
P3650,2025-06-03 00:00:00,28.7758,113.6053,80.6,岳阳市,团山,平江县,997.8,21.8,81,35.7425404032529,21.146974277614465
P3659,2025-06-03 00:00:00,29.3592,112.5042,14,岳阳市,八一水厂,华容县,1004.9,22.8,80,43.38216712396125,22.197411659928527
P3660,2025-06-03 00:00:00,29.4222,112.6369,14.4,岳阳市,砂山,华容县,1004.7,22.9,94,40.664415382989525,26.240626205403057
P3661,2025-06-03 00:00:00,29.2167,112.705,29.3,岳阳市,隆庆莲场,华容县,1005.3,21.8,90,33.57006641138733,23.496638086238292
P3663,2025-06-03 00:00:00,29.5189,112.4686,6.6,岳阳市,蔡田湖,华容县,1004.7,22.5,99,43.941883503197744,26.973275327839566
P3664,2025-06-03 00:00:00,28.5367,112.9592,60,岳阳市,燎原,湘阴县,999.7,21.9,87,40.20965372214791,22.85263867751795
P3665,2025-06-03 00:00:00,28.8464,113.0339,40,岳阳市,河市乡,市辖区,1005.3,22.1,84,44.53074863643895,22.335627386307127
P3666,2025-06-03 00:00:00,28.7961,113.0722,46.7,岳阳市,归义,汨罗市,1003.1,22.0,81,44.156401869275854,21.40691095057454
P3676,2025-06-03 00:00:00,29.5422,113.3636,32.9,岳阳市,长炼,云溪区,1003.7,23.6,74,37.74986167280879,21.550670179913414
P3692,2025-06-03 00:00:00,29.5169,113.3128,57.6,岳阳市,江湖,云溪区,1003.2,21.9,84,36.72414622484916,22.064616654155262
P3694,2025-06-03 00:00:00,29.4369,113.1664,16.6,岳阳市,芭蕉湖,岳阳楼区,1004.8,23.2,75,39.33664801889186,21.320516864508267
P3703,2025-06-03 00:00:00,28.8864,110.8531,214,怀化市,七甲坪,沅陵县,984.4,19.3,97,40.54799164009208,21.70358583573751
P3705,2025-06-03 00:00:00,28.76,110.4319,204,怀化市,曹家,沅陵县,985.6,19.4,100,43.1834748146482,22.514606669494402
P3709,2025-06-03 00:00:00,28.6936,110.7453,165,怀化市,陈家滩,沅陵县,990.0,19.6,95,48.32758057324213,21.656636748343143
P3718,2025-06-03 00:00:00,28.5253,110.9103,336,怀化市,官庄,沅陵县,970.5,19.5,94,48.09856469158707,21.295839563808343
P3720,2025-06-03 00:00:00,28.5236,110.7211,163,怀化市,楠木铺,沅陵县,991.0,19.2,99,41.94447804111926,22.01345901199243
P3722,2025-06-03 00:00:00,28.425,110.7939,413,怀化市,杜家坪,沅陵县,963.5,17.6,100,34.38195696630542,20.11242790597456
P3728,2025-06-03 00:00:00,28.3294,110.5158,276,怀化市,张家滩,沅陵县,977.6,18.6,98,47.65413327578495,20.98919643138556
P3729,2025-06-03 00:00:00,28.2933,110.3239,164,怀化市,麻溪铺,沅陵县,990.5,19.1,100,40.869573606946204,22.097562403553933
P3733,2025-06-03 00:00:00,28.2306,110.2917,179,怀化市,筲箕湾,沅陵县,990.3,19.3,100,33.00107099043052,22.37483075849228
P3734,2025-06-03 00:00:00,28.1694,110.2081,172.5,怀化市,田头坪,辰溪县,989.8,19.1,99,39.65713732196067,21.876586779518394
P3739,2025-06-03 00:00:00,26.3494,109.7725,382.8,怀化市,下寨,通道侗族自治县,966.9,18.6,97,38.05064387665898,20.775020957595913
P3749,2025-06-03 00:00:00,27.9703,110.2892,149,怀化市,倒洑,辰溪县,992.7,19.8,100,50.66711767072252,23.081404983815023
P3750,2025-06-03 00:00:00,27.9644,110.1589,131.5,怀化市,潭湾敬老院,辰溪县,994.5,20.0,98,41.9865676106803,22.902081809383144
P3751,2025-06-03 00:00:00,27.9511,110.8358,323.8,怀化市,三江,溆浦县,973.4,17.5,100,40.57516432723385,19.985842878023494
P3759,2025-06-03 00:00:00,27.8892,109.8911,162.9,怀化市,兰里,麻阳苗族自治县,990.9,19.6,100,49.148153474729504,22.796459735098047
P3761,2025-06-03 00:00:00,27.8553,109.9197,233.6,怀化市,和平溪,麻阳苗族自治县,981.6,19.0,100,46.337085658753104,21.960062889013276
P3763,2025-06-03 00:00:00,27.8783,109.695,179.8,怀化市,岩门镇黄土溪,麻阳苗族自治县,985.8,19.3,100,46.82467928579072,22.37483075849228
P3778,2025-06-03 00:00:00,27.7256,110.4086,121,怀化市,黄溪口,辰溪县,992.3,19.4,100,49.30093233406732,22.514606669494402
P3781,2025-06-03 00:00:00,27.6931,110.6811,528.9,怀化市,两丫坪,溆浦县,950.4,18.0,87,34.74077845054772,17.944481233811846
P3782,2025-06-03 00:00:00,27.7019,109.6039,265.2,怀化市,锦和,麻阳苗族自治县,978.1,18.6,98,46.78584963592462,20.98919643138556
P3783,2025-06-03 00:00:00,27.6689,110.1556,325,怀化市,花桥,中方县,969.8,19.1,100,45.476311996535586,22.097562403553933
P3784,2025-06-03 00:00:00,27.6725,109.7108,314,怀化市,江口圩,麻阳苗族自治县,976.7,18.6,100,46.116498969759824,21.41754737896486
P3790,2025-06-03 00:00:00,27.6664,109.8514,230,怀化市,贺家田,鹤城区,983.2,18.9,99,47.13329601782233,21.605081973582873
P3796,2025-06-03 00:00:00,27.6089,110.0964,246,怀化市,泸阳,中方县,981.4,19.4,91,41.801481937530745,20.488292069239908
P3798,2025-06-03 00:00:00,27.6269,110.6014,265.2,怀化市,北斗溪,溆浦县,978.5,18.8,97,43.91539428466692,21.03669614059887
P3800,2025-06-03 00:00:00,27.5886,110.28,186,怀化市,铜湾,中方县,989.2,19.8,92,48.57481856321186,21.234892585109822
P3803,2025-06-03 00:00:00,27.9714,110.3422,173.5,怀化市,桃田坳,辰溪县,989.8,19.4,98,33.4670477099067,22.064314536104515
P3811,2025-06-03 00:00:00,27.7506,110.1411,213,怀化市,肖家溪,辰溪县,988.0,19.1,100,45.557865187165795,22.097562403553933
P3820,2025-06-03 00:00:00,27.1161,109.9783,536.5,怀化市,高坡街,洪江市,947.5,18.2,98,39.754234070100885,20.469100518793798
P3823,2025-06-03 00:00:00,26.5053,109.5308,450,怀化市,靖州县排牙山,靖州苗族侗族自治县,958.0,18.0,97,46.91844256007666,20.007065283675274
P3825,2025-06-03 00:00:00,27.5183,110.1769,259.7,怀化市,新建敬老院,中方县,982.9,19.0,96,43.743300643651516,21.081660373452745
P3827,2025-06-03 00:00:00,27.5089,109.4536,370,怀化市,芷江县大树坳,芷江侗族自治县,967.8,18.3,100,45.16257737126073,21.018420099150696
P3833,2025-06-03 00:00:00,27.4483,109.7589,263,怀化市,岩桥,芷江侗族自治县,979.3,19.1,100,54.81136946998977,22.097562403553933
P3846,2025-06-03 00:00:00,27.4039,109.2453,444,怀化市,波州,新晃侗族自治县,956.8,18.4,100,44.221485117693526,21.150730445492975
P3849,2025-06-03 00:00:00,27.3447,109.9131,240,怀化市,牌楼,中方县,982.3,19.3,99,49.148604151564726,22.15108245090736
P3853,2025-06-03 00:00:00,27.3089,109.4775,466,怀化市,梨溪口水库,芷江侗族自治县,957.2,18.2,97,36.97287486395194,20.260232146153044
P3857,2025-06-03 00:00:00,27.325,109.0644,341,怀化市,鱼市,新晃侗族自治县,971.0,19.2,81,37.031303508437574,18.0110119189029
P3860,2025-06-03 00:00:00,27.1392,109.9714,172.1,怀化市,横岩,洪江市,986.4,20.2,92,42.40556207244575,21.76783251902604
P3870,2025-06-03 00:00:00,27.2317,109.2867,473,怀化市,降溪,新晃侗族自治县,955.2,18.0,98,33.4177162129909,20.21332368866162
P3871,2025-06-03 00:00:00,27.1842,109.1325,437,怀化市,扶罗,新晃侗族自治县,960.8,18.9,93,33.41275747855404,20.295683066093
P3883,2025-06-03 00:00:00,27.1044,108.9556,501,怀化市,凉伞,新晃侗族自治县,953.1,19.0,100,49.60099616293632,21.960062889013276
P3896,2025-06-03 00:00:00,26.7839,109.8633,344.7,怀化市,木寨,会同县,970.3,19.7,94,51.02593330829214,21.562231398046205
P3897,2025-06-03 00:00:00,26.7228,109.5947,306,怀化市,会同县地灵,会同县,973.5,18.9,95,53.343521795074984,20.732149368589624
P3899,2025-06-03 00:00:00,26.7006,109.4481,394,怀化市,大堡子,靖州苗族侗族自治县,964.3,18.3,97,43.632666826468046,20.38786749617617
P3901,2025-06-03 00:00:00,26.6728,109.6456,346.4,怀化市,坳上,靖州苗族侗族自治县,969.2,19.3,95,49.129777130953556,21.256089220567667
P3904,2025-06-03 00:00:00,26.65,109.385,617.2,怀化市,三锹,靖州苗族侗族自治县,940.0,17.5,96,37.295934158160215,19.186409162902553
P3909,2025-06-03 00:00:00,26.4108,109.4269,398.3,怀化市,藕团,靖州苗族侗族自治县,965.0,18.5,94,43.88333833881374,20.006745422998534
P3914,2025-06-03 00:00:00,26.2025,109.5192,359,怀化市,播阳,通道侗族自治县,968.7,18.9,95,46.029945310018554,20.732149368589624
P3917,2025-06-03 00:00:00,26.08,109.5481,455.3,怀化市,独坡,通道侗族自治县,957.6,19.0,92,36.89924530901901,20.20325785789222
P3918,2025-06-03 00:00:00,26.0089,109.7683,512,怀化市,陇城,通道侗族自治县,951.3,18.1,90,39.69163411896731,18.68038067678164
P4001,2025-06-03 00:00:00,28.8097,111.0122,73,怀化市,五强溪,沅陵县,999.3,20.7,100,50.18180172172378,24.402702153994895
P4014,2025-06-03 00:00:00,28.5272,110.2183,136,怀化市,高竹坪,沅陵县,994.2,19.2,100,42.587501405715074,22.235817183830736
P4019,2025-06-03 00:00:00,27.4256,109.3614,331,怀化市,新店坪镇上坪,芷江侗族自治县,971.8,18.7,99,43.59349142058652,21.33654024364826
P4021,2025-06-03 00:00:00,28.1625,110.6406,348.4,怀化市,低庄镇大渭溪,溆浦县,969.3,18.5,99,43.922607511339066,21.070934009328244
P4023,2025-06-03 00:00:00,26.325,109.4625,397,怀化市,靖州县新厂,靖州苗族侗族自治县,964.8,18.2,92,38.15424517675248,19.21589028294928
P4030,2025-06-03 00:00:00,28.6453,110.3453,320,怀化市,高砌头,沅陵县,971.5,18.5,97,43.84122590367574,20.645258574796358
P4038,2025-06-03 00:00:00,27.7356,110.5281,566.3,怀化市,统溪河,溆浦县,945.0,18.7,100,42.966444399281585,21.55206085216996
P4042,2025-06-03 00:00:00,27.4094,109.8139,369,怀化市,水宽,芷江侗族自治县,967.7,18.9,97,45.428080519969036,21.168615671086247
P4043,2025-06-03 00:00:00,28.0339,110.4381,488,怀化市,谭家场,辰溪县,951.4,18.3,98,42.20611639703853,20.59805169716768
P4050,2025-06-03 00:00:00,27.425,110.6067,541,怀化市,大华,溆浦县,948.5,17.5,100,35.571922776190256,19.985842878023494
P4051,2025-06-03 00:00:00,26.9703,109.7375,334,怀化市,坪村,会同县,971.0,19.4,94,39.185819950020964,21.163730269324738
P4055,2025-06-03 00:00:00,27.6414,110.3222,210,怀化市,铜鼎,中方县,987.6,19.1,97,36.20381079663337,21.434635531447313
P4056,2025-06-03 00:00:00,27.5292,110.3503,255,怀化市,接龙,中方县,978.0,18.5,96,42.96789452322565,20.432420857530417
P4057,2025-06-03 00:00:00,27.3539,109.8394,343,怀化市,桐木,中方县,970.5,19.2,100,48.84249844890297,22.235817183830736
P4059,2025-06-03 00:00:00,27.1203,109.6225,244,怀化市,洪江市托口,洪江市,979.8,20.5,99,42.451649221550696,23.862447495067915
P4061,2025-06-03 00:00:00,27.1197,109.6967,204,怀化市,江市,洪江市,985.5,19.7,99,42.45910097192619,22.709158600069937
P4063,2025-06-03 00:00:00,28.3528,110.3003,134,怀化市,盘古,沅陵县,993.2,19.3,100,41.82016420208478,22.37483075849228
P4068,2025-06-03 00:00:00,27.0119,109.8433,400,怀化市,大溪水库,会同县,964.6,19.4,96,52.94032014605184,21.614022402714625
P4069,2025-06-03 00:00:00,28.8036,110.6261,150,怀化市,大合坪,沅陵县,991.5,19.3,95,50.17572820638555,21.256089220567667
P4070,2025-06-03 00:00:00,28.5286,110.6353,320,怀化市,长界,沅陵县,973.0,18.7,94,41.29508480281386,20.25893720103976
P4079,2025-06-03 00:00:00,27.8842,110.7317,535.2,怀化市,桥江镇新田,溆浦县,949.5,17.6,100,43.66931495909373,20.11242790597456
P4080,2025-06-03 00:00:00,27.8681,110.0928,163,怀化市,红敏,辰溪县,991.0,19.1,100,46.31794689686119,22.097562403553933
P4092,2025-06-03 00:00:00,26.7067,109.7314,294.7,怀化市,靖州县甘棠,靖州苗族侗族自治县,975.6,19.8,94,38.045518542083485,21.696520684786123
P4093,2025-06-03 00:00:00,26.3322,109.335,482,怀化市,平茶,靖州苗族侗族自治县,955.2,18.0,96,46.25909869572116,19.80080687868893
P4094,2025-06-03 00:00:00,26.4539,109.895,381.9,怀化市,联团,通道侗族自治县,961.1,18.7,92,42.51225743091973,19.827895983996363
P4095,2025-06-03 00:00:00,26.2911,109.9364,433.1,怀化市,石岩,通道侗族自治县,959.2,18.4,94,38.581985380797356,19.881686618763396
P4116,2025-06-03 00:00:00,27.8944,109.6364,220.1,怀化市,石羊哨,麻阳苗族自治县,984.5,18.9,100,46.03682433561731,21.823315124831183
P4121,2025-06-03 00:00:00,28.0506,110.7606,247.6,怀化市,祖师殿,溆浦县,981.1,18.8,100,43.60315832640202,21.687315608864814
P4122,2025-06-03 00:00:00,27.9525,110.7689,290.3,怀化市,油洋,溆浦县,976.6,18.9,96,43.22456368973916,20.950382519837937
P4123,2025-06-03 00:00:00,27.8836,110.3986,146.1,怀化市,大江口,溆浦县,992.7,19.7,93,49.877517355892486,21.332845957641457
P4126,2025-06-03 00:00:00,27.8461,110.6906,225.2,怀化市,陶金坪,溆浦县,982.8,18.9,100,54.28606991406673,21.823315124831183
P4131,2025-06-03 00:00:00,27.4036,110.5142,510,怀化市,龙潭镇横板桥,溆浦县,951.6,17.7,100,35.47094396876852,20.23971684225924
P4143,2025-06-03 00:00:00,27.315,110.1617,225,怀化市,洪江市安江,洪江市,982.8,19.0,97,45.28767652287304,21.301261002342876
P4144,2025-06-03 00:00:00,27.1914,110.1669,326,怀化市,洪江市熟坪,洪江市,973.0,18.7,100,41.579658602264864,21.55206085216996
P4149,2025-06-03 00:00:00,27.2317,109.7297,281,怀化市,岩垅,洪江市,977.0,19.6,96,46.34995124514683,21.884601345694126
P4155,2025-06-03 00:00:00,26.9625,110.0258,221.6,怀化市,会同县高椅,会同县,983.5,20.8,100,50.025098068224246,24.553530217940562
P4156,2025-06-03 00:00:00,26.9819,109.7731,340.4,怀化市,堡子,会同县,971.3,20.0,96,43.244556056906205,22.434692384701854
P4167,2025-06-03 00:00:00,26.3656,109.6619,349.9,怀化市,县溪镇江口,通道侗族自治县,966.1,18.5,98,37.915305789493395,20.858096292062303
P4175,2025-06-03 00:00:00,26.085,109.8053,407.3,怀化市,长安堡,通道侗族自治县,961.3,18.6,100,42.74794316100591,21.41754737896486
P4198,2025-06-03 00:00:00,28.6917,110.5306,158,怀化市,落坪,沅陵县,990.8,19.2,100,42.74537702719862,22.235817183830736
P4200,2025-06-03 00:00:00,27.4572,109.9464,236,怀化市,中方站,中方县,981.9,19.6,92,46.04003043520807,20.972742956290205
P4201,2025-06-03 00:00:00,27.8675,110.0128,207.8,怀化市,黄桑乡军田,麻阳苗族自治县,979.6,18.8,88,34.374012340247845,19.084837735801038
P4205,2025-06-03 00:00:00,26.6747,109.3367,635,怀化市,塘款,靖州苗族侗族自治县,937.6,18.0,91,35.715789558467925,18.76951485375722
P4404,2025-06-03 00:00:00,27.8869,111.5178,442,娄底市,华新,新化县,958.3,18.2,97,39.23737414268388,20.260232146153044
P4416,2025-06-03 00:00:00,27.6861,111.2781,211,娄底市,科头,新化县,982.2,19.8,90,43.13192312223234,20.77326448543352
P4420,2025-06-03 00:00:00,28.08,111.3736,243,娄底市,龙溪,新化县,978.7,19.1,95,47.969857686980895,20.992684283376235
P4432,2025-06-03 00:00:00,28.0161,111.2794,156.6,娄底市,何家坪,新化县,986.9,19.4,100,49.944889634816555,22.514606669494402
P4435,2025-06-03 00:00:00,27.7942,111.0617,504,娄底市,古台山林场,新化县,948.4,18.8,81,33.151657726049905,17.5667256431805
P4440,2025-06-03 00:00:00,27.6244,111.1006,274,娄底市,半山水库,新化县,977.4,18.6,95,40.85746016479605,20.346670010016616
P4446,2025-06-03 00:00:00,27.8789,111.3722,279.4,娄底市,水竹,新化县,976.4,19.2,95,47.388758306549406,21.1240263246392
P4481,2025-06-03 00:00:00,27.7511,110.8889,851.1,娄底市,大桥,新化县,913.8,17.6,77,34.40675313134148,15.486569487600413
P4512,2025-06-03 00:00:00,27.5672,111.3708,289,娄底市,连岩,冷水江市,974.3,19.0,100,52.82432438737214,21.960062889013276
P4515,2025-06-03 00:00:00,27.7794,111.4869,677,娄底市,谭家,冷水江市,930.6,19.0,80,35.37937672526475,17.568050311210623
P4516,2025-06-03 00:00:00,27.6011,111.4764,178,娄底市,杨源,冷水江市,986.2,19.4,94,42.78632624532428,21.163730269324738
P4517,2025-06-03 00:00:00,27.6461,111.5622,338,娄底市,大冲,冷水江市,970.7,19.4,87,41.23897320289773,19.58770780246013
P4561,2025-06-03 00:00:00,27.5222,111.7556,693,娄底市,龙山林场,涟源市,930.3,17.0,100,46.05931644386747,19.363360584848092
P4562,2025-06-03 00:00:00,27.85,111.7756,141,娄底市,迎宾,涟源市,989.7,20.7,84,41.33755506918462,20.498269809355712
P4563,2025-06-03 00:00:00,27.8811,111.6511,613.5,娄底市,古塘,涟源市,940.7,18.3,86,38.464459389223045,18.075841285269597
P4564,2025-06-03 00:00:00,27.72,111.6253,185,娄底市,芙蓉,涟源市,988.7,20.0,95,44.051997115852004,22.20099767236121
P4565,2025-06-03 00:00:00,27.8219,111.6697,350,娄底市,安平,涟源市,966.5,20.1,98,53.07100562945584,23.044390123670464
P4567,2025-06-03 00:00:00,27.9064,111.8492,181,娄底市,七星中学,涟源市,987.7,20.3,85,41.28569399638061,20.23636315140472
P4568,2025-06-03 00:00:00,27.7781,111.8789,97,娄底市,渡头塘,涟源市,994.8,21.1,84,49.893356215587865,21.00918286930959
P4569,2025-06-03 00:00:00,27.4906,111.9294,298.7,娄底市,坝塘,涟源市,970.3,19.8,56,20.50535379326353,12.925586790936414
P4570,2025-06-03 00:00:00,27.7767,111.7514,166,娄底市,龙塘,涟源市,987.7,20.6,85,48.91275345394274,20.614784316743265
P4571,2025-06-03 00:00:00,27.55,111.6817,185.6,娄底市,孙家桥,涟源市,986.1,19.9,87,48.17473912065177,20.20579017151658
P4572,2025-06-03 00:00:00,27.6306,111.9314,148,娄底市,水洞底,娄星区,993.0,20.8,86,48.206194251082515,21.11603598742888
P4573,2025-06-03 00:00:00,27.5897,111.9006,146.8,娄底市,荷塘,涟源市,989.7,20.2,90,47.77605610868427,21.29461876861243
P4574,2025-06-03 00:00:00,27.575,111.8128,148.8,娄底市,茶亭子,涟源市,988.7,20.2,87,43.308817995127725,20.584798142992017
P4575,2025-06-03 00:00:00,27.6592,111.8269,185,娄底市,斗笠山,涟源市,985.6,20.6,91,42.54192064448305,22.069945562631027
P4576,2025-06-03 00:00:00,27.6225,111.6239,281.2,娄底市,谢家,涟源市,981.8,19.3,99,48.27264075705371,22.15108245090736
P4577,2025-06-03 00:00:00,27.7153,111.7697,108,娄底市,湖泉,涟源市,993.7,20.7,90,37.65902473461778,21.962431938595405
P4578,2025-06-03 00:00:00,27.5856,111.7683,208.3,娄底市,茅塘,涟源市,982.5,20.0,85,42.960695041040914,19.864050548954765
P4580,2025-06-03 00:00:00,27.8442,111.8475,134.6,娄底市,桥头河,涟源市,993.1,20.4,95,45.55818034447263,22.75732894128067
P4582,2025-06-03 00:00:00,27.6583,111.7725,146.5,娄底市,青树,涟源市,989.6,20.3,92,46.24548018867263,21.902887175638053
P4583,2025-06-03 00:00:00,27.9822,111.6572,488,娄底市,漆树,涟源市,951.2,18.3,100,38.954648020685966,21.018420099150696
P4594,2025-06-03 00:00:00,27.6264,111.6889,199,娄底市,杨岭水库,涟源市,983.2,19.7,93,49.01386568962068,21.332845957641457
P4601,2025-06-03 00:00:00,27.7633,111.9192,165,娄底市,石井,娄星区,989.9,21.4,91,46.278768665393265,23.182968462483036
P4602,2025-06-03 00:00:00,27.7783,111.9608,117,娄底市,黄泥塘,娄星区,993.2,20.7,88,48.10246505428719,21.474377895515506
P4611,2025-06-03 00:00:00,27.7747,112.0722,77,娄底市,春园中学,娄星区,995.3,20.6,93,46.405631214371354,22.554999311260282
P4614,2025-06-03 00:00:00,27.8078,112.0092,146,娄底市,花溪谷,娄星区,992.4,20.1,91,45.250974581114804,21.398362257694004
P4615,2025-06-03 00:00:00,27.6531,111.995,154,娄底市,军分区仓库,娄星区,991.7,26.4,75,46.54127547769257,25.81473495196619
P4618,2025-06-03 00:00:00,27.9219,111.9692,272,娄底市,双江水库,娄星区,979.1,19.6,90,41.27059257851761,20.516813761588242
P4627,2025-06-03 00:00:00,27.7464,112.0158,112.5,娄底市,乐坪,娄星区,993.5,21.0,87,49.2805144241352,21.62614798995916
P4639,2025-06-03 00:00:00,27.7286,112.0014,151.5,娄底市,市气象局,娄星区,991.1,21.5,96,50.38503581927279,24.607119974735504
P4651,2025-06-03 00:00:00,27.4397,112.1436,83.5,娄底市,金开街道,双峰县,997.6,20.7,90,32.60189366339299,21.962431938595405
P4657,2025-06-03 00:00:00,27.5836,112.0908,106,娄底市,洪福,娄星区,994.2,19.9,94,43.32564065747597,21.831543403707567
P4660,2025-06-03 00:00:00,27.6347,112.2511,68.4,娄底市,水府庙,双峰县,1000.4,19.9,24,10.019349072455167,5.574011081797676
P4661,2025-06-03 00:00:00,27.4411,111.9703,128.9,娄底市,甘棠,双峰县,992.4,20.3,89,45.8313666859291,21.188662593823768
P4662,2025-06-03 00:00:00,27.6261,112.2436,74.9,娄底市,杏子铺,双峰县,999.9,20.4,97,44.88989930191301,23.236430603202365
P4663,2025-06-03 00:00:00,27.5339,112.2253,56.5,娄底市,黄马洲,双峰县,1000.3,20.6,90,42.72365747326419,21.8274186883164
P4666,2025-06-03 00:00:00,27.3297,112.1042,106.8,娄底市,锁石,双峰县,995.8,21.1,87,49.27535770605413,21.759510828927795
P4667,2025-06-03 00:00:00,27.4825,112.1942,67,娄底市,茅坪,双峰县,999.1,20.6,89,45.27913267902879,21.58489181400177
P4668,2025-06-03 00:00:00,27.3981,111.9872,116.2,娄底市,三塘铺,双峰县,994.1,20.2,89,48.96305757685776,21.058011893405624
P4669,2025-06-03 00:00:00,27.4258,112.1083,83.5,娄底市,岳家,双峰县,996.2,20.1,97,47.14959119218034,22.809243285673823
P4670,2025-06-03 00:00:00,27.4661,112.4281,115.2,娄底市,井字,双峰县,993.0,19.8,94,44.14875659738496,21.696520684786123
P4671,2025-06-03 00:00:00,27.5189,112.1044,84.1,娄底市,走马街,双峰县,996.7,20.2,92,48.64338803398337,21.76783251902604
P4672,2025-06-03 00:00:00,27.3789,112.0317,106.2,娄底市,青树坪,双峰县,994.6,20.2,94,54.388729938571494,22.24104626943965
P4674,2025-06-03 00:00:00,27.3983,112.4289,118.2,娄底市,双鱼,双峰县,992.7,19.4,97,40.78987621554623,21.839168469409568
P4675,2025-06-03 00:00:00,27.5603,112.0128,88.5,娄底市,洪山殿,双峰县,996.5,20.8,88,47.73197907033837,21.607106591787694
P4676,2025-06-03 00:00:00,27.2908,112.0944,109.5,娄底市,花门,双峰县,995.0,20.8,87,51.14040852773081,21.36157128960829
P4677,2025-06-03 00:00:00,27.38,112.2297,116.2,娄底市,石牛,双峰县,991.9,19.6,94,47.6442816582875,21.428672150992163
P4678,2025-06-03 00:00:00,27.4853,112.2675,123.2,娄底市,民实,双峰县,991.5,19.7,100,43.795975604075075,22.938544040474685
P4801,2025-06-03 00:00:00,28.0036,112.4569,123,湘潭市,金石,湘乡市,995.0,20.0,93,48.160690901099414,21.73360824767992
P4802,2025-06-03 00:00:00,27.9392,113.0025,36,湘潭市,昭山,岳塘区,1003.5,21.3,86,48.46424329192232,21.77520193863159
P4804,2025-06-03 00:00:00,27.9589,112.4703,106.6,湘潭市,石屏,韶山市,995.5,20.9,79,37.23048759238755,19.51708854170776
P4806,2025-06-03 00:00:00,27.935,112.3047,72,湘潭市,金薮,湘乡市,988.0,20.4,89,58.382217164995026,21.320023955515573
P4807,2025-06-03 00:00:00,28.02,112.4997,111.3,湘潭市,云源,韶山市,993.7,20.5,85,41.930971253871704,20.487959970512854
P4815,2025-06-03 00:00:00,27.9203,112.4253,134.6,湘潭市,新联,韶山市,990.5,20.6,100,62.53734259430749,24.252687431462665
P4816,2025-06-03 00:00:00,27.8856,112.9744,60,湘潭市,荷塘,岳塘区,1000.7,21.7,81,43.34892114458518,21.01804673136291
P4818,2025-06-03 00:00:00,27.9178,112.5942,72.4,湘潭市,银田,韶山市,997.9,20.8,86,35.41861704647078,21.11603598742888
P4821,2025-06-03 00:00:00,27.89,112.5347,69.9,湘潭市,高铁南站,韶山市,997.7,20.6,86,30.144381952385018,20.857311191057892
P4829,2025-06-03 00:00:00,27.8378,112.5158,120,湘潭市,龙洞,湘乡市,998.3,20.1,87,39.692739703722104,20.457774905707453
P4831,2025-06-03 00:00:00,27.8344,112.9397,68,湘潭市,锦源广场,岳塘区,1000.7,21.4,82,42.47865539491357,20.89014740575394
P4834,2025-06-03 00:00:00,27.7967,112.5972,75,湘潭市,韶灌科研所,湘乡市,1000.5,20.8,88,45.3006672216489,21.607106591787694
P4835,2025-06-03 00:00:00,27.7922,112.9525,78,湘潭市,易俗河,湘潭县,1002.1,21.5,72,37.63785719924252,18.45533998105163
P4839,2025-06-03 00:00:00,27.7614,112.4711,90,湘潭市,泉塘,湘乡市,999.5,20.5,92,42.98613871512239,22.175203732790386
P4841,2025-06-03 00:00:00,27.7161,112.3417,57,湘潭市,潭市,湘乡市,999.9,20.9,92,49.4634526511717,22.728761339710307
P4843,2025-06-03 00:00:00,27.6639,112.4522,75.4,湘潭市,洙津渡,湘乡市,1000.9,20.7,89,47.11018314627176,21.718404917055455
P4844,2025-06-03 00:00:00,27.6903,112.1053,99.7,湘潭市,毛田,湘乡市,996.9,20.1,95,45.45477877377439,22.33894960968055
P4845,2025-06-03 00:00:00,27.6383,112.5831,259.8,湘潭市,梅桥,湘乡市,978.2,19.6,84,40.823600824523126,19.14902617748236
P4846,2025-06-03 00:00:00,27.6442,112.3406,82,湘潭市,洋潭电站,湘乡市,999.1,20.5,90,49.39826267255366,21.693134086425374
P4847,2025-06-03 00:00:00,27.6442,112.6283,93.5,湘潭市,上石坝水库,湘潭县,995.6,20.4,88,41.84586339343156,21.080473124554725
P4848,2025-06-03 00:00:00,27.6269,112.3814,104,湘潭市,栗山,湘乡市,998.6,20.1,92,46.44580535937406,21.633509095690638
P4850,2025-06-03 00:00:00,27.6158,112.71,65.1,湘潭市,锦石,湘潭县,999.9,20.6,97,52.12519612745954,23.525106808518785
P4851,2025-06-03 00:00:00,27.5836,112.6533,98.7,湘潭市,严冲水库,湘潭县,997.7,20.1,98,54.90071092045043,23.044390123670464
P4852,2025-06-03 00:00:00,27.5608,112.9153,68.2,湘潭市,中路铺水库,湘潭县,1000.2,21.4,82,44.39156452404998,20.89014740575394
P4854,2025-06-03 00:00:00,27.5328,112.3353,140,湘潭市,中沙,湘乡市,992.5,19.9,92,46.951682282678085,21.367042480224427
P4855,2025-06-03 00:00:00,27.5292,112.5147,76.4,湘潭市,石鼓,湘潭县,997.4,19.7,98,56.480792596464326,22.479773159665193
P4858,2025-06-03 00:00:00,27.4975,112.8272,99,湘潭市,印子山水库,湘潭县,995.5,19.9,95,47.19021753386222,22.063793865449135
P4860,2025-06-03 00:00:00,27.4747,112.7319,84.2,湘潭市,龙口,湘潭县,997.4,20.6,91,49.78786482162319,22.069945562631027
P4862,2025-06-03 00:00:00,27.3747,112.825,76.9,湘潭市,茶恩寺,湘潭县,999.1,20.7,100,57.70532192363211,24.402702153994895
P4863,2025-06-03 00:00:00,27.7808,112.7739,63,湘潭市,杨嘉桥,湘潭县,1001.8,20.7,92,48.516697197355285,22.450485981675303
P4864,2025-06-03 00:00:00,27.8578,112.8989,30,湘潭市,白石公园,雨湖区,1004.0,21.5,86,41.89435168212913,22.043878310700553
P4865,2025-06-03 00:00:00,27.9172,112.9608,38,湘潭市,九华,雨湖区,1003.8,21.9,100,46.20877116276444,26.267400778756265
P4868,2025-06-03 00:00:00,27.8489,112.3881,102.6,湘潭市,白田,湘乡市,997.4,19.8,95,46.14107678439961,21.92733473462427
P4870,2025-06-03 00:00:00,27.8144,112.3172,90.2,湘潭市,褒忠山,湘乡市,997.2,20.0,91,51.27447337536969,21.266218822998635
P4873,2025-06-03 00:00:00,27.7042,112.9678,74.1,湘潭市,梅林桥,湘潭县,997.6,20.7,94,53.9346232063065,22.938540024755202
P4877,2025-06-03 00:00:00,27.6872,112.2133,132,湘潭市,水府旅游区,湘乡市,997.4,20.9,84,47.482274775524154,20.752347310170276
P4879,2025-06-03 00:00:00,27.7286,112.725,40.5,湘潭市,石潭,湘潭县,1002.5,20.9,89,44.94085328831181,21.987606078632794
P4881,2025-06-03 00:00:00,27.8331,113.0089,25,湘潭市,马家河,岳塘区,1003.7,21.3,90,51.89316174867839,22.788002028800502
P4885,2025-06-03 00:00:00,27.7089,112.5983,132.5,湘潭市,奇才,湘潭县,993.4,20.1,94,50.871442983362684,22.103802771683913
P4890,2025-06-03 00:00:00,27.6028,112.3539,98,湘潭市,虞唐,湘乡市,994.1,20.3,89,55.543203400880884,21.188662593823768
P4919,2025-06-03 00:00:00,27.8208,112.225,228.9,湘潭市,农之源,湘乡市,982.1,20.1,88,44.22148848232957,20.69292174370409
P5101,2025-06-03 00:00:00,28.1106,113.0253,72,长沙市,省植物园,雨花区,998.4,21.7,84,47.49813231527315,21.796492906598573
P5103,2025-06-03 00:00:00,28.0467,113.0011,83,长沙市,西湖小学,天心区,998.1,21.8,86,43.9595537321009,22.452343060183257
P5104,2025-06-03 00:00:00,28.3772,113.44,91,长沙市,中洲,浏阳市,998.1,20.9,86,33.695954317676254,21.24645081755528
P5106,2025-06-03 00:00:00,28.5328,113.2044,119,长沙市,福临,长沙县,995.2,20.5,100,38.7745972277446,24.103482318250418
P5107,2025-06-03 00:00:00,28.4536,113.0375,73,长沙市,北山镇福高,长沙县,1000.3,21.4,84,44.49580894777722,21.39966319613818
P5108,2025-06-03 00:00:00,28.5322,113.3683,78,长沙市,金井,长沙县,999.1,20.9,91,41.60931941784797,22.481709586017804
P5110,2025-06-03 00:00:00,28.2892,113.1817,58,长沙市,银龙,长沙县,1002.1,22.1,80,37.77063342671573,21.272026082197268
P5111,2025-06-03 00:00:00,28.5892,113.3836,140,长沙市,白石洞水库,长沙县,992.0,21.3,81,37.665567708492105,20.509201825920453
P5112,2025-06-03 00:00:00,28.5469,113.2,113,长沙市,西冲水库,长沙县,995.6,21.5,83,45.41319152579282,21.274905811490072
P5114,2025-06-03 00:00:00,28.4783,112.8044,45,长沙市,铜官,望城区,1002.6,22.3,80,37.88590337022024,21.532906153388183
P5115,2025-06-03 00:00:00,28.5142,112.7536,24,长沙市,苏蓼垸,望城区,1004.3,21.8,85,47.61543689502845,22.191269303669497
P5116,2025-06-03 00:00:00,28.2419,112.7236,71,长沙市,光明,望城区,1000.5,20.8,90,41.47819720951427,22.098177196146505
P5118,2025-06-03 00:00:00,28.485,113.3806,96,长沙市,桐仁桥水库,长沙县,996.6,21.4,82,39.669028124465655,20.89014740575394
P5121,2025-06-03 00:00:00,28.3467,112.8169,55,长沙市,和园公园,望城区,1002.9,22.7,80,35.782816388680146,22.06309146451672
P5123,2025-06-03 00:00:00,28.6153,113.2478,64,长沙市,枫林市,长沙县,1001.1,20.8,94,45.90009170367222,23.08031840486413
P5124,2025-06-03 00:00:00,28.4675,113.0103,392,长沙市,黑麋峰水电站,望城区,962.5,20.2,82,29.611649929055606,19.401763766957988
P5126,2025-06-03 00:00:00,28.2311,113.0644,71,长沙市,金科公园,长沙县,1001.5,22.5,77,39.90734771122469,20.979214143875218
P5132,2025-06-03 00:00:00,28.2947,112.7897,194,长沙市,英雄岭,望城区,987.2,19.9,99,51.71182172142139,22.992795712415415
P5137,2025-06-03 00:00:00,28.4061,112.7758,97,长沙市,廖家坪,望城区,997.4,20.1,100,51.13718185352695,23.514683799663736
P5140,2025-06-03 00:00:00,27.9883,112.9792,31,长沙市,兴马洲,天心区,1004.3,22.1,78,41.07689297650761,20.74022543014233
P5142,2025-06-03 00:00:00,28.2556,113.1589,47.5,长沙市,长龙,长沙县,1001.5,21.9,79,35.282057726937694,20.751246615217447
P5143,2025-06-03 00:00:00,28.0861,113.1761,23,长沙市,黄兴镇林塘,长沙县,1002.9,21.6,88,44.6801235425067,22.6951009662311
P5150,2025-06-03 00:00:00,28.3217,112.8728,53,长沙市,大泽湖,望城区,1003.0,22.2,81,41.52538519989708,21.66964418662506
P5151,2025-06-03 00:00:00,28.3128,112.8869,55,长沙市,永通车管所,望城区,1003.4,22.8,77,42.50818990288865,21.365008722681207
P5156,2025-06-03 00:00:00,28.3111,112.9056,40,长沙市,四医院,望城区,1003.7,23.0,75,39.84425013345182,21.063940522833924
P5157,2025-06-03 00:00:00,28.4072,114.1969,531,长沙市,东麓园,浏阳市,950.1,19.5,90,47.92411431493721,20.38963362492288
P5161,2025-06-03 00:00:00,28.4922,112.7303,28,长沙市,乔口,望城区,1005.1,21.5,85,43.375180001506344,21.78755414429706
P5162,2025-06-03 00:00:00,28.3003,112.92,44,长沙市,新奥佳园,望城区,1004.1,22.6,76,41.735524210710736,20.83300982222824
P5163,2025-06-03 00:00:00,28.2825,112.9075,61,长沙市,金峰园,望城区,1002.3,22.7,74,40.97734899946292,20.408359604677962
P5164,2025-06-03 00:00:00,28.2931,112.8494,54,长沙市,李家祠堂,望城区,1003.5,22.0,83,45.32344579750063,21.93547665305786
P5165,2025-06-03 00:00:00,28.5281,113.3594,78,长沙市,石壁湖,长沙县,1001.0,21.4,81,35.6546831494288,20.635389510561822
P5175,2025-06-03 00:00:00,28.4675,113.3308,61.1,长沙市,锦绣,长沙县,1000.2,22.1,83,46.01817520836925,22.06972706027966
P5187,2025-06-03 00:00:00,28.49,113.1111,53,长沙市,新桥,长沙县,1002.5,21.1,91,44.73101306365457,22.759948108418726
P5188,2025-06-03 00:00:00,28.4061,112.9925,85,长沙市,北山水库,长沙县,998.0,21.5,84,46.832649740461996,21.531229977893567
P5189,2025-06-03 00:00:00,28.4369,112.9975,64,长沙市,洞阳,望城区,1001.2,21.5,85,44.88487571957078,21.78755414429706
P5190,2025-06-03 00:00:00,28.2758,112.9675,32,长沙市,江湾,开福区,1004.2,22.3,79,42.33168951567758,21.263744826470827
P5195,2025-06-03 00:00:00,28.4267,112.9922,120,长沙市,黑麋峰,望城区,993.7,22.8,81,44.47647148075651,22.474879305677636
P5199,2025-06-03 00:00:00,27.975,113.7275,125,长沙市,大瑶,浏阳市,993.3,21.0,92,49.74125099178966,22.86903005834762
P5201,2025-06-03 00:00:00,28.4103,113.22,52,长沙市,明月,长沙县,1002.6,21.5,85,43.53822130670646,21.78755414429706
P5206,2025-06-03 00:00:00,28.3222,113.3075,66,长沙市,红旗水库,长沙县,1000.8,21.4,87,40.742041045926605,22.163936881714548
P5215,2025-06-03 00:00:00,28.4372,113.6556,268,长沙市,周洛,浏阳市,976.7,20.2,98,46.36751494894107,23.18747377026687
P5218,2025-06-03 00:00:00,28.2203,112.9436,49,长沙市,咸嘉湖,岳麓区,1003.3,22.7,78,48.7390176749359,21.5115141779038
P5221,2025-06-03 00:00:00,28.4306,113.5953,145,长沙市,石牛,浏阳市,991.3,20.2,90,43.932299351484396,21.29461876861243
P5225,2025-06-03 00:00:00,28.2489,113.0753,61,长沙市,县政府,长沙县,1001.5,23.2,72,43.071878621451816,20.46769618992794
P5230,2025-06-03 00:00:00,28.2311,112.6875,41,长沙市,天马新村,宁乡市,1003.0,20.6,90,41.30668595000123,21.8274186883164
P5231,2025-06-03 00:00:00,28.3489,112.8297,44,长沙市,望府路,望城区,1003.4,22.6,77,40.59560037837315,21.107128372520716
P5233,2025-06-03 00:00:00,28.2806,112.5453,67,长沙市,玉潭,宁乡市,1000.5,22.1,74,38.24276955972749,19.67662412603247
P5235,2025-06-03 00:00:00,28.4014,113.1228,69,长沙市,和平,长沙县,999.9,21.4,78,38.59648546853107,19.871115824985456
P5245,2025-06-03 00:00:00,28.3578,113.7469,192,长沙市,宝盖寺,浏阳市,987.6,20.4,90,43.98837677249353,21.55957478647642
P5249,2025-06-03 00:00:00,28.4283,114.1492,1437,长沙市,大围山,浏阳市,851.6,14.9,92,34.491212881952606,15.576595539165734
P5259,2025-06-03 00:00:00,28.4119,112.9264,47,长沙市,桥驿,望城区,1002.8,21.6,84,43.43902595672793,21.663505467766047
P5266,2025-06-03 00:00:00,28.225,112.1089,242,长沙市,石龙洞,宁乡市,980.3,19.3,96,53.95743413109942,21.47983752815259
P5269,2025-06-03 00:00:00,28.28,112.6847,60,长沙市,关山,宁乡市,1001.7,21.6,82,35.328065973355066,21.14770771853352
P5273,2025-06-03 00:00:00,28.32,112.7211,52,长沙市,乌山,望城区,1003.3,21.5,86,42.294911057823235,22.043878310700553
P5275,2025-06-03 00:00:00,28.3381,113.2011,41,长沙市,果园,长沙县,1004.0,21.7,86,36.87454911363612,22.315457023422347
P5281,2025-06-03 00:00:00,28.2647,112.9558,46,长沙市,观沙岭,岳麓区,1003.8,22.9,83,52.088957844040436,23.16991462817504
P5290,2025-06-03 00:00:00,28.3578,113.8136,136,长沙市,礼花,浏阳市,993.5,20.4,92,40.893270345999646,22.038676448398125
P5291,2025-06-03 00:00:00,28.4119,113.9247,125,长沙市,椒花水库,浏阳市,994.1,21.2,84,43.430552987045296,21.138642853026457
P5292,2025-06-03 00:00:00,28.2658,114.0942,207,长沙市,皇碑,浏阳市,984.8,20.8,83,44.125817815608116,20.379430080890668
P5293,2025-06-03 00:00:00,28.0658,113.5647,88,长沙市,青草,浏阳市,1000.2,21.1,85,39.199293759669246,21.259292189182325
P5294,2025-06-03 00:00:00,27.9958,113.7706,94,长沙市,澄潭江,浏阳市,996.8,21.3,84,38.72535720317938,21.268801893547135
P5295,2025-06-03 00:00:00,28.0739,113.9867,166,长沙市,岩前,浏阳市,987.8,20.3,86,45.25220088795518,20.474438012009482
P5296,2025-06-03 00:00:00,28.1881,113.5158,417,长沙市,菖蒲岭,浏阳市,960.4,19.0,100,44.199600583240624,21.960062889013276
P5298,2025-06-03 00:00:00,28.2083,112.7342,75,长沙市,白箬铺,望城区,1000.6,21.0,86,45.75450633291081,21.37757157628147
P5303,2025-06-03 00:00:00,28.3167,112.9208,43,长沙市,月亮岛公园,望城区,1004.6,22.7,86,54.785487304136126,23.71782332435547
P5304,2025-06-03 00:00:00,28.1058,112.9289,46,长沙市,大王山,岳麓区,1003.1,21.7,81,44.13432315863855,21.01804673136291
P5305,2025-06-03 00:00:00,28.0719,112.9189,39,长沙市,巴溪洲,岳麓区,1004.3,20.9,95,48.98013729295533,23.469916600787812
P5306,2025-06-03 00:00:00,28.1253,112.9214,30,长沙市,洋湖湿地,岳麓区,1005.0,22.3,81,42.897867273561275,21.802067480305535
P5307,2025-06-03 00:00:00,28.2764,112.8547,64,长沙市,观音岩水库,望城区,1001.0,21.4,88,33.14567316656396,22.41869477690667
P5309,2025-06-03 00:00:00,28.2733,112.8256,50,长沙市,黄金园,望城区,1002.6,21.5,86,38.98663054924755,22.043878310700553
P5314,2025-06-03 00:00:00,28.2231,113.1889,70,长沙市,黄龙小学,长沙县,1000.2,21.9,78,30.984153579436594,20.488572607429887
P5315,2025-06-03 00:00:00,28.2975,113.4322,74.4,长沙市,北盛,浏阳市,1000.0,21.5,90,42.58709944581028,23.069174976314535
P5322,2025-06-03 00:00:00,28.2247,112.2611,121,长沙市,喻家坳,宁乡市,995.1,20.5,84,40.55280766896468,20.24692514733035
P5323,2025-06-03 00:00:00,28.2836,113.9053,122,长沙市,铁山,浏阳市,993.3,20.7,90,39.908908517836196,21.962431938595405
P5328,2025-06-03 00:00:00,28.2336,112.9639,65,长沙市,岳北,岳麓区,1004.0,22.9,77,46.88752022382457,21.494981040596123
P5329,2025-06-03 00:00:00,28.4608,112.7889,44,长沙市,靖港电排,望城区,1004.8,22.2,87,51.96110628931333,23.274803015263952
P5330,2025-06-03 00:00:00,28.1872,112.9747,64,长沙市,天心公园,天心区,1002.3,22.4,78,43.20736299678556,21.122784699346056
P5331,2025-06-03 00:00:00,28.1886,111.9597,574,长沙市,沩山,宁乡市,940.3,19.2,72,23.11797436270358,16.00978837235813
P5332,2025-06-03 00:00:00,28.1672,113.1039,37,长沙市,敢胜,长沙县,1004.2,22.3,82,44.44730119532589,22.071228807222884
P5333,2025-06-03 00:00:00,28.145,112.9647,92,长沙市,南郊公园,天心区,999.0,21.9,79,41.97723591849665,20.751246615217447
P5335,2025-06-03 00:00:00,28.31,112.4928,78,长沙市,菁华铺,宁乡市,999.8,21.4,87,26.225367632134194,22.163936881714548
P5336,2025-06-03 00:00:00,28.1936,112.5236,67,长沙市,金州村,宁乡市,1000.6,20.7,90,44.925501575627095,21.962431938595405
P5337,2025-06-03 00:00:00,28.1239,112.23,112,长沙市,云山,宁乡市,996.4,20.8,81,33.88042401031164,19.888359476531857
P5339,2025-06-03 00:00:00,28.0281,112.0342,348,长沙市,草冲,宁乡市,968.6,19.8,86,45.436789076725844,19.850008286080918
P5342,2025-06-03 00:00:00,27.9244,112.1153,201,长沙市,田心铺,宁乡市,986.3,19.9,84,34.68722441985316,19.509038786291867
P5343,2025-06-03 00:00:00,28.1831,112.765,70,长沙市,牌楼坝,望城区,1000.0,21.4,85,47.22449737221295,21.654421091330303
P5345,2025-06-03 00:00:00,28.2161,112.8033,36,长沙市,真人桥,望城区,1000.1,22.1,87,48.45753708032434,23.133328364389527
P5346,2025-06-03 00:00:00,28.2114,112.9578,36,长沙市,银盆岭,岳麓区,1004.1,22.6,76,43.074168987690925,20.83300982222824
P5347,2025-06-03 00:00:00,28.1581,112.9825,104,长沙市,七里庙,雨花区,997.9,22.7,93,47.302063093145165,25.648343827500685
P5348,2025-06-03 00:00:00,28.0739,113.1175,122,长沙市,冬斯港,雨花区,995.4,21.0,87,51.78658223809064,21.62614798995916
P5352,2025-06-03 00:00:00,28.3069,113.7983,106,长沙市,沿溪,浏阳市,997.7,21.6,92,46.980005936936976,23.72669646469615
P5359,2025-06-03 00:00:00,28.185,113.8469,121,长沙市,株树桥水库,浏阳市,995.3,20.6,88,39.63045935133907,21.342364939687148
P5363,2025-06-03 00:00:00,28.2042,114.0764,223,长沙市,小河,浏阳市,981.5,21.0,84,37.28843749101695,20.880418748926086
P5372,2025-06-03 00:00:00,28.2153,113.1131,58,长沙市,长桥公园,长沙县,1001.9,22.3,77,35.95607957871513,20.725422172636126
P5373,2025-06-03 00:00:00,28.1264,112.0311,192,长沙市,联花,宁乡市,987.5,19.5,91,46.59861211866448,20.61618510964425
P5382,2025-06-03 00:00:00,28.0978,112.7422,59,长沙市,莲花,岳麓区,1000.8,21.4,92,42.679910972989866,23.437726357675153
P5383,2025-06-03 00:00:00,28.1314,112.9047,38,长沙市,学士,岳麓区,1004.5,22.0,78,41.705196163371646,20.614062396849558
P5384,2025-06-03 00:00:00,28.1669,112.945,34,长沙市,天马,岳麓区,1004.5,22.3,78,43.96752202814997,20.994583499553475
P5387,2025-06-03 00:00:00,28.4106,113.0097,88,长沙市,蒿塘,长沙县,1000.7,22.0,84,47.07253591381336,22.19975950429952
P5388,2025-06-03 00:00:00,28.1344,112.6739,74,长沙市,泉水冲水库,岳麓区,999.7,20.5,100,49.39507446535692,24.103482318250418
P5390,2025-06-03 00:00:00,28.0997,112.8567,60,长沙市,含浦,岳麓区,1000.4,21.0,86,45.701637831576,21.37757157628147
P5398,2025-06-03 00:00:00,28.0856,113.8717,189,长沙市,中和,浏阳市,986.6,20.1,89,45.13241573187367,20.928068581700725
P5404,2025-06-03 00:00:00,28.1303,113.3728,122,长沙市,江背,长沙县,993.4,21.3,86,43.919771773332556,21.77520193863159
P5416,2025-06-03 00:00:00,28.1031,111.9381,287,长沙市,巷子口,宁乡市,976.2,19.8,81,39.8740850507331,18.69593803689017
P5420,2025-06-03 00:00:00,28.1178,112.9831,79,长沙市,天心区政府,天心区,999.2,21.9,82,44.95739142925218,21.539268638580133
P5421,2025-06-03 00:00:00,28.0331,112.7922,44,长沙市,含浦干子,岳麓区,1002.6,21.0,89,43.111131076008625,22.123300817314544
P5426,2025-06-03 00:00:00,28.5369,113.3522,82,长沙市,金井茶场,长沙县,999.2,21.5,79,33.949947039276715,20.24960914587609
P5431,2025-06-03 00:00:00,28.0792,113.4703,98,长沙市,葛家,浏阳市,997.3,20.9,96,53.90762187173488,23.716968354480315
P5434,2025-06-03 00:00:00,28.1975,113.0539,60,长沙市,东岸,芙蓉区,1004.7,23.2,78,47.35063145662869,22.1733375390886
P5436,2025-06-03 00:00:00,28.0397,112.9897,90,长沙市,省气象局,天心区,999.9,21.4,89,50.11805013390774,22.67345267209879
P5437,2025-06-03 00:00:00,28.2036,112.9086,37,长沙市,梅溪湖,岳麓区,1004.1,22.4,82,42.645243517228636,22.206004427517644
P5438,2025-06-03 00:00:00,28.2119,113.0339,31,长沙市,马王堆,芙蓉区,1004.5,22.8,81,47.05538365338481,22.474879305677636
P5439,2025-06-03 00:00:00,28.2061,113.0594,75,长沙市,马坡岭,芙蓉区,1001.8,21.7,84,43.85657843006547,21.796492906598573
P5440,2025-06-03 00:00:00,28.1908,113.0242,41,长沙市,荷花园,芙蓉区,1004.6,22.7,87,54.58246845486343,23.99361196766193
P5441,2025-06-03 00:00:00,28.1986,113.0028,36,长沙市,晓园公园,芙蓉区,1004.1,23.0,74,42.029778230295406,20.783087982529473
P5442,2025-06-03 00:00:00,28.2589,112.9797,28,长沙市,开福区政府,开福区,1004.8,22.3,79,44.27107608148715,21.263744826470827
P5443,2025-06-03 00:00:00,28.2386,112.9956,32,长沙市,科大佳园,开福区,1004.8,23.0,78,46.56003347128867,21.90649814374728
P5444,2025-06-03 00:00:00,28.3419,112.9292,52,长沙市,金盆丘,开福区,1002.9,22.5,78,40.232765175282445,21.25167147041905
P5445,2025-06-03 00:00:00,28.2378,113.0133,29,长沙市,四方坪,开福区,1004.8,22.7,78,46.90456493520414,21.5115141779038
P5446,2025-06-03 00:00:00,28.235,112.9736,44,长沙市,新河,开福区,1004.7,22.4,77,44.69127499918994,20.85197976730316
P5447,2025-06-03 00:00:00,27.9856,112.0058,250,长沙市,田坪,宁乡市,979.3,19.7,93,53.49397485712823,21.332845957641457
P5459,2025-06-03 00:00:00,28.0453,112.6447,80,长沙市,花明楼,宁乡市,1000.1,20.6,89,43.76024739237921,21.58489181400177
P5463,2025-06-03 00:00:00,28.0794,112.9858,58,长沙市,黑石铺,天心区,1001.4,21.8,84,46.293247558620024,21.93019554715574
P5467,2025-06-03 00:00:00,27.9956,113.4331,81,长沙市,书院,浏阳市,998.4,20.5,90,47.21185813180886,21.693134086425374
P5471,2025-06-03 00:00:00,27.9542,113.6558,145,长沙市,杨花,浏阳市,991.1,21.0,81,45.130503393870434,20.134689507893015
P5484,2025-06-03 00:00:00,28.0486,113.9253,154,长沙市,文家市,浏阳市,991.7,21.0,84,30.79688949087267,20.880418748926086
P5486,2025-06-03 00:00:00,28.0297,112.2636,128,长沙市,枫木桥,宁乡市,992.5,20.2,90,56.18802573101642,21.29461876861243
P5488,2025-06-03 00:00:00,28.0275,112.3783,80,长沙市,双盆,宁乡市,998.7,20.8,85,35.61651973638534,20.870500685249475
P5499,2025-06-03 00:00:00,28.0056,112.985,51,长沙市,花园岭,天心区,1001.9,20.9,93,47.59917541391753,22.97581309340281
P5500,2025-06-03 00:00:00,28.1356,112.9936,91,长沙市,林科大,天心区,997.7,21.7,80,37.19551476347826,20.758564672951024
P5501,2025-06-03 00:00:00,28.1917,112.9411,49,长沙市,湖南师大,岳麓区,1002.5,22.9,80,50.52850775631679,22.332447834385583
P5508,2025-06-03 00:00:00,27.9989,112.1214,129,长沙市,流沙河,宁乡市,994.2,20.4,88,46.09390763707077,21.080473124554725
P5509,2025-06-03 00:00:00,27.9139,113.6867,90,长沙市,金刚,浏阳市,997.8,21.6,82,35.76707598325527,21.14770771853352
P5514,2025-06-03 00:00:00,27.9664,112.3169,106,长沙市,花果山,宁乡市,995.7,21.2,87,52.88686256840711,21.893594383491692
P5593,2025-06-03 00:00:00,28.3967,113.01,70,长沙市,北山文化站,长沙县,1001.3,23.1,80,44.63620438707646,22.6046810780554
P5599,2025-06-03 00:00:00,28.2008,112.9164,37,长沙市,望城坡,岳麓区,1004.2,22.4,79,47.10289870291963,21.393589631388952
P5600,2025-06-03 00:00:00,28.3558,112.7844,64,长沙市,望城,望城区,1002.5,21.5,85,41.164377664886636,21.78755414429706
P5647,2025-06-03 00:00:00,28.1706,113.1258,41,长沙市,花园,长沙县,1003.9,22.2,81,47.66154274232466,21.66964418662506
P5648,2025-06-03 00:00:00,28.5453,113.4511,82,长沙市,龙华山,长沙县,994.1,21.0,89,41.864294572471614,22.123300817314544
P5653,2025-06-03 00:00:00,28.2256,113.0103,38,长沙市,马栏山,开福区,1003.9,22.8,76,39.941484952627775,21.0875410769321
P5700,2025-06-03 00:00:00,27.9969,113.1928,63.5,株洲市,云田,石峰区,1001.4,21.2,100,48.9518339349066,25.16505101550769
P5702,2025-06-03 00:00:00,27.8203,113.1147,100,株洲市,神农湖,天元区,997.1,21.1,85,44.876668903489914,21.259292189182325
P5703,2025-06-03 00:00:00,27.9508,113.1778,62,株洲市,龙升,石峰区,1001.9,20.7,95,44.8373796954708,23.182567046295148
P5704,2025-06-03 00:00:00,27.9656,113.23,83,株洲市,黄塘,荷塘区,999.2,20.7,90,41.52617098112266,21.962431938595405
P5705,2025-06-03 00:00:00,27.9417,113.2475,115,株洲市,仙庾岭,荷塘区,997.6,20.7,90,48.32796358545047,21.962431938595405
P5706,2025-06-03 00:00:00,27.9267,113.0711,95,株洲市,白马,石峰区,1002.0,20.8,87,47.449856452043996,21.36157128960829
P5707,2025-06-03 00:00:00,27.9567,113.1653,63,株洲市,龙头铺,石峰区,1001.7,20.6,94,51.103219799463304,22.797526185574906
P5708,2025-06-03 00:00:00,27.8642,113.2342,116,株洲市,金山,荷塘区,995.2,20.0,92,51.535389649892885,21.499913535339278
P5709,2025-06-03 00:00:00,27.8803,113.0744,49,株洲市,清水塘,石峰区,1003.0,20.8,89,44.00996059756381,21.8526418939671
P5711,2025-06-03 00:00:00,27.9042,113.2058,52,株洲市,明照,荷塘区,1002.7,21.0,89,43.097268106893424,22.123300817314544
P5712,2025-06-03 00:00:00,27.9522,113.1381,54,株洲市,鸡嘴山,石峰区,1002.7,20.9,89,45.24788826860342,21.987606078632794
P5715,2025-06-03 00:00:00,27.6842,113.4639,62.2,株洲市,国瓷,醴陵市,999.6,21.4,87,47.759038401144046,22.163936881714548
P5716,2025-06-03 00:00:00,27.8286,113.4711,200.6,株洲市,横江,醴陵市,984.8,19.9,88,36.99193616788019,20.438040633258147
P5717,2025-06-03 00:00:00,27.8192,113.2322,76,株洲市,白关,芦淞区,1001.9,20.6,91,42.14925522913478,22.069945562631027
P5718,2025-06-03 00:00:00,27.8486,113.2667,45,株洲市,大京水库,芦淞区,995.1,20.4,93,51.317270917335485,22.278227279358973
P5720,2025-06-03 00:00:00,27.7717,113.2061,71,株洲市,董家塅,芦淞区,1000.3,21.1,77,42.56584512654138,19.25841763020046
P5721,2025-06-03 00:00:00,27.8081,113.0839,63,株洲市,栗雨,天元区,1001.2,21.2,86,50.10677447706544,21.64194387333661
P5722,2025-06-03 00:00:00,27.8814,113.4278,123.5,株洲市,官庄水库,醴陵市,993.5,20.3,100,49.88979896023604,23.807486060476144
P5723,2025-06-03 00:00:00,27.8264,113.3458,109,株洲市,楠木山,芦淞区,996.2,19.9,91,51.30887476854982,21.13479201848286
P5724,2025-06-03 00:00:00,27.8683,113.6172,180,株洲市,洪源,醴陵市,987.7,21.1,85,41.578395996429606,21.259292189182325
P5726,2025-06-03 00:00:00,27.7992,113.1581,58,株洲市,新谭,芦淞区,1003.2,21.5,83,52.159505205975464,21.274905811490072
P5727,2025-06-03 00:00:00,27.8092,113.2158,67,株洲市,五里墩,芦淞区,1001.9,20.8,93,38.97459713898425,22.834783102684725
