Station_Id_C,Datetime,Lat,Lon,Alti,City,Station_Name,Cnty,PRS,TEM,RHU,PWV,VAP
57544,2025-06-03 04:00:00,29.4583,109.4433,485.4,湘西土家族苗族自治州,龙山,龙山县,954.6,23.0,73,40.5,20.50223544222502
57554,2025-06-03 04:00:00,29.4011,110.1622,318.8,张家界市,桑植,桑植县,972.2,25.1,68,43.2,21.667403638432614
57558,2025-06-03 04:00:00,29.1183,110.4172,218.5,张家界市,张家界,永定区,983.6,26.1,69,44.9,23.33197280841375
57562,2025-06-03 04:00:00,29.5833,111.3633,119,常德市,石门,石门县,994.9,26.8,60,42.2,21.1447767328269
57564,2025-06-03 04:00:00,29.4317,111.0892,168.7,张家界市,慈利,慈利县,988.3,25.9,75,41,25.06213574132472
57565,2025-06-03 04:00:00,29.6669,111.7253,40.2,常德市,澧县,澧县,1003.7,27.4,59,41.6,21.538492566723452
57566,2025-06-03 04:00:00,29.4692,111.67,86,常德市,临澧,临澧县,998.0,26.1,67,32.80760282309271,22.655683741503207
57574,2025-06-03 04:00:00,29.3517,112.4317,40.3,益阳市,南县,南县,1003.6,27.8,56,40.38319146962263,20.927691352197073
57575,2025-06-03 04:00:00,29.525,112.5567,49.4,岳阳市,华容,华容县,1002.7,26.7,58,40.7,20.31988890608483
57577,2025-06-03 04:00:00,29.4103,112.205,42.2,常德市,安乡,安乡县,1004.4,27.2,67,40.8,24.173627419728533
57584,2025-06-03 04:00:00,29.3808,113.088,52.7,岳阳市,岳阳,岳阳楼区,1002.6,25.5,72,37.4,23.494988888244293
57585,2025-06-03 04:00:00,29.4814,113.4478,64,岳阳市,临湘,临湘市,1001.4,27.1,50,36.7,17.934367510286346
57587,2025-06-03 04:00:00,29.1914,113.1092,48.4,岳阳市,洞庭湖,岳阳县,1002.7,26.8,64,41.13354058449921,22.554428515015363
57640,2025-06-03 04:00:00,28.5364,109.4625,532.8,湘西土家族苗族自治州,花垣,花垣县,949.0,23.5,73,41.12197240083209,21.13156778789583
57642,2025-06-03 04:00:00,28.6808,109.6481,438.1,湘西土家族苗族自治州,保靖,保靖县,959.8,23.6,74,44.157604497466075,21.550670179913414
57643,2025-06-03 04:00:00,29.0083,109.8383,272.6,湘西土家族苗族自治州,永顺,永顺县,978.2,24.4,75,42.4,22.918253326334497
57646,2025-06-03 04:00:00,28.6222,109.9469,318,湘西土家族苗族自治州,古丈,古丈县,972.8,25.7,72,44,23.775853101803236
57649,2025-06-03 04:00:00,28.2381,109.6825,253.6,湘西土家族苗族自治州,吉首,吉首市,979.7,25.4,66,45.9,21.409344562702735
57655,2025-06-03 04:00:00,28.4633,110.4031,151.6,怀化市,沅陵县,沅陵县,991.6,24.5,70,44.5,21.518942323240005
57657,2025-06-03 04:00:00,28.21,110.2286,216.4,湘西土家族苗族自治州,泸溪,泸溪县,984.0,24.4,75,49.601885874223065,22.918253326334497
57658,2025-06-03 04:00:00,28.0069,110.1928,155.3,怀化市,辰溪,辰溪县,991.5,24.5,75,46.9,23.056009632042862
57661,2025-06-03 04:00:00,28.9133,111.4797,51.1,常德市,桃源,桃源县,1002.9,27.5,67,44.6,24.60273624142226
57662,2025-06-03 04:00:00,29.1164,111.6767,151.4,常德市,常德,武陵区,991.2,26.6,64,43.3,22.29014519299812
57663,2025-06-03 04:00:00,28.9203,111.9583,36.2,常德市,汉寿,汉寿县,1004.5,27.1,59,42.8,21.16255366213789
57666,2025-06-03 04:00:00,28.5159,112.1366,139.4,益阳市,桃江,桃江县,992.6,26.5,57,42.6,19.735378962482375
57669,2025-06-03 04:00:00,28.3847,111.2203,129.8,益阳市,安化,安化县,986.1,27.1,60,45.6,21.521241012343612
57671,2025-06-03 04:00:00,28.84,112.3722,43.7,益阳市,沅江,沅江市,1003.8,27.7,61,41.1,22.663315342915208
57673,2025-06-03 04:00:00,28.7283,112.9253,63,岳阳市,湘阴,湘阴县,1001.2,26.4,62,37.1244805377559,21.340180893625384
57674,2025-06-03 04:00:00,28.5722,112.3783,49.6,益阳市,赫山,赫山区,994.9,27.1,59,46.5,21.16255366213789
57678,2025-06-03 04:00:00,28.2514,112.5433,60.9,长沙市,宁乡,宁乡市,999.6,26.9,54,44.9,19.142657922375324
57679,2025-06-03 04:00:00,28.2117,113.1972,103.6,长沙市,长沙黄花,长沙县,996.6,26.0,63,49.7,21.1773247647653
57680,2025-06-03 04:00:00,28.8565,113.1071,82,岳阳市,汨罗,汨罗市,999.4,27.3,54,41.1,19.597914473516695
57682,2025-06-03 04:00:00,28.7117,113.5717,106.9,岳阳市,平江,平江县,995.9,26.9,52,42.8,18.43367059191698
57687,2025-06-03 04:00:00,28.1086,112.7864,119,长沙市,长沙,岳麓区,994.5,26.3,59,39.09368926865853,20.18795417402334
57688,2025-06-03 04:00:00,28.1561,113.6308,102.6,长沙市,浏阳,浏阳市,996.4,26.5,59,55.1,20.42784839976246
57740,2025-06-03 04:00:00,27.9528,109.5953,353,湘西土家族苗族自治州,凤凰,凤凰县,969.0,25.1,66,44.3,21.030127060831653
57743,2025-06-03 04:00:00,27.8586,109.8139,176.8,怀化市,麻阳国家基本观测站,麻阳苗族自治县,986.4,24.8,71,47.7,22.22171010481349
57744,2025-06-03 04:00:00,27.3682,109.1635,353,怀化市,新晃,新晃侗族自治县,969.0,24.2,68,45.7,20.53137677735826
57745,2025-06-03 04:00:00,27.4547,109.6811,272.2,怀化市,芷江,芷江侗族自治县,978.3,24.7,69,45.793368043944945,21.467002578731545
57749,2025-06-03 04:00:00,27.6069,110.0306,286.9,怀化市,怀化,鹤城区,976.3,24.6,70,47.52372920447252,21.64819091543885
57752,2025-06-03 04:00:00,27.9125,110.6008,207.4,怀化市,溆浦,溆浦县,985.3,23.9,70,45.2,20.75754300224743
57754,2025-06-03 04:00:00,27.2117,109.8353,252,怀化市,洪江,洪江市,980.2,24.7,64,43.091509611435484,19.911422681722016
57758,2025-06-03 04:00:00,27.0253,110.6067,342.2,邵阳市,洞口,洞口县,970.2,24.4,64,47.6,19.556909505138773
57760,2025-06-03 04:00:00,27.6964,111.4367,249.2,娄底市,冷水江,冷水江市,979.9,24.8,67,39.35949209737477,20.96978277496484
57761,2025-06-03 04:00:00,27.7467,111.2939,215.4,娄底市,新化,新化县,984.4,25.3,62,45.1,19.99244418924676
57762,2025-06-03 04:00:00,27.6961,111.7033,167.2,娄底市,涟源,涟源市,979.9,25.3,58,48,18.702609080263098
57763,2025-06-03 04:00:00,27.6911,112.0019,155.5,娄底市,娄底,娄底市,985.0,25.7,64,47.5,21.13409164604732
57765,2025-06-03 04:00:00,27.325,110.4072,1386.6,怀化市,雪峰山,洪江市,857.8,17.8,76,31.705063940122553,15.479461895383684
57766,2025-06-03 04:00:00,27.185,111.4536,311,邵阳市,邵阳,大祥区,973.2,25.1,57,29.482997357161967,18.162382461627335
57767,2025-06-03 04:00:00,27.1133,111.0325,310.8,邵阳市,隆回,隆回县,973.6,25.3,58,46.4,18.702609080263098
57768,2025-06-03 04:00:00,27.3411,111.4464,294.1,邵阳市,新邵,新邵县,974.8,25.6,68,46.2,22.32199731591988
57769,2025-06-03 04:00:00,27.2375,111.7361,253.9,邵阳市,邵东,邵东市,974.0,25.3,64,47.5,20.637361743738595
57771,2025-06-03 04:00:00,27.8867,112.5925,127.6,湘潭市,韶山,韶山市,993.6,27.4,51,35.18129733025217,18.61801899835417
57772,2025-06-03 04:00:00,27.751,112.5059,86.9,湘潭市,湘乡,湘乡市,998.3,26.6,54,48.8,18.807310006592168
57773,2025-06-03 04:00:00,27.8756,112.8275,63.8,湘潭市,湘潭观测站,雨湖区,1000.8,26.4,58,41.740957195493905,19.96339502952052
57774,2025-06-03 04:00:00,27.4486,112.1733,103.1,娄底市,双峰,双峰县,990.6,25.6,61,52.3,20.02414465104577
57776,2025-06-03 04:00:00,27.2961,112.6936,1265.9,衡阳市,南岳,南岳区,870.7,17.0,83,41.165703330051876,16.071589285423915
57777,2025-06-03 04:00:00,27.2581,112.8372,159.1,衡阳市,衡山,衡山县,989.8,25.9,63,42.6628820972468,21.05219402271277
57778,2025-06-03 04:00:00,27.0525,112.9847,112.4,衡阳市,衡东,衡东县,995.6,24.1,78,53.3,23.409670232793964
57779,2025-06-03 04:00:00,27.0556,113.3528,115.2,株洲市,攸县,攸县,994.9,23.7,82,51.4,24.024875909531296
57780,2025-06-03 04:00:00,27.8689,113.1736,74.6,株洲市,株洲,荷塘区,999.3,26.6,57,32.47769073051954,19.85216056251395
57781,2025-06-03 04:00:00,27.6406,113.5069,75.9,株洲市,醴陵,醴陵市,999.9,24.8,65,53.7,20.34381911004052
57841,2025-06-03 04:00:00,26.5619,109.6736,322.5,怀化市,靖州,靖州苗族侗族自治县,971.9,25.1,66,49.3,21.030127060831653
57842,2025-06-03 04:00:00,26.8767,109.7208,287.8,怀化市,会同,会同县,976.7,24.5,65,49,19.98187501443715
57845,2025-06-03 04:00:00,26.1589,109.7778,400.2,怀化市,通道,通道侗族自治县,962.9,24.7,57,48.5,17.733610825908666
57846,2025-06-03 04:00:00,26.5867,110.1419,382.7,邵阳市,绥宁,绥宁县,965.2,25.6,66,47.4,21.665467983098704
57851,2025-06-03 04:00:00,26.4418,110.8528,348.4,邵阳市,新宁,新宁县,969.3,23.9,83,51.3,24.612515274093383
57853,2025-06-03 04:00:00,26.7386,110.6371,340.1,邵阳市,武冈,武冈市,970.3,24.3,55,47.9,16.70622663275734
57857,2025-06-03 04:00:00,26.3726,110.311,479.1,邵阳市,城步,城步苗族自治县,954.6,24.5,56,48.3,17.215153858592007
57860,2025-06-03 04:00:00,27.0022,111.2884,288.5,邵阳市,邵阳县,邵阳县,968.1,24.5,63,51.1,19.367048090916008
57865,2025-06-03 04:00:00,26.4956,111.6161,192.8,永州市,冷水滩,冷水滩区,986.5,25.7,65,43.539517041150795,21.46431182801681
57866,2025-06-03 04:00:00,26.226,111.6167,173.4,永州市,永州,零陵区,988.7,23.5,70,53.7,20.26314719387271
57867,2025-06-03 04:00:00,26.4025,111.2892,174.9,永州市,东安,东安县,988.8,24.0,67,50.8,19.98780384228158
57868,2025-06-03 04:00:00,26.5494,111.8622,163.3,永州市,祁阳,祁阳市,989.4,25.6,56,34.84503522269599,18.382821318992843
57870,2025-06-03 04:00:00,26.7633,112.0825,218.9,衡阳市,祁东,祁东县,983.1,26.1,60,52.2,20.288672007316304
57871,2025-06-03 04:00:00,26.9742,112.3669,90.8,衡阳市,衡阳县,衡阳县,997.7,25.6,62,37.35250890275191,20.352409317456356
57872,2025-06-03 04:00:00,26.9775,112.5942,122.1,衡阳市,衡阳,石鼓区,994.4,25.5,61,55.1,19.90547669698475
57874,2025-06-03 04:00:00,26.4092,112.3939,119,衡阳市,常宁,常宁市,994.8,24.7,67,54.3,20.844770619927733
57875,2025-06-03 04:00:00,26.755,112.6914,137,衡阳市,衡南,衡南县,992.3,25.8,73,44.45819536756516,24.24956934978745
57876,2025-06-03 04:00:00,26.4278,112.8292,138,衡阳市,耒阳,耒阳市,992.6,24.4,70,54.3,21.390369771245528
57881,2025-06-03 04:00:00,26.7139,113.2586,104.8,郴州市,安仁,安仁县,986.2,22.7,82,59.1,22.61466875112963
57882,2025-06-03 04:00:00,26.7892,113.545,133.2,株洲市,茶陵,茶陵县,992.2,24.5,71,41.26559964082075,21.82635578500058
57886,2025-06-03 04:00:00,26.4778,113.7922,273.2,株洲市,炎陵,炎陵县,977.2,23.5,59,52.5,17.078938349121287
57887,2025-06-03 04:00:00,26.1192,113.1144,169.4,郴州市,永兴,永兴县,988.6,25.0,69,54.6,21.855263109692263
57889,2025-06-03 04:00:00,26.0797,113.9447,834.1,郴州市,桂东,桂东县,914.4,22.2,72,36.07474462985593,19.26190594366672
57962,2025-06-03 04:00:00,25.9617,111.6544,206.7,永州市,双牌,双牌县,984.7,22.7,78,54.5,21.5115141779038
57965,2025-06-03 04:00:00,25.5339,111.5958,192.7,永州市,道县,道县,985.9,24.6,65,52.7,20.10189156433608
57966,2025-06-03 04:00:00,25.5947,111.9594,243.1,永州市,宁远,宁远县,979.8,24.9,68,54.4,21.41030814445812
57969,2025-06-03 04:00:00,25.2758,111.3106,259.4,永州市,江永,江永县,976.9,25.4,69,40.29408557772061,22.38249658828013
57971,2025-06-03 04:00:00,25.9117,112.2067,227.4,永州市,新田,新田县,982.5,24.1,69,53.6,20.70855443670235
57972,2025-06-03 04:00:00,25.7356,112.9772,368.6,郴州市,郴州,北湖区,965.9,22.5,78,41.1377738573399,21.25167147041905
57973,2025-06-03 04:00:00,25.7494,112.7247,329.8,郴州市,桂阳,桂阳县,970.7,23.2,71,53.2,20.183422631734494
57974,2025-06-03 04:00:00,25.5814,112.3653,214.5,郴州市,嘉禾,嘉禾县,983.3,25.4,60,30.7354646268481,19.46304051154794
57975,2025-06-03 04:00:00,25.4006,112.1678,345.9,永州市,蓝山,蓝山县,968.5,24.0,72,44.51658466868791,21.479430994690652
57976,2025-06-03 04:00:00,25.4058,112.9406,225.2,郴州市,宜章,宜章县,981.3,25.9,66,57.4,22.054679452365757
57978,2025-06-03 04:00:00,25.2731,112.5461,295.7,郴州市,临武,临武县,974.0,23.6,75,53,21.841895452614946
57981,2025-06-03 04:00:00,25.9744,113.2169,142.2,郴州市,资兴,资兴市,991.6,24.0,77,55.8,22.971058147099725
57985,2025-06-03 04:00:00,25.5558,113.6881,648.2,郴州市,汝城,汝城县,934.7,21.1,91,54.6,22.759948108418726
59063,2025-06-03 04:00:00,25.1819,111.5703,265.7,永州市,江华,江华瑶族自治县,977.0,24.4,64,35.11403265325275,19.556909505138773
P1000,2025-06-03 04:00:00,29.5819,109.5853,523,湘西土家族苗族自治州,石牌,龙山县,945.7,22.7,78,40.93720091575802,21.5115141779038
P1001,2025-06-03 04:00:00,29.4103,109.5969,803.2,湘西土家族苗族自治州,茨岩塘,龙山县,919.8,21.9,83,41.89952334355206,21.8019426463677
P1003,2025-06-03 04:00:00,29.3381,109.4894,848,湘西土家族苗族自治州,茅坪,龙山县,912.5,22.3,97,54.52225578081121,26.108648710983168
P1006,2025-06-03 04:00:00,29.2897,109.4136,1224,湘西土家族苗族自治州,可立坡,龙山县,874.7,19.8,68,25.443011738065156,15.695355388994217
P1009,2025-06-03 04:00:00,28.8125,109.3497,330.2,湘西土家族苗族自治州,树木,龙山县,970.1,23.2,100,54.89983771358635,28.427355819344356
P1016,2025-06-03 04:00:00,28.2761,109.6769,243.7,湘西土家族苗族自治州,红枫林场,吉首市,978.6,24.3,79,45.90275317913835,23.996216436142358
P1018,2025-06-03 04:00:00,29.1372,109.3714,791.6,湘西土家族苗族自治州,喳啦坪,龙山县,918.0,20.4,93,49.01109412345481,22.278227279358973
P1021,2025-06-03 04:00:00,29.0394,109.3542,338,湘西土家族苗族自治州,咱果,龙山县,968.9,23.8,74,43.557244415211045,21.811990591629275
P1060,2025-06-03 04:00:00,29.1431,109.6892,372,湘西土家族苗族自治州,两岔,永顺县,964.7,25.0,81,48.21454702125736,25.65617843311701
P1062,2025-06-03 04:00:00,29.0975,109.7117,307.2,湘西土家族苗族自治州,首车,永顺县,969.5,24.4,76,44.70711079817089,23.223830037352293
P1063,2025-06-03 04:00:00,28.9867,109.6683,434.2,湘西土家族苗族自治州,西歧,永顺县,960.0,23.9,76,41.21224599373298,22.536760973868642
P1066,2025-06-03 04:00:00,28.8458,110.1953,845.2,湘西土家族苗族自治州,三合,永顺县,913.1,21.8,84,39.22214868009703,21.93019554715574
P1069,2025-06-03 04:00:00,29.0336,110.2889,352.2,湘西土家族苗族自治州,永茂,永顺县,961.6,25.0,70,41.44990149355886,22.17200605331099
P1070,2025-06-03 04:00:00,29.0189,110.1378,543.6,湘西土家族苗族自治州,五里,永顺县,947.3,24.3,75,40.190353713136076,22.781218135578186
P1073,2025-06-03 04:00:00,28.8172,110.1172,218.7,湘西土家族苗族自治州,长官,永顺县,980.4,25.1,71,43.77622506548912,22.62331850483405
P1074,2025-06-03 04:00:00,28.8608,109.9961,615.3,湘西土家族苗族自治州,马鞍,永顺县,945.8,23.2,69,39.40374503704391,19.614875515347606
P1075,2025-06-03 04:00:00,29.2,109.8333,561.1,湘西土家族苗族自治州,李家,永顺县,942.8,23.2,77,41.52646267076391,21.889063980895155
P1076,2025-06-03 04:00:00,29.2864,109.8842,447.4,湘西土家族苗族自治州,毛坝,永顺县,955.8,23.7,75,40.7155484521894,21.973971868473747
P1077,2025-06-03 04:00:00,29.2017,109.9564,405.1,湘西土家族苗族自治州,隆发,永顺县,960.4,23.5,77,42.281470981186345,22.289461913259984
P1083,2025-06-03 04:00:00,29.1953,109.7719,750.7,湘西土家族苗族自治州,岩门,永顺县,923.9,22.6,84,41.8881349806992,23.025958224568054
P1084,2025-06-03 04:00:00,29.0697,110.2394,416,湘西土家族苗族自治州,青坪,永顺县,960.5,25.5,80,42.11949691857009,26.105543209160327
P1086,2025-06-03 04:00:00,29.1339,110.1864,401.2,湘西土家族苗族自治州,柯溪,永顺县,962.1,25.7,74,43.51975237318874,24.436293465742214
P1089,2025-06-03 04:00:00,29.0811,109.9828,625.8,湘西土家族苗族自治州,天堂,永顺县,937.2,21.9,81,39.46617302478931,21.276594630792577
P1091,2025-06-03 04:00:00,28.7372,109.965,486.3,湘西土家族苗族自治州,新区,永顺县,951.7,23.6,79,41.95021597711149,23.006796543421075
P1093,2025-06-03 04:00:00,28.8628,109.7828,399.7,湘西土家族苗族自治州,西那司,永顺县,961.9,23.7,80,44.14924378916874,23.438903326372
P1095,2025-06-03 04:00:00,29.2839,110.0114,435.2,湘西土家族苗族自治州,砂坝,永顺县,956.4,23.7,76,41.12602358180062,22.2669581600534
P1096,2025-06-03 04:00:00,28.9219,110.3042,576.2,湘西土家族苗族自治州,朗溪,永顺县,941.3,24.9,67,34.26877383625053,21.095450671745496
P1097,2025-06-03 04:00:00,28.8928,109.6961,441.7,湘西土家族苗族自治州,宝石,永顺县,954.9,22.8,80,42.0863161626477,22.197411659928527
P1098,2025-06-03 04:00:00,28.8408,109.2558,1225,湘西土家族苗族自治州,八面山景区,龙山县,873.5,18.7,66,26.920911364791873,14.224360162432173
P1099,2025-06-03 04:00:00,28.2106,109.5614,268.4,湘西土家族苗族自治州,黄石洞水库,吉首市,973.0,25.9,87,55.76169296975159,29.072077459936683
P1100,2025-06-03 04:00:00,28.4428,109.4178,544.4,湘西土家族苗族自治州,三塘,花垣县,948.4,24.3,71,44.679387211600435,21.566219835014017
P1101,2025-06-03 04:00:00,28.5158,109.5869,675.8,湘西土家族苗族自治州,排力,保靖县,930.6,23.3,79,42.956191293140435,22.59381951306125
P1103,2025-06-03 04:00:00,28.5381,109.7606,363,湘西土家族苗族自治州,葫芦,保靖县,966.7,24.4,73,48.60963444479883,22.307099904298912
P1104,2025-06-03 04:00:00,28.1497,109.3761,837.6,湘西土家族苗族自治州,两林,凤凰县,914.0,24.5,63,41.07865822729397,19.367048090916008
P1113,2025-06-03 04:00:00,28.61,109.3547,325.4,湘西土家族苗族自治州,毛沟,保靖县,970.0,24.9,74,42.50011306381893,23.29945298073383
P1127,2025-06-03 04:00:00,28.6269,109.5519,214.7,湘西土家族苗族自治州,复兴,保靖县,981.3,25.5,76,47.163433020753175,24.800266048702312
P1152,2025-06-03 04:00:00,28.5181,109.2814,301.4,湘西土家族苗族自治州,曲乐,花垣县,971.1,25.2,69,46.039464661161574,22.11750509026281
P1154,2025-06-03 04:00:00,28.4247,109.5,742.3,湘西土家族苗族自治州,排达鲁,花垣县,923.9,22.3,100,48.81774662175754,26.916132691735225
P1172,2025-06-03 04:00:00,28.4964,109.3892,520.6,湘西土家族苗族自治州,祥和,花垣县,948.3,25.2,79,51.4549171640173,25.322940610590756
P1173,2025-06-03 04:00:00,28.5092,109.4736,478.5,湘西土家族苗族自治州,兄弟河水库,花垣县,953.5,24.9,68,45.18396887663235,21.41030814445812
P1203,2025-06-03 04:00:00,28.6939,109.8253,382.8,湘西土家族苗族自治州,米多,古丈县,963.0,24.2,91,43.347490024759466,27.47581304028826
P1208,2025-06-03 04:00:00,28.4803,109.8911,271,湘西土家族苗族自治州,中寨,古丈县,975.1,25.5,71,41.128223259901425,23.16866959812979
P1231,2025-06-03 04:00:00,28.3511,109.9481,345.4,湘西土家族苗族自治州,大坪,吉首市,966.8,24.0,97,65.53012480750878,28.937566756736015
P1232,2025-06-03 04:00:00,28.3381,109.5619,622.2,湘西土家族苗族自治州,排兄,吉首市,935.7,23.3,93,60.51814345437082,26.597787528034132
P1233,2025-06-03 04:00:00,28.2128,109.695,265.6,湘西土家族苗族自治州,周家寨,吉首市,975.8,26.0,65,40.714036754170955,21.849620789043563
P1236,2025-06-03 04:00:00,28.2122,109.8067,176.6,湘西土家族苗族自治州,河溪,吉首市,986.3,26.2,65,42.46750932768432,22.10984224660473
P1240,2025-06-03 04:00:00,28.3172,109.6519,388,湘西土家族苗族自治州,寨阳炮点,吉首市,962.3,24.7,74,40.05614102081339,23.02258247574108
P1241,2025-06-03 04:00:00,28.3233,109.5911,212.6,湘西土家族苗族自治州,矮寨,吉首市,981.5,26.0,72,43.0045769016244,24.20265687401748
P1246,2025-06-03 04:00:00,28.2561,109.6425,176.2,湘西土家族苗族自治州,八月湖水库,吉首市,984.1,25.7,73,42.8413288071521,24.106073283772723
P1248,2025-06-03 04:00:00,28.2953,109.7417,275.3,湘西土家族苗族自治州,镇溪,吉首市,976.7,24.8,75,41.12088621881471,23.473637434662134
P1291,2025-06-03 04:00:00,28.2233,110.0886,290.9,湘西土家族苗族自治州,大长坡,泸溪县,973.2,24.8,74,46.16253912974199,23.160655602199974
P1295,2025-06-03 04:00:00,28.0111,109.9969,235.1,湘西土家族苗族自治州,公羊,泸溪县,979.7,25.6,78,52.23073420009302,25.60464398002574
P1298,2025-06-03 04:00:00,28.1747,109.9475,213.8,湘西土家族苗族自治州,白羊溪,泸溪县,981.5,25.3,72,40.21544397266282,23.21703196170592
P1300,2025-06-03 04:00:00,28.1306,109.7322,140.2,湘西土家族苗族自治州,水卡,泸溪县,984.9,25.8,74,48.43271834492807,24.581755231291385
P1302,2025-06-03 04:00:00,28.11,109.89,383.2,湘西土家族苗族自治州,永兴场,泸溪县,963.7,24.8,74,42.980852316184695,23.160655602199974
P1303,2025-06-03 04:00:00,28.1264,109.8864,345,湘西土家族苗族自治州,小章,泸溪县,966.7,25.6,68,33.651466676142185,22.32199731591988
P1304,2025-06-03 04:00:00,28.2622,109.9231,150,湘西土家族苗族自治州,潭溪,泸溪县,992.1,26.5,71,41.1275800476586,24.58266502344296
P1306,2025-06-03 04:00:00,28.2403,110.0172,130,湘西土家族苗族自治州,甘溪,泸溪县,993.3,25.7,72,45.17366164111006,23.775853101803236
P1307,2025-06-03 04:00:00,28.3397,110.0339,230.1,湘西土家族苗族自治州,梁家潭,泸溪县,981.4,24.9,75,47.42779771774988,23.61431045344645
P1321,2025-06-03 04:00:00,28.0744,110.0911,139,湘西土家族苗族自治州,罗家,泸溪县,991.9,24.8,74,48.074582806790374,23.160655602199974
P1333,2025-06-03 04:00:00,27.9553,109.9908,172.6,湘西土家族苗族自治州,石榴坪,泸溪县,988.3,24.9,81,50.91893108297334,25.50345528972217
P1345,2025-06-03 04:00:00,28.0725,109.3836,799.3,湘西土家族苗族自治州,腊尔山,凤凰县,917.6,24.9,47,22.070418732113797,14.79830121749311
P1346,2025-06-03 04:00:00,28.1683,109.6061,226,湘西土家族苗族自治州,拉务,凤凰县,980.2,26.5,88,56.560394821074404,30.46865524032367
P1347,2025-06-03 04:00:00,28.0433,109.4572,605.5,湘西土家族苗族自治州,山江,凤凰县,938.8,24.6,79,49.242497158203996,24.43152974742385
P1348,2025-06-03 04:00:00,28.095,109.6017,337.4,湘西土家族苗族自治州,吉信,凤凰县,969.0,27.0,84,53.71730848393418,29.953149899478802
P1349,2025-06-03 04:00:00,27.9136,109.3144,673.9,湘西土家族苗族自治州,龙塘河水库,凤凰县,931.2,24.4,67,42.39286794451087,20.47363963819215
P1357,2025-06-03 04:00:00,27.9906,109.5111,378.5,湘西土家族苗族自治州,长潭岗水库,凤凰县,963.8,26.2,68,45.11563131605997,23.130296504140336
P1358,2025-06-03 04:00:00,28.0781,109.7528,401.4,湘西土家族苗族自治州,雷公洞,凤凰县,961.1,26.6,83,58.40159202532893,28.90753204716944
P1359,2025-06-03 04:00:00,27.8781,109.4486,427.3,湘西土家族苗族自治州,新场中学,凤凰县,960.6,25.1,66,39.13230497073269,21.030127060831653
P1367,2025-06-03 04:00:00,27.8942,109.5522,398.9,湘西土家族苗族自治州,林峰,凤凰县,962.1,25.8,84,62.260802343667756,27.903614046330762
P1368,2025-06-03 04:00:00,27.9197,109.6119,322,湘西土家族苗族自治州,古城,凤凰县,969.2,25.3,66,45.52209975125684,21.282279298230428
P1370,2025-06-03 04:00:00,28.2753,109.7925,162.3,湘西土家族苗族自治州,马鞍,吉首市,988.0,25.5,71,39.651177865162474,23.16866959812979
P1371,2025-06-03 04:00:00,28.1964,109.9825,359.9,湘西土家族苗族自治州,马入田,泸溪县,966.2,25.5,58,30.836421219565764,18.926518826641235
P1372,2025-06-03 04:00:00,28.755,109.85,433.1,湘西土家族苗族自治州,红石林,古丈县,959.0,23.7,79,42.46401176336264,23.145917034792348
P1373,2025-06-03 04:00:00,28.4178,109.9347,236,湘西土家族苗族自治州,坪坝学校,古丈县,981.6,25.4,80,51.43116442827595,25.950720682063924
P1374,2025-06-03 04:00:00,28.1769,109.4631,766.4,湘西土家族苗族自治州,大坪,凤凰县,921.2,24.0,83,42.64150708455074,24.761010729990613
P1375,2025-06-03 04:00:00,28.0228,109.5153,444,湘西土家族苗族自治州,建塘,凤凰县,956.4,25.8,69,41.87660751652493,22.920825823771697
P1376,2025-06-03 04:00:00,28.4506,109.8275,339.8,湘西土家族苗族自治州,团结,吉首市,968.6,24.4,80,39.24287569472747,24.446136881423467
P1383,2025-06-03 04:00:00,28.7953,110.2147,765.7,湘西土家族苗族自治州,竹坪,永顺县,921.3,23.5,68,37.1320834137354,19.68420013119064
P1385,2025-06-03 04:00:00,28.4478,109.7886,222.1,湘西土家族苗族自治州,冷寨河茶园,保靖县,981.5,25.5,72,44.55764558949333,23.494988888244293
P1386,2025-06-03 04:00:00,28.7764,109.7872,444.3,湘西土家族苗族自治州,友和,永顺县,956.8,23.4,78,40.27659620799239,22.44302002850369
P1387,2025-06-03 04:00:00,29.1019,109.9569,411.8,湘西土家族苗族自治州,颗砂,永顺县,960.0,23.9,77,41.520533657142906,22.833297302472175
P1390,2025-06-03 04:00:00,29.5056,109.4525,526,湘西土家族苗族自治州,白泥,龙山县,948.2,22.7,77,43.6038924563546,21.235725534597343
P1393,2025-06-03 04:00:00,29.5736,109.7031,817.3,湘西土家族苗族自治州,乌鸦,龙山县,918.2,24.1,53,24.280773750441284,15.906570799206154
P1395,2025-06-03 04:00:00,29.1778,109.6242,590,湘西土家族苗族自治州,马蹄,龙山县,942.3,23.8,69,40.828901328392334,20.338207443546214
P1397,2025-06-03 04:00:00,28.9228,109.4531,327,湘西土家族苗族自治州,金星,龙山县,968.8,23.2,78,44.295802743808906,22.1733375390886
P1400,2025-06-03 04:00:00,28.3761,109.6114,780.8,湘西土家族苗族自治州,排料,花垣县,922.0,23.2,76,42.4221403383479,21.604790422701715
P1414,2025-06-03 04:00:00,28.9036,110.0658,714.9,湘西土家族苗族自治州,花桥,永顺县,927.4,24.2,75,39.782296658406906,22.644900857380428
P1415,2025-06-03 04:00:00,28.4339,109.7911,219,湘西土家族苗族自治州,隘口,吉首市,981.2,26.5,68,45.868125398459924,23.543960867522838
P1416,2025-06-03 04:00:00,29.4122,109.9217,352.6,湘西土家族苗族自治州,万民,永顺县,964.9,24.5,73,41.122206684374014,22.441182708521723
P1418,2025-06-03 04:00:00,27.8297,109.6186,448.7,湘西土家族苗族自治州,水打田,凤凰县,955.4,24.2,71,42.47667954802703,21.437172811653475
P1421,2025-06-03 04:00:00,27.9817,109.3531,650.8,湘西土家族苗族自治州,麻冲,凤凰县,933.4,23.7,70,42.57276338176567,20.509040410575494
P1422,2025-06-03 04:00:00,28.1561,109.7278,172.8,湘西土家族苗族自治州,大兴,吉首市,986.9,26.4,69,42.81936682475943,23.749556155808893
P1423,2025-06-03 04:00:00,28.3494,109.7561,174.4,湘西土家族苗族自治州,峒河,吉首市,986.6,24.7,73,46.253189609126665,22.711466496339174
P1424,2025-06-03 04:00:00,28.3158,109.8158,272.3,湘西土家族苗族自治州,深坳,吉首市,975.7,24.0,80,39.4595651703159,23.86603443854517
P1425,2025-06-03 04:00:00,28.3147,109.6806,262.5,湘西土家族苗族自治州,曙光,吉首市,976.7,26.4,69,42.785308017980334,23.749556155808893
P1438,2025-06-03 04:00:00,28.2097,109.6703,261.4,湘西土家族苗族自治州,高新区,吉首市,975.8,25.8,70,40.55424021835044,23.253011705275632
P1439,2025-06-03 04:00:00,28.2308,109.5711,667.8,湘西土家族苗族自治州,十八湾,吉首市,932.0,24.5,71,41.737713886135424,21.82635578500058
P1440,2025-06-03 04:00:00,28.2758,109.8289,166.4,湘西土家族苗族自治州,司马,吉首市,986.5,25.7,68,42.998986046665394,22.454972373925283
P1441,2025-06-03 04:00:00,28.3139,109.7672,227,湘西土家族苗族自治州,望江坳,吉首市,979.9,25.5,72,45.089599675688824,23.494988888244293
P1442,2025-06-03 04:00:00,28.1961,109.8253,365.1,湘西土家族苗族自治州,楠木,吉首市,965.3,25.2,71,42.919025493497614,22.7585921943284
P1443,2025-06-03 04:00:00,28.3708,109.8458,446.9,湘西土家族苗族自治州,檀木,吉首市,955.3,23.7,81,43.650234487641,23.73188961795165
P1444,2025-06-03 04:00:00,28.3614,109.6964,195.1,湘西土家族苗族自治州,龙舞,吉首市,983.2,25.1,75,47.40545352789633,23.897871660035968
P1446,2025-06-03 04:00:00,28.8114,109.7364,295.3,湘西土家族苗族自治州,柏杨,永顺县,976.7,23.6,81,41.39055353579479,23.589247088824145
P1450,2025-06-03 04:00:00,29.1842,109.8922,440,湘西土家族苗族自治州,廻龙,永顺县,956.5,24.4,75,40.440022894259876,22.918253326334497
P1451,2025-06-03 04:00:00,28.9425,110.0286,559.4,湘西土家族苗族自治州,铜瓦,永顺县,943.6,22.9,79,42.22689527012645,22.05329223645576
P1452,2025-06-03 04:00:00,29.3308,109.8131,454.2,湘西土家族苗族自治州,西库,永顺县,955.3,24.3,71,35.0241602245582,21.566219835014017
P1461,2025-06-03 04:00:00,28.7444,109.8122,359.8,湘西土家族苗族自治州,坐苦坝,古丈县,965.0,24.1,74,41.456966929188795,22.209174323419912
P1462,2025-06-03 04:00:00,28.5697,109.8733,687.3,湘西土家族苗族自治州,翁草,古丈县,929.5,22.2,100,51.70760499425073,26.75264714398155
P1463,2025-06-03 04:00:00,28.0042,109.8947,202.1,湘西土家族苗族自治州,晒洲田,泸溪县,983.4,25.6,73,41.84934081508137,23.963320647972807
P1472,2025-06-03 04:00:00,27.9958,109.8042,279.5,湘西土家族苗族自治州,踏虎,泸溪县,975.4,24.3,77,45.27289924294382,23.388717285860274
P1473,2025-06-03 04:00:00,28.1917,110.1078,325.8,湘西土家族苗族自治州,顺江田,泸溪县,969.7,25.3,74,46.58859624994296,23.861949516197747
P1479,2025-06-03 04:00:00,28.5933,109.8417,636.5,湘西土家族苗族自治州,排茹,古丈县,934.5,24.5,84,41.77188044667747,25.82273078788801
P1480,2025-06-03 04:00:00,29.1408,110.0103,392.3,湘西土家族苗族自治州,车坪,永顺县,961.7,24.5,90,50.75449231465473,27.667211558451438
P1484,2025-06-03 04:00:00,29.4811,109.4144,510,湘西土家族苗族自治州,华塘,龙山县,949.1,22.7,80,37.48835871464991,22.06309146451672
P1485,2025-06-03 04:00:00,28.9583,109.3989,254.1,湘西土家族苗族自治州,贾市,龙山县,977.7,24.4,78,38.4583471126667,23.834983459387878
P1486,2025-06-03 04:00:00,29.33,109.9081,442.7,湘西土家族苗族自治州,团结,永顺县,954.7,24.0,77,40.9160212503833,22.971058147099725
P1487,2025-06-03 04:00:00,29.2878,109.8228,539.5,湘西土家族苗族自治州,农林,永顺县,945.1,23.5,76,41.620560145995334,21.999988381918946
P1488,2025-06-03 04:00:00,28.9267,110.2083,345.3,湘西土家族苗族自治州,官坝,永顺县,968.6,25.7,71,38.55401053461389,23.44563291983375
P1489,2025-06-03 04:00:00,28.8511,110.3261,326.9,湘西土家族苗族自治州,楠木,永顺县,970.5,26.7,67,38.46977758617458,23.47297511564972
P1490,2025-06-03 04:00:00,29.2603,109.73,392.5,湘西土家族苗族自治州,新场,永顺县,961.2,24.2,75,39.782296658406906,22.644900857380428
P1501,2025-06-03 04:00:00,29.5308,110.0994,318.6,张家界市,凉水口,桑植县,972.7,25.4,80,51.89316331884342,25.950720682063924
P1503,2025-06-03 04:00:00,29.5092,110.2944,334.5,张家界市,芙蓉桥,桑植县,970.6,25.7,70,40.44467403205953,23.115412737864254
P1504,2025-06-03 04:00:00,29.7025,110.5811,1067.1,张家界市,人潮溪镇白石,桑植县,892.5,22.2,58,18.033641705426575,15.516535343509299
P1505,2025-06-03 04:00:00,29.67,109.8344,1053,张家界市,八大公山,桑植县,893.7,21.9,61,18.593637149275096,16.02311447504132
P1506,2025-06-03 04:00:00,29.6097,110.4733,538.8,张家界市,官地坪,桑植县,945.4,24.7,76,42.252611309305614,23.644814434544895
P1508,2025-06-03 04:00:00,29.4389,110.2358,290.4,张家界市,瑞塔铺,桑植县,975.4,25.7,79,49.14385042087716,26.08739437558966
P1509,2025-06-03 04:00:00,29.4633,110.4847,376,张家界市,走马坪,桑植县,964.2,26.4,65,42.2304687013706,22.372770291704036
P1510,2025-06-03 04:00:00,29.6764,110.1533,394,张家界市,龙潭坪,桑植县,960.9,25.5,70,38.064761438837,22.84235030801528
P1511,2025-06-03 04:00:00,29.6558,110.0108,503.9,张家界市,桑植坪,桑植县,951.9,23.9,76,41.13681808516023,22.536760973868642
P1512,2025-06-03 04:00:00,29.7036,109.9156,438.1,张家界市,五道水,桑植县,962.1,24.5,76,40.91436237981411,23.363423093803437
P1513,2025-06-03 04:00:00,29.3911,110.0075,489.3,张家界市,廖家村,桑植县,954.3,23.1,85,48.573420268422645,24.01747364543386
P1514,2025-06-03 04:00:00,29.4925,109.9892,307.4,张家界市,陈家河,桑植县,971.0,25.2,80,46.86410096397699,25.643484162623555
P1515,2025-06-03 04:00:00,29.5467,109.8644,377.4,张家界市,河口,桑植县,965.8,25.6,68,41.88859211238034,22.32199731591988
P1516,2025-06-03 04:00:00,29.4869,110.1578,458.6,张家界市,洪家关,桑植县,956.9,24.7,86,61.5082085328738,26.755974228563954
P1517,2025-06-03 04:00:00,29.4761,110.2389,298,张家界市,刘家坪,桑植县,975.0,22.2,87,43.34689717481754,23.274803015263952
P1518,2025-06-03 04:00:00,29.6175,110.6047,271,张家界市,人潮溪,桑植县,980.3,25.4,73,42.93165767409895,23.68003262238333
P1521,2025-06-03 04:00:00,29.3569,110.0775,311.6,张家界市,利福塔,桑植县,973.4,25.7,83,55.86557175750276,27.40827510346762
P1522,2025-06-03 04:00:00,29.5875,110.0053,564.7,张家界市,沙塔坪,桑植县,944.5,24.1,79,43.222084203510704,23.709794210137474
P1523,2025-06-03 04:00:00,29.5469,110.3881,455,张家界市,马合口,桑植县,957.9,25.1,68,40.99095821956782,21.667403638432614
P1524,2025-06-03 04:00:00,29.4897,110.3567,490.6,张家界市,麦地坪,桑植县,953.6,26.2,72,42.28967088879563,24.49090218085447
P1526,2025-06-03 04:00:00,29.6494,110.0861,485.5,张家界市,苦竹坪,桑植县,954.6,24.8,69,39.57291040556794,21.59574643988916
P1527,2025-06-03 04:00:00,29.4667,109.8192,616.8,张家界市,上河溪,桑植县,941.1,24.8,70,39.84901052165514,21.908728272351325
P1528,2025-06-03 04:00:00,29.4292,110.3028,346.7,张家界市,空壳树,桑植县,969.6,25.0,72,39.80143600747031,22.805491940548453
P1529,2025-06-03 04:00:00,29.6306,110.3592,241.2,张家界市,淋溪河,桑植县,981.2,26.5,96,59.39247360607368,33.238532989444
P1530,2025-06-03 04:00:00,29.4875,110.5503,375.6,张家界市,竹叶坪,桑植县,967.9,26.9,80,54.736747071248054,28.359493218333814
P1531,2025-06-03 04:00:00,29.6497,109.8639,644.8,张家界市,细砂坪,桑植县,936.8,25.3,64,34.46935483479249,20.637361743738595
P1532,2025-06-03 04:00:00,29.5192,110.1553,475,张家界市,桥自弯,桑植县,955.1,25.4,70,38.42320316586545,22.706880596805927
P1533,2025-06-03 04:00:00,29.3258,109.9839,385.8,张家界市,上洞街,桑植县,964.7,24.1,85,55.928382194409984,25.510538074198546
P1534,2025-06-03 04:00:00,29.77,110.0656,1327,张家界市,天平山,桑植县,867.0,16.6,84,30.465028519073563,15.857276207768809
P1537,2025-06-03 04:00:00,29.3897,110.1606,367.6,张家界市,澧源,桑植县,967.4,25.1,83,56.50582391852844,26.446977970439804
P1538,2025-06-03 04:00:00,29.5481,110.4925,475.3,张家界市,分水岭,桑植县,954.4,25.4,76,50.040035322705315,24.653184647960728
P1540,2025-06-03 04:00:00,29.6375,110.275,795.2,张家界市,天星山林场,桑植县,921.2,24.6,69,38.79826801804044,21.338931045218295
P1542,2025-06-03 04:00:00,29.4267,110.1075,286.6,张家界市,洪家关乡南岔,桑植县,976.0,25.4,79,43.30948145152586,25.626336673538123
P1543,2025-06-03 04:00:00,29.465,109.91,626.7,张家界市,夹石河,桑植县,941.9,24.5,87,61.762192553441345,26.744971173169723
P1544,2025-06-03 04:00:00,29.7122,110.1894,786.9,张家界市,赶坪,桑植县,921.9,21.4,81,39.47633683599523,20.635389510561822
P1545,2025-06-03 04:00:00,29.5228,110.6036,838.8,张家界市,竹叶坪乡鸡公垭,桑植县,917.9,23.0,92,43.46377717907873,25.838433708009617
P1546,2025-06-03 04:00:00,29.7336,109.8025,681,张家界市,五道水镇连家湾,桑植县,933.5,23.7,65,37.66567536160944,19.04410895267725
P1547,2025-06-03 04:00:00,29.7419,110.0153,1127.8,张家界市,四门岩林场,桑植县,887.1,21.1,78,36.38034905010255,19.508526950073193
P1549,2025-06-03 04:00:00,29.5375,109.8092,631.2,张家界市,河口乡塘坊,桑植县,938.9,23.2,75,43.40787810784159,21.320516864508267
P1601,2025-06-03 04:00:00,29.3428,110.5597,450.3,张家界市,武陵源,武陵源区,957.7,27.7,58,41.52702944820787,21.548726063755442
P1602,2025-06-03 04:00:00,29.2456,110.5181,332.9,张家界市,协合,武陵源区,972.0,25.7,77,40.26549848041015,25.426954011650682
P1603,2025-06-03 04:00:00,29.3553,110.5294,375.4,张家界市,军地坪,武陵源区,967.3,26.9,65,40.845391516475814,23.042088239896223
P1604,2025-06-03 04:00:00,29.4078,110.4433,547,张家界市,天子山,武陵源区,948.5,24.3,70,32.42882261237064,21.262470259872973
P1605,2025-06-03 04:00:00,29.3589,110.3836,359.4,张家界市,中湖,武陵源区,962.9,25.9,74,48.31842052626334,24.727973931440392
P1606,2025-06-03 04:00:00,29.3664,110.5828,264.5,张家界市,索溪峪,武陵源区,975.7,28.1,51,32.571286333310404,19.395961497225418
P1607,2025-06-03 04:00:00,29.3031,110.4344,652.9,张家界市,锣鼓塔,武陵源区,936.0,24.1,99,58.01850972269164,29.712273757007722
P1610,2025-06-03 04:00:00,29.3897,110.4583,1087,张家界市,武陵源景区,武陵源区,888.7,21.4,72,36.49039594265042,18.34256845383273
P1702,2025-06-03 04:00:00,29.5033,110.7636,152.1,张家界市,江垭,慈利县,989.0,26.0,70,52.19948488639056,23.530360849739214
P1703,2025-06-03 04:00:00,29.2647,110.725,156.6,张家界市,阳和,慈利县,988.2,27.5,77,52.23657620176552,28.274786426709166
P1708,2025-06-03 04:00:00,29.3925,110.9825,170.4,张家界市,岩泊渡,慈利县,988.6,26.4,69,44.072880576920085,23.749556155808893
P1709,2025-06-03 04:00:00,29.4267,110.6156,352.4,张家界市,三官寺,慈利县,966.4,25.5,68,42.91722373901107,22.18971172778628
P1717,2025-06-03 04:00:00,29.1594,110.8261,840.7,张家界市,洞溪,慈利县,913.9,22.6,66,34.46538010134234,18.091824319303473
P1718,2025-06-03 04:00:00,29.4986,111.3256,102.8,张家界市,广福桥,慈利县,995.0,27.3,58,32.300336659519836,21.049611841925337
P1722,2025-06-03 04:00:00,29.5528,111.0339,179.4,张家界市,东岳观,慈利县,987.1,26.0,69,44.81501247423366,23.194212837600084
P1731,2025-06-03 04:00:00,29.4453,110.9283,589.6,张家界市,高峰,慈利县,942.9,24.9,52,30.783551021342095,16.372588581056206
P1732,2025-06-03 04:00:00,29.175,110.6789,239.8,张家界市,金岩,慈利县,981.2,25.9,74,49.43244441986658,24.727973931440392
P1733,2025-06-03 04:00:00,29.2819,110.9356,595.3,张家界市,赵家垭水库,慈利县,940.9,24.8,49,18.45143626773932,15.33610979064593
P1734,2025-06-03 04:00:00,29.6422,110.9561,395.1,张家界市,国太桥,慈利县,984.6,27.2,64,29.407182367283916,23.091226191979494
P1746,2025-06-03 04:00:00,29.4006,110.6997,614.9,张家界市,大峡谷,慈利县,939.9,25.0,84,49.616266033877054,26.606407263973193
P1801,2025-06-03 04:00:00,29.0119,110.4953,498.1,张家界市,天门山,永定区,950.0,25.5,65,35.606158940637364,21.210753857442764
P1802,2025-06-03 04:00:00,29.2275,110.6203,292,张家界市,合作桥,永定区,975.9,25.7,86,51.013099983655465,28.398935649376085
P1803,2025-06-03 04:00:00,29.0169,110.7228,372.2,张家界市,沅古坪,永定区,966.8,25.5,62,36.42298265521107,20.23179598709925
P1804,2025-06-03 04:00:00,29.2819,110.3253,386.9,张家界市,教字垭,永定区,947.4,25.5,73,41.337826040521215,23.821308178358795
P1805,2025-06-03 04:00:00,29.1869,110.3919,219.4,张家界市,尹家溪,永定区,980.9,26.4,70,53.317604803365164,24.093752621835108
P1806,2025-06-03 04:00:00,29.1486,110.5622,190.4,张家界市,阳湖坪,永定区,987.5,26.7,75,51.06521805883024,26.27571841304073
P1807,2025-06-03 04:00:00,29.165,110.2031,187.1,张家界市,茅岩河,永定区,984.1,26.4,73,44.77159220108791,25.12634201991376
P1808,2025-06-03 04:00:00,29.0464,110.8164,383.1,张家界市,王家坪,永定区,965.2,26.3,65,42.30587630572242,22.24096646290707
P1809,2025-06-03 04:00:00,29.1167,110.3794,214,张家界市,枫香岗,永定区,984.2,25.7,81,56.23766956027719,26.747834739528642
P1810,2025-06-03 04:00:00,29.1853,110.1164,336.1,张家界市,罗塔坪,永定区,967.0,25.0,83,57.850999453958394,26.289664320354465
P1811,2025-06-03 04:00:00,29.2661,110.2558,369.4,张家界市,罗水,永定区,967.0,25.5,71,43.159631028380424,23.16866959812979
P1812,2025-06-03 04:00:00,29.0867,110.3375,162,张家界市,后坪,永定区,987.5,26.8,63,45.265146474071614,22.202015569468248
P1813,2025-06-03 04:00:00,29.1603,110.4053,173.8,张家界市,大庸桥,永定区,988.3,26.4,79,53.16795624013232,27.191520816071055
P1814,2025-06-03 04:00:00,29.3397,110.3097,504.2,张家界市,桥头,永定区,950.3,24.3,85,62.37867657633219,25.81871388698861
P1815,2025-06-03 04:00:00,28.9797,110.6728,392,张家界市,和平岗,永定区,972.8,26.2,68,40.90243973835222,23.130296504140336
P1816,2025-06-03 04:00:00,29.0183,110.6217,602.7,张家界市,谢家垭,永定区,939.0,24.5,62,34.05152969439768,19.059634629155433
P1817,2025-06-03 04:00:00,29.1556,110.3086,407.4,张家界市,三家馆,永定区,960.8,25.4,99,62.884379720113365,32.114016844054106
P1818,2025-06-03 04:00:00,28.9306,110.4356,348.6,张家界市,四都坪,永定区,964.1,26.1,99,62.99147806483734,33.476308812071906
P1820,2025-06-03 04:00:00,29.2656,110.15,376.2,张家界市,青安,永定区,963.7,25.5,79,58.48217045556874,25.77922391904582
P1821,2025-06-03 04:00:00,29.0967,110.4478,203.4,张家界市,南庄坪,永定区,985.3,25.5,83,54.16485253423363,27.084501079503838
P1822,2025-06-03 04:00:00,29.1864,110.5069,252.8,张家界市,新桥,永定区,979.8,26.6,76,47.56498401176528,26.46954741668527
P1824,2025-06-03 04:00:00,29.1114,110.5189,253.3,张家界市,西溪坪,永定区,979.7,26.1,79,49.89219033780737,26.713418142966468
P1826,2025-06-03 04:00:00,28.9906,110.8103,220.9,张家界市,马头溪,永定区,984.2,26.1,67,45.932675376432854,22.655683741503207
P1851,2025-06-03 04:00:00,29.3461,110.3644,468,张家界市,小溪峪水库,永定区,957.2,23.9,86,60.20329304505685,25.502124259903987
P1852,2025-06-03 04:00:00,29.0808,110.4783,255,张家界市,官黎坪,永定区,977.3,25.5,83,57.938480917274376,27.084501079503838
P1856,2025-06-03 04:00:00,29.1397,110.4892,186.8,张家界市,崇文,永定区,985.4,25.8,73,57.444197702263075,24.24956934978745
P1857,2025-06-03 04:00:00,29.2292,110.4403,248,张家界市,沙堤,永定区,977.6,24.9,88,53.82611004786067,27.7074575987105
P1858,2025-06-03 04:00:00,28.9697,110.4528,892.5,张家界市,姚家界,永定区,909.9,23.2,69,39.134518210289315,19.614875515347606
P1904,2025-06-03 04:00:00,29.9367,110.7842,285,常德市,壶瓶山,石门县,979.7,25.4,68,33.80202797541322,22.058112579754336
P1909,2025-06-03 04:00:00,29.8836,110.5408,1123,常德市,南北,石门县,886.9,21.0,55,20.11092136515144,13.671702752273033
P1910,2025-06-03 04:00:00,29.9258,110.6756,1469,常德市,东山峰,石门县,848.4,19.5,58,23.722859902253717,13.13998611383919
P1913,2025-06-03 04:00:00,29.7033,112.0272,38,常德市,青龙窖,澧县,1004.3,27.8,39,19.165522579404666,14.574642191708675
P1914,2025-06-03 04:00:00,29.8247,111.5922,99,常德市,金罗,澧县,996.5,29.5,55,35.13428664401115,22.687466955206926
P1920,2025-06-03 04:00:00,29.9772,111.0706,274,常德市,太平,石门县,976.3,28.1,58,40.39412715211653,22.058152290962237
P1931,2025-06-03 04:00:00,29.7106,111.5417,76,常德市,官亭水库,临澧县,999.2,28.3,57,34.130347754950556,21.932016190203576
P1933,2025-06-03 04:00:00,29.6758,111.6553,26.1,常德市,城头山,澧县,1003.3,28.5,78,55.311302884487496,30.3636114129279
P1940,2025-06-03 04:00:00,29.6808,111.1444,717.7,常德市,白云山林场,石门县,928.7,24.6,56,30.860287189074317,17.318552732351087
P1950,2025-06-03 04:00:00,29.5639,111.6178,55,常德市,停弦渡,临澧县,999.9,28.8,59,44.15558076978206,23.371123495188094
P1953,2025-06-03 04:00:00,29.5764,112.105,30,常德市,水管站,安乡县,1004.8,28.1,59,28.976256474326075,22.43846526149607
P1960,2025-06-03 04:00:00,29.5481,111.6556,70,常德市,水阁,临澧县,997.8,28.1,59,37.45521535284127,22.43846526149607
P1968,2025-06-03 04:00:00,29.5453,112.1906,41,常德市,安全,安乡县,1004.5,27.6,65,35.18725684571625,24.008520715477324
P1973,2025-06-03 04:00:00,29.4153,111.3825,100.9,常德市,蒙泉水库,石门县,996.8,27.7,65,46.17229031482956,24.149434381794897
P1979,2025-06-03 04:00:00,29.4189,111.9708,48.8,常德市,毛里湖,津市市,1004.3,26.7,64,39.60620502724137,22.42194637912809
P1981,2025-06-03 04:00:00,29.3769,111.5444,83,常德市,文家店,临澧县,998.7,27.7,62,40.075233898314174,23.03484510263513
P1985,2025-06-03 04:00:00,29.3478,111.7061,89,常德市,四新岗,临澧县,998.2,28.5,65,42.12787180525525,25.30300951077325
P1993,2025-06-03 04:00:00,29.28,112.1528,31,常德市,下渔口,安乡县,1005.0,27.5,67,41.816315695958814,24.60273624142226
P1999,2025-06-03 04:00:00,29.2581,111.5381,83.6,常德市,王家垱水库,桃源县,996.8,27.8,65,43.82632377100485,24.29107031951446
P2002,2025-06-03 04:00:00,29.1975,111.1814,98.5,常德市,黄石水库,桃源县,995.4,27.4,65,38.796806085981366,23.728847743000415
P2005,2025-06-03 04:00:00,29.1881,111.6328,20.4,常德市,蔡家岗,鼎城区,1003.8,29.3,60,41.75196627019057,24.465631509691942
P2025,2025-06-03 04:00:00,29.0611,110.9786,173.8,常德市,牛车河,桃源县,984.7,27.4,66,54.953388971207,24.093906939046573
P2027,2025-06-03 04:00:00,29.0508,111.9961,27,常德市,罐头嘴,汉寿县,1005.0,26.4,73,39.830962049044174,25.12634201991376
P2028,2025-06-03 04:00:00,29.0361,111.6239,36,常德市,农科院,武陵区,1004.3,27.4,66,43.0327874477585,24.093906939046573
P2029,2025-06-03 04:00:00,29.0325,111.7306,29,常德市,东江,武陵区,1004.7,28.0,62,42.44794968345509,23.44222053421178
P2030,2025-06-03 04:00:00,29.0528,111.6778,51,常德市,文理学院,武陵区,1004.5,27.9,62,43.30380477982977,23.305734809955773
P2042,2025-06-03 04:00:00,28.9864,111.7983,28,常德市,观音寺电排,武陵区,1004.7,26.8,64,42.151905952673815,22.554428515015363
P2043,2025-06-03 04:00:00,28.8669,111.475,48.7,常德市,新桥电排,桃源县,1003.4,26.0,69,46.52738922185974,23.194212837600084
P2044,2025-06-03 04:00:00,28.9611,111.7544,50,常德市,伍家嘴,武陵区,1004.2,27.5,61,43.85844957011839,22.399506130250117
P2047,2025-06-03 04:00:00,28.945,110.9653,371.5,常德市,观音寺,桃源县,964.9,24.5,73,38.307503176926964,22.441182708521723
P2049,2025-06-03 04:00:00,28.91,111.7369,40,常德市,市二中,武陵区,1002.1,27.5,63,42.9083460130764,23.1339161673075
P2054,2025-06-03 04:00:00,28.8933,111.8183,55,常德市,聂家桥,汉寿县,1004.6,27.4,61,35.89988410863049,22.268610958815774
P2074,2025-06-03 04:00:00,28.7228,111.7731,86,常德市,江东市水库,汉寿县,998.3,28.2,53,29.964808813983005,20.27445650372894
P2075,2025-06-03 04:00:00,28.6942,112.1417,95,常德市,军山铺,汉寿县,997.7,26.6,62,38.8868452797832,21.59357815571693
P2076,2025-06-03 04:00:00,28.7069,111.5464,120,常德市,花岩溪,鼎城区,993.9,27.0,60,39.81792805734803,21.395107071056287
P2083,2025-06-03 04:00:00,28.6486,111.3175,56.6,常德市,沙坪,桃源县,1000.3,28.0,55,33.31548111054766,20.795518215833035
P2089,2025-06-03 04:00:00,29.8928,111.0164,418,常德市,里山河水库,石门县,959.1,25.9,70,43.39518392834611,23.391326691903075
P2090,2025-06-03 04:00:00,29.8706,111.8003,100,常德市,盐井,澧县,997.0,28.3,49,29.106925702525388,18.853838479297814
P2091,2025-06-03 04:00:00,29.2086,111.9756,30,常德市,南湖,武陵区,1004.7,27.3,69,34.9870796321367,25.041779605049108
P2092,2025-06-03 04:00:00,29.0175,112.0069,38,常德市,洲口,汉寿县,1004.6,28.7,72,46.10041865993284,28.35561100918685
P2093,2025-06-03 04:00:00,28.7522,111.33,58,常德市,剪市,桃源县,1002.4,26.5,68,42.689495032538005,23.543960867522838
P2106,2025-06-03 04:00:00,29.1533,112.1192,31,常德市,十美堂,鼎城区,1005.0,28.0,61,35.59198202176849,23.06412020301482
P2107,2025-06-03 04:00:00,29.7494,110.8531,213.4,常德市,南岳寺,石门县,984.2,25.4,70,36.965375751526715,22.706880596805927
P2122,2025-06-03 04:00:00,29.8147,111.1167,583,常德市,大同山林场,石门县,941.2,24.4,78,44.1720736615169,23.834983459387878
P2127,2025-06-03 04:00:00,29.8519,111.3928,228,常德市,芦茅,澧县,982.4,29.2,51,33.67022040108254,20.675857273800652
P2128,2025-06-03 04:00:00,29.7669,111.5272,83,常德市,王家厂水库,澧县,998.5,29.7,52,36.32971920426358,21.698886949804923
P2130,2025-06-03 04:00:00,29.3072,111.765,56,常德市,鳌山小学,临澧县,1000.4,28.0,73,38.30890143136588,27.601324177378388
P2135,2025-06-03 04:00:00,29.0197,111.5692,36,常德市,木塘垸,桃源县,1004.2,27.8,58,40.4523062255095,21.67510890048982
P2137,2025-06-03 04:00:00,28.7575,111.2289,73.4,常德市,凌津滩,桃源县,1000.2,27.0,63,37.1989376090301,22.464862424609105
P2139,2025-06-03 04:00:00,28.7408,112.1842,73,常德市,赤港湾水库,汉寿县,999.8,27.0,59,38.11519663631507,21.03852195320535
P2140,2025-06-03 04:00:00,28.6681,111.9919,60,常德市,斋家冲水库,汉寿县,1000.9,27.3,59,26.250621518432148,21.4125361840275
P2147,2025-06-03 04:00:00,28.85,111.65,56.3,常德市,草坪,鼎城区,1003.5,28.3,62,40.64095678905589,23.85587725951968
P2198,2025-06-03 04:00:00,28.6514,111.2442,114.3,常德市,杨溪桥,桃源县,996.1,28.4,61,47.258250835459215,23.608153849813185
P2203,2025-06-03 04:00:00,29.5131,111.7992,50,常德市,庹家峪水库,津市市,998.8,28.0,29,18.28420953439141,10.964909604711961
P2600,2025-06-03 04:00:00,29.4164,112.3169,34,益阳市,红堰湖,南县,1004.8,28.0,73,46.603644843703975,27.601324177378388
P2604,2025-06-03 04:00:00,29.2914,112.2467,35.5,益阳市,同跃,南县,1004.8,27.4,75,45.65484951863135,27.379439703462012
P2607,2025-06-03 04:00:00,29.2764,112.3436,32,益阳市,同湖,南县,1005.0,27.4,65,39.36224388994407,23.728847743000415
P2608,2025-06-03 04:00:00,29.1864,112.3614,34,益阳市,咸嘉垸,南县,1004.4,27.2,45,20.256952433484145,16.23601841623558
P2609,2025-06-03 04:00:00,29.1058,112.3444,26.8,益阳市,同春,南县,1005.1,27.0,66,41.87600532256929,23.53461777816192
P2614,2025-06-03 04:00:00,29.2403,112.4053,30,益阳市,青树嘴,南县,1004.9,28.0,66,38.9394334698805,24.95462185899964
P2615,2025-06-03 04:00:00,29.3075,112.2731,31,益阳市,六百弓,南县,1005.1,27.9,66,36.601503631678405,24.80933060414647
P2617,2025-06-03 04:00:00,29.295,112.5342,35,益阳市,大木桥,南县,1004.7,26.4,74,43.2138833202769,25.470538485939976
P2619,2025-06-03 04:00:00,29.2919,112.6567,31,益阳市,华东,南县,1005.1,28.0,68,43.262465892757284,25.710822521393574
P2631,2025-06-03 04:00:00,29.3522,112.4061,32.5,益阳市,一中,南县,1004.8,27.4,35,15.937939005353439,12.777071861615605
P2650,2025-06-03 04:00:00,29.1853,112.6258,33.9,益阳市,河坝,大通湖区,1005.1,28.0,58,40.991354843615326,21.929819209423922
P2652,2025-06-03 04:00:00,29.2256,112.5492,36,益阳市,沙堡州,大通湖区,1005.2,25.0,73,44.77680081199044,23.12223488416718
P2653,2025-06-03 04:00:00,29.1128,112.6697,33,益阳市,金盆,大通湖区,1005.3,27.4,65,42.489370401277455,23.728847743000415
P2654,2025-06-03 04:00:00,29.1294,112.4258,31,益阳市,千山红,大通湖区,1005.3,28.3,64,41.02776886316665,24.62542168724612
P2660,2025-06-03 04:00:00,29.0058,112.4864,34,益阳市,新村,沅江市,1005.3,27.5,63,36.48343194329994,23.1339161673075
P2667,2025-06-03 04:00:00,28.8325,112.3867,32,益阳市,城区水管站,沅江市,1005.2,27.4,60,28.427005119430678,21.90355176276961
P2673,2025-06-03 04:00:00,29.0719,112.4425,31,益阳市,乐安,沅江市,1005.4,27.0,68,38.13045884502932,24.247788013863797
P2674,2025-06-03 04:00:00,29.0364,112.2967,35,益阳市,南嘴,沅江市,1001.5,31.1,63,39.00583438854633,28.48694271352264
P2677,2025-06-03 04:00:00,29.0789,112.6986,42.9,益阳市,石东港,沅江市,1004.9,27.6,57,26.404551726024447,21.053625858187807
P2680,2025-06-03 04:00:00,28.9883,112.8406,30,益阳市,漉湖芦苇场,沅江市,1005.1,26.5,68,47.356863086429456,23.543960867522838
P2682,2025-06-03 04:00:00,28.9406,112.5828,32,益阳市,双洲,沅江市,1005.2,26.9,50,25.270868216936982,17.724683261458633
P2684,2025-06-03 04:00:00,29.1172,112.5633,41,益阳市,四季红,沅江市,1005.3,27.5,62,32.02549029917325,22.766711148778807
P2686,2025-06-03 04:00:00,28.7569,112.3478,46,益阳市,三眼塘,沅江市,1004.5,28.2,62,44.02991430228063,23.71728874021121
P2687,2025-06-03 04:00:00,28.9481,112.3022,62,益阳市,新湾,沅江市,999.2,27.5,65,38.41832525066433,23.86832620436488
P2720,2025-06-03 04:00:00,28.6861,112.2436,45,益阳市,新塘,资阳区,1000.6,28.3,37,19.604973737703254,14.236571912939162
P2721,2025-06-03 04:00:00,28.6033,112.2003,64.7,益阳市,新桥河,资阳区,1002.8,28.8,63,36.15058566318949,24.955606444014407
P2725,2025-06-03 04:00:00,28.6278,112.3161,49.2,益阳市,长春,资阳区,1003.4,27.6,54,34.646801882250095,19.94554028670424
P2726,2025-06-03 04:00:00,28.7667,112.4547,55,益阳市,张家塞,资阳区,1004.4,27.1,68,39.935325686253925,24.390739813989434
P2729,2025-06-03 04:00:00,28.8019,112.5844,38.9,益阳市,茈湖口,资阳区,1004.6,27.1,18,10.787992326941332,6.456372303703085
P2730,2025-06-03 04:00:00,28.6058,112.3467,31.5,益阳市,体育公园,资阳区,1004.8,27.8,54,30.98976835855408,20.18027380390432
P2731,2025-06-03 04:00:00,28.6103,112.1164,70,益阳市,蓼园,资阳区,1000.5,27.8,59,24.787581433740737,22.0488176746362
P2760,2025-06-03 04:00:00,28.5892,112.2936,36,益阳市,会龙山,赫山区,1003.8,26.8,63,36.676264867251525,22.202015569468248
P2761,2025-06-03 04:00:00,28.4789,112.2547,73,益阳市,自搭桥,赫山区,999.8,28.0,54,30.100454050982524,20.41741788463607
P2764,2025-06-03 04:00:00,28.4839,112.5231,58,益阳市,新安山,赫山区,1004.7,28.9,58,42.9511397526772,23.108661250510362
P2768,2025-06-03 04:00:00,28.5881,112.4486,36,益阳市,兰溪,赫山区,1004.9,26.8,4,5.624654472781142,1.4096517821884602
P2769,2025-06-03 04:00:00,28.5042,112.395,46,益阳市,龙岭工业园,赫山区,1003.5,28.0,58,26.76268711012043,21.929819209423922
P2771,2025-06-03 04:00:00,28.3992,112.2811,53.1,益阳市,泥江口,赫山区,1000.0,29.6,72,43.711408760027446,29.87185075184847
P2773,2025-06-03 04:00:00,28.4111,112.4353,55.7,益阳市,鱼形山水库,赫山区,1001.5,27.4,57,36.734255524530035,20.80837417463113
P2774,2025-06-03 04:00:00,28.3506,112.4547,58,益阳市,朱公塘水库,赫山区,999.2,27.9,73,55.41216083630213,27.440623243980184
P2775,2025-06-03 04:00:00,28.6003,112.3694,46,益阳市,团洲,赫山区,1004.6,26.9,59,38.51994076251048,20.915126248521187
P2776,2025-06-03 04:00:00,28.4928,112.4283,44,益阳市,金山,赫山区,1002.3,28.0,49,35.04762860708618,18.52691622865125
P2777,2025-06-03 04:00:00,28.5083,112.4903,43,益阳市,笔架山,赫山区,1004.9,27.5,59,39.92262979816325,21.665096093192737
P2778,2025-06-03 04:00:00,28.3297,112.4097,80,益阳市,岳家桥,赫山区,999.1,27.2,51,32.47667598519775,18.40082087173366
P2780,2025-06-03 04:00:00,28.6306,112.5744,42,益阳市,八字哨,赫山区,1004.2,28.3,61,43.709577360464294,23.471105045656458
P2781,2025-06-03 04:00:00,28.4825,112.5644,39.7,益阳市,新和电排,赫山区,1004.9,27.1,58,40.29235753731788,20.803866311932158
P2782,2025-06-03 04:00:00,28.4753,112.5931,30,益阳市,红洲垸电排,赫山区,1004.3,27.6,64,42.862391184679694,23.639158858316133
P2784,2025-06-03 04:00:00,28.5456,112.6806,40,益阳市,流水口,赫山区,1004.5,27.1,68,47.18211831818254,24.390739813989434
P2789,2025-06-03 04:00:00,28.5414,112.4306,31,益阳市,大丰电排,赫山区,1004.5,28.3,67,45.65675225625321,25.779738328835784
P2820,2025-06-03 04:00:00,28.5617,112.3283,114.6,益阳市,市政府,赫山区,997.5,28.2,51,37.471457599180624,19.509382673399543
P2821,2025-06-03 04:00:00,28.5269,112.2589,56,益阳市,谢林港,赫山区,1003.1,27.9,62,33.796029906153265,23.305734809955773
P2823,2025-06-03 04:00:00,28.4403,112.4719,49,益阳市,管委会,赫山区,999.9,27.2,56,24.067123703478742,20.20482291798206
P2840,2025-06-03 04:00:00,28.6144,111.7447,112,益阳市,碧螺水库,桃江县,995.2,26.9,63,37.36470034858125,22.333100909437878
P2841,2025-06-03 04:00:00,28.5358,111.72,90.4,益阳市,武潭,桃江县,998.6,26.9,65,34.335165907390184,23.042088239896223
P2842,2025-06-03 04:00:00,28.4442,111.6533,55,益阳市,百乐,桃江县,1000.3,27.5,69,44.48542052339731,25.33714627847964
P2843,2025-06-03 04:00:00,28.5608,111.8267,80.2,益阳市,鲊埠,桃江县,999.9,27.6,58,30.545803779313523,21.422987715348995
P2845,2025-06-03 04:00:00,28.435,111.7794,80.1,益阳市,沂溪河电站,桃江县,999.7,27.6,56,29.405783514237978,20.68426400102662
P2847,2025-06-03 04:00:00,28.4878,111.8461,68,益阳市,大栗港,桃江县,997.2,28.7,60,40.61104345480915,23.629675840989037
P2848,2025-06-03 04:00:00,28.4094,111.8381,92,益阳市,泗里河,桃江县,996.3,28.6,45,26.92660660890731,17.6196026078297
P2849,2025-06-03 04:00:00,28.5997,111.9967,82.7,益阳市,修山,桃江县,999.1,27.4,65,40.429907788334745,23.728847743000415
P2850,2025-06-03 04:00:00,28.5514,111.9658,33,益阳市,沾溪,桃江县,1002.5,28.2,51,15.709794957630686,19.509382673399543
P2851,2025-06-03 04:00:00,28.4717,111.9447,52.4,益阳市,鸬鹚渡,桃江县,1000.4,28.1,54,32.545001802179456,20.536900408826913
P2852,2025-06-03 04:00:00,28.455,111.9333,124,益阳市,何家村,桃江县,997.1,27.5,57,28.286054469591882,20.930686056135354
P2853,2025-06-03 04:00:00,28.5383,112.0503,44,益阳市,水口山,桃江县,1001.6,28.0,50,26.91147914278968,18.90501655984821
P2854,2025-06-03 04:00:00,28.3933,112.04,175,益阳市,罗溪,桃江县,986.3,26.4,72,50.91410535395016,24.782145553887545
P2855,2025-06-03 04:00:00,28.3203,112.0681,146,益阳市,松木塘,桃江县,992.0,27.3,57,34.58082694784579,20.686687499823176
P2857,2025-06-03 04:00:00,28.5158,112.1367,51.5,益阳市,曹家仑,桃江县,1003.2,27.6,52,16.964073420222586,19.20681657238186
P2858,2025-06-03 04:00:00,28.4433,111.9942,76,益阳市,高桥,桃江县,997.7,27.4,56,33.947844060996715,20.443314978584972
P2859,2025-06-03 04:00:00,28.3208,112.0717,105,益阳市,桃花江水库,桃江县,996.0,27.3,57,30.594147836525895,20.686687499823176
P2860,2025-06-03 04:00:00,28.5742,112.2017,64,益阳市,花果山,桃江县,1003.9,27.5,58,18.11784891713799,21.297891074664044
P2861,2025-06-03 04:00:00,28.4258,112.1567,71,益阳市,石牛江,桃江县,1002.0,27.7,51,23.368343593812043,18.948017745715994
P2862,2025-06-03 04:00:00,28.4056,112.1633,41,益阳市,牛田,桃江县,1001.3,28.5,60,38.95594385330289,23.356624163790688
P2863,2025-06-03 04:00:00,28.2972,112.1433,176,益阳市,李家湾,桃江县,988.8,27.2,55,35.26697471961906,19.84402250873238
P2864,2025-06-03 04:00:00,28.2928,112.2267,114,益阳市,灰山港,桃江县,993.7,26.2,64,42.23855753714158,21.769690827426196
P2901,2025-06-03 04:00:00,28.2914,111.2853,271.2,益阳市,文溪,安化县,975.5,26.0,46,23.59518252238487,15.46280855840006
P2903,2025-06-03 04:00:00,28.4906,111.4861,143.3,益阳市,冷市,安化县,991.6,28.2,66,47.76554165966724,25.24743640087
P2904,2025-06-03 04:00:00,28.3453,111.1011,195.9,益阳市,柘溪,安化县,985.7,25.9,92,60.17948287141683,30.742886509358332
P2905,2025-06-03 04:00:00,28.0603,111.7581,362,益阳市,清塘铺,安化县,968.0,25.8,70,42.73251070076725,23.253011705275632
P2907,2025-06-03 04:00:00,28.3919,111.4953,75.7,益阳市,小淹,安化县,998.6,27.4,70,47.1223572888437,25.55414372323121
P2908,2025-06-03 04:00:00,28.4631,111.3892,108.5,益阳市,龙塘,安化县,993.2,26.4,71,48.46830379662077,24.43794908786133
P2909,2025-06-03 04:00:00,28.2458,111.7108,158.9,益阳市,仙溪,安化县,992.1,26.5,62,39.151489778863784,21.466552555682586
P2910,2025-06-03 04:00:00,28.0986,111.5753,198.8,益阳市,乐安,安化县,983.9,27.2,63,41.33231859636976,22.730425782729817
P2911,2025-06-03 04:00:00,28.2603,111.7928,220.5,益阳市,九渡水,安化县,982.4,26.4,42,11.961456143980229,14.456251573101067
P2915,2025-06-03 04:00:00,28.0372,111.0864,221.9,益阳市,平口水厂,安化县,984.7,25.0,65,41.43494135347364,20.588291335217352
P2919,2025-06-03 04:00:00,28.3197,111.2906,148,益阳市,田庄,安化县,988.9,26.9,61,43.6735742478068,21.624113578979532
P2921,2025-06-03 04:00:00,28.2475,110.8294,272.4,益阳市,奎溪,安化县,977.3,25.7,65,40.766131918683335,21.46431182801681
P2925,2025-06-03 04:00:00,28.4467,111.2144,129.6,益阳市,红岩水库,安化县,991.4,26.8,75,53.20728911756514,26.430970916033626
P2926,2025-06-03 04:00:00,28.3411,111.6094,113.7,益阳市,滔溪,安化县,993.9,27.2,63,45.097235417630024,22.730425782729817
P2927,2025-06-03 04:00:00,28.1361,111.6633,188.7,益阳市,梅城,安化县,986.7,27.3,56,45.42980290460144,20.323763157721018
P2930,2025-06-03 04:00:00,28.0419,111.8275,307.3,益阳市,高明,安化县,973.4,26.5,50,27.499619318367493,17.311735932002087
P2931,2025-06-03 04:00:00,28.5319,111.6106,101.9,益阳市,羊角塘,安化县,997.3,27.7,63,44.68587697342813,23.406374862355054
P2936,2025-06-03 04:00:00,28.3739,111.4203,66.2,益阳市,红泥,安化县,998.9,27.0,62,41.23482684630932,22.108277306758165
P2954,2025-06-03 04:00:00,28.4353,111.2819,138,益阳市,马渡,安化县,991.3,27.1,91,62.91805059604655,32.640548868721154
P2956,2025-06-03 04:00:00,28.3475,111.4978,119.6,益阳市,大双,安化县,993.5,27.0,57,40.32090500527976,20.325351717503473
P3101,2025-06-03 04:00:00,28.4764,113.7175,320,岳阳市,白水水库,平江县,973.4,25.2,70,44.6614892864642,22.438048642295602
P3102,2025-06-03 04:00:00,28.7497,113.7131,142.9,岳阳市,童市,平江县,991.9,27.1,55,34.29575362502451,19.727804261314983
P3104,2025-06-03 04:00:00,28.6447,113.2828,77.1,岳阳市,向家,平江县,999.5,26.7,62,36.7287999946708,21.72126055478034
P3105,2025-06-03 04:00:00,28.9081,113.5981,148,岳阳市,大洲,平江县,991.4,27.3,57,34.664514357879824,20.686687499823176
P3106,2025-06-03 04:00:00,28.8419,113.6083,106.8,岳阳市,梅仙,平江县,995.5,27.0,60,38.07248028822962,21.395107071056287
P3109,2025-06-03 04:00:00,28.8483,113.9397,160,岳阳市,云洞水库,平江县,988.4,26.6,55,33.83771446309975,19.15559352523276
P3111,2025-06-03 04:00:00,28.7019,113.9439,130,岳阳市,长寿,平江县,993.6,25.4,58,31.37363050800575,18.81427249449634
P3112,2025-06-03 04:00:00,28.8733,113.5142,110,岳阳市,余坪,平江县,994.1,27.1,57,34.29477433034487,20.445178961726434
P3113,2025-06-03 04:00:00,29.0058,113.6906,183.8,岳阳市,板江,平江县,987.9,26.3,67,42.27620960494779,22.92530389253498
P3114,2025-06-03 04:00:00,29.0697,113.7783,177.6,岳阳市,上塔市,平江县,988.1,26.5,71,43.107446472679136,24.58266502344296
P3117,2025-06-03 04:00:00,28.9219,113.7825,384.5,岳阳市,大江洞水库,平江县,964.7,25.8,63,39.00385347353676,20.927710534748073
P3118,2025-06-03 04:00:00,28.9008,113.8356,274.8,岳阳市,虹桥正东,平江县,975.5,25.8,68,45.90310727662004,22.588639942267765
P3119,2025-06-03 04:00:00,28.9722,113.9222,360.2,岳阳市,石牛寨姜源,平江县,965.1,25.7,69,47.585331497533474,22.785192555894767
P3120,2025-06-03 04:00:00,28.5925,113.7253,100.8,岳阳市,三市,平江县,996.8,27.2,74,43.902456437943194,26.69923028447629
P3124,2025-06-03 04:00:00,28.5569,113.5975,130,岳阳市,秋湖水库,平江县,992.9,27.4,54,36.247058007670574,19.713196586492653
P3125,2025-06-03 04:00:00,28.6319,113.565,173.4,岳阳市,三阳,平江县,988.5,28.5,57,39.690581376977214,22.188792955601155
P3200,2025-06-03 04:00:00,28.8292,113.1581,32.8,岳阳市,罗江,汨罗市,1003.4,27.0,54,33.27331097183215,19.255596363950662
P3201,2025-06-03 04:00:00,28.5517,113.0753,638.8,岳阳市,玉池,汨罗市,935.2,22.0,63,23.753283748314626,16.649819628224645
P3204,2025-06-03 04:00:00,28.6881,113.1281,400,岳阳市,神鼎山,汨罗市,966.7,26.6,68,47.51834795979051,23.683279267560508
P3350,2025-06-03 04:00:00,29.3639,113.5269,71.1,岳阳市,忠防水库,临湘市,1000.3,27.7,63,39.13851475676146,23.406374862355054
P3354,2025-06-03 04:00:00,29.5292,113.4131,286.7,岳阳市,荆竹山,临湘市,975.6,27.2,63,44.95813386848406,22.730425782729817
P3411,2025-06-03 04:00:00,29.4556,112.6736,24.7,岳阳市,钱粮湖,君山区,1004.1,26.9,58,38.26003973096064,20.560632583292012
P3413,2025-06-03 04:00:00,29.4875,112.7797,16.8,岳阳市,采桑湖,君山区,1005.5,26.6,61,34.792849590162454,21.245294637076334
P3510,2025-06-03 04:00:00,28.6403,113.8283,110,岳阳市,老丁源水库,平江县,995.2,26.6,61,40.22085187585218,21.245294637076334
P3511,2025-06-03 04:00:00,28.7119,113.4317,75.6,岳阳市,瓮江,平江县,999.6,27.7,49,37.92405646153757,18.20495822627615
P3512,2025-06-03 04:00:00,28.7497,113.2425,32,岳阳市,伍市,平江县,1002.4,26.8,62,32.55032835505611,21.849602623921133
P3513,2025-06-03 04:00:00,28.8106,114.0467,132.1,岳阳市,龙门,平江县,992.5,27.1,59,35.334131772809044,21.16255366213789
P3518,2025-06-03 04:00:00,28.7714,113.0139,43.1,岳阳市,汨罗镇,汨罗市,1002.1,26.9,73,42.261127566353956,25.878037561729602
P3520,2025-06-03 04:00:00,28.9992,112.9692,32.8,岳阳市,磊石山,汨罗市,1004.1,27.3,62,45.491743886786566,22.501309210333982
P3521,2025-06-03 04:00:00,29.7411,113.4411,53,岳阳市,谷花,临湘市,1004.6,25.8,65,38.92773837382935,21.59208229775595
P3523,2025-06-03 04:00:00,29.2331,113.3939,96.7,岳阳市,白羊田,临湘市,996.8,26.4,53,34.28558625631091,18.24241269938944
P3525,2025-06-03 04:00:00,29.3758,112.7408,38.6,岳阳市,良心堡,君山区,1004.9,28.0,56,37.60299593271334,21.17361854703
P3526,2025-06-03 04:00:00,28.9444,113.7353,183.1,岳阳市,南江,平江县,987.7,26.2,59,39.225341480903026,20.068933731533523
P3528,2025-06-03 04:00:00,29.6497,113.6189,16.2,岳阳市,定湖,临湘市,1004.2,26.3,79,45.840778488889015,27.03132847030244
P3529,2025-06-03 04:00:00,28.7086,112.7744,37,岳阳市,杨林寨,湘阴县,1004.4,27.3,63,46.92446232412867,22.864233552436147
P3531,2025-06-03 04:00:00,29.5717,112.5108,11,岳阳市,涛湖,华容县,1004.5,26.6,66,42.18297699070629,22.986712230279313
P3532,2025-06-03 04:00:00,29.6311,112.7356,37,岳阳市,东山水库,华容县,1002.4,27.3,33,15.284297880250026,11.976503289371314
P3534,2025-06-03 04:00:00,29.6011,112.8114,54.1,岳阳市,幸福水库,君山区,1001.5,26.5,52,25.054179763277386,18.004205369282168
P3536,2025-06-03 04:00:00,29.2639,113.5058,773.4,岳阳市,大云山,岳阳县,922.6,22.3,76,37.724130780586634,20.456260845718774
P3537,2025-06-03 04:00:00,29.0186,113.4906,131.3,岳阳市,张谷英,岳阳县,994.3,26.7,53,29.93746820846337,18.56817434521545
P3538,2025-06-03 04:00:00,29.4492,113.0503,33.7,岳阳市,展陈馆,君山区,1004.8,27.0,38,17.9947721883981,13.55023447833565
P3541,2025-06-03 04:00:00,29.0133,113.4411,122.7,岳阳市,岳坊水库,岳阳县,993.9,27.1,53,24.09699073298046,19.01042956090353
P3544,2025-06-03 04:00:00,29.2258,113.0858,28.4,岳阳市,麻塘,岳阳县,1005.1,28.2,39,26.34775222273049,14.918939691423182
P3547,2025-06-03 04:00:00,29.1339,113.0161,32.5,岳阳市,中洲,岳阳县,1004.3,27.5,60,32.46730600325175,22.032301111721427
P3552,2025-06-03 04:00:00,29.7919,113.52,12.4,岳阳市,黄盖,临湘市,1005.0,26.7,56,32.00486075290312,19.619203081737083
P3553,2025-06-03 04:00:00,29.565,113.6956,51.5,岳阳市,晓阳,临湘市,1000.2,26.7,68,38.343424385312815,23.8233180278236
P3554,2025-06-03 04:00:00,29.3889,113.6328,534.8,岳阳市,壁山,临湘市,946.1,24.5,72,46.071144747145425,22.13376924676115
P3558,2025-06-03 04:00:00,29.6639,113.3461,13.4,岳阳市,儒溪,临湘市,1004.3,26.4,63,40.26511450335434,21.684377359651602
P3559,2025-06-03 04:00:00,29.3117,113.4417,98.1,岳阳市,金盆,临湘市,996.3,27.3,54,34.32441981787704,19.597914473516695
P3562,2025-06-03 04:00:00,29.4708,112.4956,35,岳阳市,业谟小学,华容县,1004.8,28.1,54,26.240533922037063,20.536900408826913
P3565,2025-06-03 04:00:00,29.395,112.805,16.6,岳阳市,团华小学,华容县,1004.9,27.4,60,38.93893479219482,21.90355176276961
P3566,2025-06-03 04:00:00,29.7261,112.8489,43,岳阳市,小墨山,华容县,1003.9,28.4,52,28.662402914441977,20.124983609676814
P3568,2025-06-03 04:00:00,29.4917,112.4131,20,岳阳市,太仙,华容县,1004.8,28.4,38,31.016897402972425,14.706718791686903
P3570,2025-06-03 04:00:00,29.535,112.5558,14.6,岳阳市,华容河大堤,华容县,1004.4,27.1,55,24.673570457897323,19.727804261314983
P3572,2025-06-03 04:00:00,29.6033,112.4639,32,岳阳市,富强,华容县,1005.1,26.9,44,35.10778859069336,15.597721270083598
P3580,2025-06-03 04:00:00,28.7297,112.7042,27,岳阳市,湘滨,湘阴县,1004.5,26.6,66,41.23059106988528,22.986712230279313
P3587,2025-06-03 04:00:00,28.6281,112.5892,18,岳阳市,西林港,湘阴县,1005.2,27.9,27,14.855400047295607,10.149271610787192
P3588,2025-06-03 04:00:00,28.7647,112.9869,68,岳阳市,赛美水库,湘阴县,1001.8,27.1,61,37.770861452602496,21.879928362549343
P3589,2025-06-03 04:00:00,28.63,112.8128,29,岳阳市,城西水管会,湘阴县,1005.3,27.3,69,44.395234831071186,25.041779605049108
P3592,2025-06-03 04:00:00,29.4889,113.1922,30.9,岳阳市,象骨港,云溪区,1005.0,27.0,55,23.995146207140568,19.6121814818016
P3593,2025-06-03 04:00:00,29.5444,113.2581,50.8,岳阳市,丁山,云溪区,1003.5,27.0,60,39.07410517589969,21.395107071056287
P3594,2025-06-03 04:00:00,29.5942,113.3344,5.7,岳阳市,钢铁,云溪区,1004.4,28.2,57,34.03126306400334,21.804604164387726
P3595,2025-06-03 04:00:00,29.5531,113.3572,40,岳阳市,长岭街道,云溪区,1004.5,27.9,54,33.78925903317499,20.298543221574384
P3596,2025-06-03 04:00:00,29.4825,113.2631,54.4,岳阳市,洗马塘,云溪区,1003.4,27.7,50,31.741770019157784,18.576487985996074
P3599,2025-06-03 04:00:00,29.31,113.3339,73.2,岳阳市,兰桥水库,岳阳楼区,999.7,27.4,79,54.88757554880311,28.839676487646656
P3603,2025-06-03 04:00:00,29.4553,113.2167,62.3,岳阳市,滨湖,云溪区,999.7,28.8,45,19.744794973271855,17.825433174296005
P3604,2025-06-03 04:00:00,28.9742,112.92,27.8,岳阳市,凤凰乡磊石,市辖区,1005.6,26.8,53,31.97146005634808,18.677886113997097
P3605,2025-06-03 04:00:00,28.8606,112.9194,19.2,岳阳市,屈子诗园,市辖区,1005.1,27.2,58,36.01191644505074,20.926423736481414
P3614,2025-06-03 04:00:00,29.4533,113.3578,127.2,岳阳市,清溪水库,云溪区,995.8,26.8,54,30.12053895599885,19.030299059544213
P3615,2025-06-03 04:00:00,29.235,113.1386,95.4,岳阳市,东风水库,岳阳县,997.4,27.4,62,35.27790357223654,22.63367015486193
P3620,2025-06-03 04:00:00,29.1897,113.5236,90,岳阳市,铁山水库,岳阳县,997.7,26.1,51,35.538904651827444,17.24537120621886
P3621,2025-06-03 04:00:00,29.2997,113.1031,134,岳阳市,风雨山,岳阳楼区,992.6,25.6,63,43.96471571096233,20.680673983866946
P3622,2025-06-03 04:00:00,29.5075,113.6161,99.3,岳阳市,羊楼司,临湘市,997.1,27.4,54,34.61712151723243,19.713196586492653
P3630,2025-06-03 04:00:00,29.4447,113.3122,60.1,岳阳市,建设,云溪区,1001.5,27.5,52,30.029016424147848,19.094660963491904
P3631,2025-06-03 04:00:00,29.4083,113.3064,134.5,岳阳市,伍家洞水库,岳阳楼区,993.0,27.6,51,29.09743369279447,18.83745471522067
P3633,2025-06-03 04:00:00,28.5319,113.0111,58.8,岳阳市,桥坪水库,汨罗市,1000.9,27.7,62,42.767869804694826,23.03484510263513
P3636,2025-06-03 04:00:00,28.5908,113.835,130.5,岳阳市,沱龙峡,平江县,993.3,27.3,63,40.8109469976653,22.864233552436147
P3637,2025-06-03 04:00:00,28.9742,113.8178,1160,岳阳市,幕阜山,平江县,881.2,19.1,86,36.10905049535517,19.00390366705638
P3640,2025-06-03 04:00:00,28.6933,113.0358,60.6,岳阳市,白水苗圃,汨罗市,999.1,27.9,60,38.32363704449591,22.553936912860426
P3641,2025-06-03 04:00:00,29.6411,113.4997,21,岳阳市,源潭,临湘市,1005.0,28.1,54,29.23307068856474,20.536900408826913
P3643,2025-06-03 04:00:00,29.3719,113.4747,103.6,岳阳市,桃矿,临湘市,996.3,26.6,57,35.25867104796278,19.85216056251395
P3650,2025-06-03 04:00:00,28.7758,113.6053,80.6,岳阳市,团山,平江县,997.5,27.5,54,38.17749371196943,19.829071000549288
P3659,2025-06-03 04:00:00,29.3592,112.5042,14,岳阳市,八一水厂,华容县,1004.9,28.0,51,30.037007783119453,19.283116891045175
P3660,2025-06-03 04:00:00,29.4222,112.6369,14.4,岳阳市,砂山,华容县,1004.7,27.8,30,15.042056870698756,11.211263224391287
P3661,2025-06-03 04:00:00,29.2167,112.705,29.3,岳阳市,隆庆莲场,华容县,1005.2,27.5,60,41.40525469788949,22.032301111721427
P3663,2025-06-03 04:00:00,29.5189,112.4686,6.6,岳阳市,蔡田湖,华容县,1004.8,29.2,48,31.091598648756673,19.459630375341792
P3664,2025-06-03 04:00:00,28.5367,112.9592,60,岳阳市,燎原,湘阴县,999.4,27.0,64,39.05931228453664,22.821447542460042
P3665,2025-06-03 04:00:00,28.8464,113.0339,40,岳阳市,河市乡,市辖区,1005.1,27.2,61,43.804467118994765,22.008824964230456
P3666,2025-06-03 04:00:00,28.7961,113.0722,46.7,岳阳市,归义,汨罗市,1002.9,27.6,49,27.592130485081032,18.09873100089829
P3676,2025-06-03 04:00:00,29.5422,113.3636,32.9,岳阳市,长炼,云溪区,1003.8,27.5,52,32.08537667943088,19.094660963491904
P3692,2025-06-03 04:00:00,29.5169,113.3128,57.6,岳阳市,江湖,云溪区,1003.3,28.2,54,35.139610654175286,20.656993418893638
P3694,2025-06-03 04:00:00,29.4369,113.1664,16.6,岳阳市,芭蕉湖,岳阳楼区,1004.9,28.7,58,37.09427344046361,22.842019979622737
P3703,2025-06-03 04:00:00,28.8864,110.8531,214,怀化市,七甲坪,沅陵县,984.3,26.3,77,52.00158609616454,26.34699104067453
P3705,2025-06-03 04:00:00,28.76,110.4319,204,怀化市,曹家,沅陵县,985.0,26.7,73,53.38260654013968,25.57503258869298
P3709,2025-06-03 04:00:00,28.6936,110.7453,165,怀化市,陈家滩,沅陵县,989.8,26.4,70,49.29125235898095,24.093752621835108
P3718,2025-06-03 04:00:00,28.5253,110.9103,336,怀化市,官庄,沅陵县,970.4,26.5,65,45.91678616763892,22.505256711602712
P3720,2025-06-03 04:00:00,28.5236,110.7211,163,怀化市,楠木铺,沅陵县,990.5,26.5,70,48.662414885326925,24.236430304802916
P3722,2025-06-03 04:00:00,28.425,110.7939,413,怀化市,杜家坪,沅陵县,963.3,26.8,55,33.10857386403832,19.382712005091328
P3728,2025-06-03 04:00:00,28.3294,110.5158,276,怀化市,张家滩,沅陵县,977.3,24.8,72,42.83309035170873,22.53469193727565
P3729,2025-06-03 04:00:00,28.2933,110.3239,164,怀化市,麻溪铺,沅陵县,990.3,25.3,80,53.78746002055862,25.796702179673247
P3733,2025-06-03 04:00:00,28.2306,110.2917,179,怀化市,筲箕湾,沅陵县,990.0,24.7,78,53.76779432831687,24.267046393348707
P3734,2025-06-03 04:00:00,28.1694,110.2081,172.5,怀化市,田头坪,辰溪县,989.3,25.9,66,46.1550878141625,22.054679452365757
P3739,2025-06-03 04:00:00,26.3494,109.7725,382.8,怀化市,下寨,通道侗族自治县,966.2,25.9,58,43.28235297781926,19.38138497329112
P3749,2025-06-03 04:00:00,27.9703,110.2892,149,怀化市,倒洑,辰溪县,992.4,25.8,75,45.034090889814195,24.91394111279532
P3750,2025-06-03 04:00:00,27.9644,110.1589,131.5,怀化市,潭湾敬老院,辰溪县,994.1,26.0,85,50.84817089667506,28.572581031826193
P3751,2025-06-03 04:00:00,27.9511,110.8358,323.8,怀化市,三江,溆浦县,973.0,25.0,74,38.56777933208286,23.43897782778591
P3759,2025-06-03 04:00:00,27.8892,109.8911,162.9,怀化市,兰里,麻阳苗族自治县,990.6,24.7,80,49.87822817441878,24.88927835215252
P3761,2025-06-03 04:00:00,27.8553,109.9197,233.6,怀化市,和平溪,麻阳苗族自治县,981.4,24.7,76,42.00177079458071,23.644814434544895
P3763,2025-06-03 04:00:00,27.8783,109.695,179.8,怀化市,岩门镇黄土溪,麻阳苗族自治县,985.3,26.1,73,50.52422925254985,24.684550942234836
P3778,2025-06-03 04:00:00,27.7256,110.4086,121,怀化市,黄溪口,辰溪县,991.6,25.5,96,57.76334299486193,31.326651850992388
P3781,2025-06-03 04:00:00,27.6931,110.6811,528.9,怀化市,两丫坪,溆浦县,950.2,24.2,58,29.98571821723622,17.512056663040863
P3782,2025-06-03 04:00:00,27.7019,109.6039,265.2,怀化市,锦和,麻阳苗族自治县,977.8,25.2,70,43.644391324702354,22.438048642295602
P3783,2025-06-03 04:00:00,27.6689,110.1556,325,怀化市,花桥,中方县,969.6,25.0,69,42.010136942759765,21.855263109692263
P3784,2025-06-03 04:00:00,27.6725,109.7108,314,怀化市,江口圩,麻阳苗族自治县,976.6,26.5,63,39.791302605047754,21.812787274322627
P3790,2025-06-03 04:00:00,27.6664,109.8514,230,怀化市,贺家田,鹤城区,982.8,26.2,77,47.70552364774909,26.191659276747142
P3796,2025-06-03 04:00:00,27.6089,110.0964,246,怀化市,泸阳,中方县,981.1,25.8,68,44.043145639007165,22.588639942267765
P3798,2025-06-03 04:00:00,27.6269,110.6014,265.2,怀化市,北斗溪,溆浦县,977.7,25.9,65,42.24104787897979,21.72051764248143
P3800,2025-06-03 04:00:00,27.5886,110.28,186,怀化市,铜湾,中方县,988.8,26.0,68,46.30051609747712,22.858064825460957
P3803,2025-06-03 04:00:00,27.9714,110.3422,173.5,怀化市,桃田坳,辰溪县,989.4,25.2,73,45.9444654304673,23.399679298393988
P3811,2025-06-03 04:00:00,27.7506,110.1411,213,怀化市,肖家溪,辰溪县,987.6,26.1,74,50.70917757027304,25.022695475690107
P3820,2025-06-03 04:00:00,27.1161,109.9783,536.5,怀化市,高坡街,洪江市,947.8,24.1,71,35.637941595903584,21.308802391389378
P3823,2025-06-03 04:00:00,26.5053,109.5308,450,怀化市,靖州县排牙山,靖州苗族侗族自治县,958.0,25.4,68,33.40945855253286,22.058112579754336
P3825,2025-06-03 04:00:00,27.5183,110.1769,259.7,怀化市,新建敬老院,中方县,982.7,26.2,67,44.63918608696316,22.790145084961797
P3827,2025-06-03 04:00:00,27.5089,109.4536,370,怀化市,芷江县大树坳,芷江侗族自治县,967.2,26.1,63,38.10172831977993,21.30310560768212
P3833,2025-06-03 04:00:00,27.4483,109.7589,263,怀化市,岩桥,芷江侗族自治县,979.1,25.5,70,49.48304768944701,22.84235030801528
P3846,2025-06-03 04:00:00,27.4039,109.2453,444,怀化市,波州,新晃侗族自治县,956.5,24.1,76,41.16156391455151,22.80942227810694
P3849,2025-06-03 04:00:00,27.3447,109.9131,240,怀化市,牌楼,中方县,982.2,25.7,71,43.548753906286514,23.44563291983375
P3853,2025-06-03 04:00:00,27.3089,109.4775,466,怀化市,梨溪口水库,芷江侗族自治县,957.0,24.7,68,31.894970120184535,21.155886599329644
P3857,2025-06-03 04:00:00,27.325,109.0644,341,怀化市,鱼市,新晃侗族自治县,970.7,24.8,62,33.47567381980772,19.404873612654033
P3860,2025-06-03 04:00:00,27.1392,109.9714,172.1,怀化市,横岩,洪江市,986.2,26.1,66,45.249245912823525,22.317539208047936
P3870,2025-06-03 04:00:00,27.2317,109.2867,473,怀化市,降溪,新晃侗族自治县,954.8,24.1,79,44.78098579481171,23.709794210137474
P3871,2025-06-03 04:00:00,27.1842,109.1325,437,怀化市,扶罗,新晃侗族自治县,960.6,23.8,75,40.89124351606349,22.106747221245886
P3883,2025-06-03 04:00:00,27.1044,108.9556,501,怀化市,凉伞,新晃侗族自治县,953.0,25.2,72,40.46401085090773,23.079135746361196
P3896,2025-06-03 04:00:00,26.7839,109.8633,344.7,怀化市,木寨,会同县,970.1,24.6,80,43.75779557225647,24.740789617644406
P3897,2025-06-03 04:00:00,26.7228,109.5947,306,怀化市,会同县地灵,会同县,973.4,25.7,63,39.87968075837672,20.803871464077833
P3899,2025-06-03 04:00:00,26.7006,109.4481,394,怀化市,大堡子,靖州苗族侗族自治县,964.1,25.9,67,39.548832947000484,22.388841262250086
P3901,2025-06-03 04:00:00,26.6728,109.6456,346.4,怀化市,坳上,靖州苗族侗族自治县,969.0,26.5,63,40.687162061443566,21.812787274322627
P3904,2025-06-03 04:00:00,26.65,109.385,617.2,怀化市,三锹,靖州苗族侗族自治县,940.3,23.2,70,33.232302480695914,19.899149073541047
P3909,2025-06-03 04:00:00,26.4108,109.4269,398.3,怀化市,藕团,靖州苗族侗族自治县,964.8,26.0,64,31.301935475688396,21.51347277690443
P3914,2025-06-03 04:00:00,26.2025,109.5192,359,怀化市,播阳,通道侗族自治县,968.2,25.6,60,39.79092275957001,19.695879984635184
P3917,2025-06-03 04:00:00,26.08,109.5481,455.3,怀化市,独坡,通道侗族自治县,957.2,25.6,61,30.296329571388114,20.02414465104577
P3918,2025-06-03 04:00:00,26.0089,109.7683,512,怀化市,陇城,通道侗族自治县,950.9,24.6,61,38.550219358010494,18.864852083453858
P4001,2025-06-03 04:00:00,28.8097,111.0122,73,怀化市,五强溪,沅陵县,999.3,27.1,74,55.74460609069704,26.54286391522379
P4014,2025-06-03 04:00:00,28.5272,110.2183,136,怀化市,高竹坪,沅陵县,993.8,24.8,81,45.71624074655208,25.35152842943511
P4019,2025-06-03 04:00:00,27.4256,109.3614,331,怀化市,新店坪镇上坪,芷江侗族自治县,971.3,25.3,71,40.83126786572879,22.894573184460004
P4021,2025-06-03 04:00:00,28.1625,110.6406,348.4,怀化市,低庄镇大渭溪,溆浦县,969.0,25.1,100,62.553994694584034,31.863828880047958
P4023,2025-06-03 04:00:00,26.325,109.4625,397,怀化市,靖州县新厂,靖州苗族侗族自治县,964.5,27.4,55,28.287303399485413,20.07825578253881
P4030,2025-06-03 04:00:00,28.6453,110.3453,320,怀化市,高砌头,沅陵县,971.4,23.1,79,47.64817527585289,22.322122564579704
P4038,2025-06-03 04:00:00,27.7356,110.5281,566.3,怀化市,统溪河,溆浦县,944.9,23.6,89,46.6214094603492,25.919049270436403
P4042,2025-06-03 04:00:00,27.4094,109.8139,369,怀化市,水宽,芷江侗族自治县,967.6,24.3,72,42.00034306049561,21.86996941015506
P4043,2025-06-03 04:00:00,28.0339,110.4381,488,怀化市,谭家场,辰溪县,951.3,23.5,77,44.91339028589881,22.289461913259984
P4050,2025-06-03 04:00:00,27.425,110.6067,541,怀化市,大华,溆浦县,948.2,23.9,67,38.563353225302286,19.867934016436827
P4051,2025-06-03 04:00:00,26.9703,109.7375,334,怀化市,坪村,会同县,970.9,24.6,66,36.115397269338615,20.411151434556633
P4055,2025-06-03 04:00:00,27.6414,110.3222,210,怀化市,铜鼎,中方县,987.1,26.4,67,45.70106489088626,23.061163223756463
P4056,2025-06-03 04:00:00,27.5292,110.3503,255,怀化市,接龙,中方县,977.5,25.1,71,41.88093995786945,22.62331850483405
P4057,2025-06-03 04:00:00,27.3539,109.8394,343,怀化市,桐木,中方县,970.4,24.2,71,39.935967359849776,21.437172811653475
P4059,2025-06-03 04:00:00,27.1203,109.6225,244,怀化市,洪江市托口,洪江市,979.6,23.6,100,57.465550820491934,29.122527270153263
P4061,2025-06-03 04:00:00,27.1197,109.6967,204,怀化市,江市,洪江市,985.3,24.9,69,46.37323582149887,21.725165617170735
P4063,2025-06-03 04:00:00,28.3528,110.3003,134,怀化市,盘古,沅陵县,993.1,25.0,75,49.65864875773341,23.755720771404636
P4068,2025-06-03 04:00:00,27.0119,109.8433,400,怀化市,大溪水库,会同县,964.5,25.3,71,36.62654396019605,22.894573184460004
P4069,2025-06-03 04:00:00,28.8036,110.6261,150,怀化市,大合坪,沅陵县,991.2,26.1,69,49.313918248753396,23.33197280841375
P4070,2025-06-03 04:00:00,28.5286,110.6353,320,怀化市,长界,沅陵县,972.9,25.0,78,49.09343781566157,24.705949602260823
P4079,2025-06-03 04:00:00,27.8842,110.7317,535.2,怀化市,桥江镇新田,溆浦县,949.4,22.8,83,49.54202991631394,23.029814597175847
P4080,2025-06-03 04:00:00,27.8681,110.0928,163,怀化市,红敏,辰溪县,990.7,25.0,71,42.88074644609308,22.488748996929726
P4092,2025-06-03 04:00:00,26.7067,109.7314,294.7,怀化市,靖州县甘棠,靖州苗族侗族自治县,975.4,27.0,69,43.1232143966476,24.60437313171473
P4093,2025-06-03 04:00:00,26.3322,109.335,482,怀化市,平茶,靖州苗族侗族自治县,955.0,25.0,64,33.39633515601619,20.271548391598625
P4094,2025-06-03 04:00:00,26.4539,109.895,381.9,怀化市,联团,通道侗族自治县,960.7,25.1,65,32.10390790480901,20.711488772031174
P4095,2025-06-03 04:00:00,26.2911,109.9364,433.1,怀化市,石岩,通道侗族自治县,958.6,25.9,54,36.73852316488039,18.044737733753802
P4116,2025-06-03 04:00:00,27.8944,109.6364,220.1,怀化市,石羊哨,麻阳苗族自治县,984.0,26.0,70,41.861045423715325,23.530360849739214
P4121,2025-06-03 04:00:00,28.0506,110.7606,247.6,怀化市,祖师殿,溆浦县,980.8,24.8,78,42.08780711072852,24.412582932048622
P4122,2025-06-03 04:00:00,27.9525,110.7689,290.3,怀化市,油洋,溆浦县,976.3,24.7,70,42.55791339461683,21.77811855813345
P4123,2025-06-03 04:00:00,27.8836,110.3986,146.1,怀化市,大江口,溆浦县,992.2,24.9,71,43.84031848654403,22.354880562595973
P4126,2025-06-03 04:00:00,27.8461,110.6906,225.2,怀化市,陶金坪,溆浦县,982.3,23.5,81,48.75045210506257,23.447356038624143
P4131,2025-06-03 04:00:00,27.4036,110.5142,510,怀化市,龙潭镇横板桥,溆浦县,951.5,24.1,60,29.366995744961617,18.00743864061074
P4143,2025-06-03 04:00:00,27.315,110.1617,225,怀化市,洪江市安江,洪江市,982.7,24.9,68,44.12895981846739,21.41030814445812
P4144,2025-06-03 04:00:00,27.1914,110.1669,326,怀化市,洪江市熟坪,洪江市,972.8,24.6,80,43.45137928482056,24.740789617644406
P4149,2025-06-03 04:00:00,27.2317,109.7297,281,怀化市,岩垅,洪江市,976.8,24.9,67,39.50663483445744,21.095450671745496
P4155,2025-06-03 04:00:00,26.9625,110.0258,221.6,怀化市,会同县高椅,会同县,983.2,25.0,81,52.512729598982645,25.65617843311701
P4156,2025-06-03 04:00:00,26.9819,109.7731,340.4,怀化市,堡子,会同县,971.9,24.8,80,50.70038904111656,25.038546596972946
P4167,2025-06-03 04:00:00,26.3656,109.6619,349.9,怀化市,县溪镇江口,通道侗族自治县,965.7,25.4,64,32.67495821479745,20.760576545651137
P4175,2025-06-03 04:00:00,26.085,109.8053,407.3,怀化市,长安堡,通道侗族自治县,960.6,26.3,68,47.498585683230765,23.26747260734894
P4198,2025-06-03 04:00:00,28.6917,110.5306,158,怀化市,落坪,沅陵县,990.5,24.5,94,62.324677929421895,28.896865405493724
P4200,2025-06-03 04:00:00,27.4572,109.9464,236,怀化市,中方站,中方县,981.6,24.7,69,42.17265610408429,21.467002578731545
P4201,2025-06-03 04:00:00,27.8675,110.0128,207.8,怀化市,黄桑乡军田,麻阳苗族自治县,979.5,24.0,67,35.90398142574539,19.98780384228158
P4205,2025-06-03 04:00:00,26.6747,109.3367,635,怀化市,塘款,靖州苗族侗族自治县,937.8,23.0,70,32.949034981985776,19.65967782131166
P4404,2025-06-03 04:00:00,27.8869,111.5178,442,娄底市,华新,新化县,958.3,26.7,58,35.10526446035246,20.31988890608483
P4416,2025-06-03 04:00:00,27.6861,111.2781,211,娄底市,科头,新化县,982.2,25.5,62,35.67320561889542,20.23179598709925
P4420,2025-06-03 04:00:00,28.08,111.3736,243,娄底市,龙溪,新化县,978.4,27.3,52,26.380836744732324,18.872065789312373
P4432,2025-06-03 04:00:00,28.0161,111.2794,156.6,娄底市,何家坪,新化县,986.7,27.1,59,37.66213303388081,21.16255366213789
P4435,2025-06-03 04:00:00,27.7942,111.0617,504,娄底市,古台山林场,新化县,948.8,24.1,63,38.03380769740296,18.907810572641278
P4440,2025-06-03 04:00:00,27.6244,111.1006,274,娄底市,半山水库,新化县,977.4,25.4,60,34.44813316679193,19.46304051154794
P4446,2025-06-03 04:00:00,27.8789,111.3722,279.4,娄底市,水竹,新化县,976.2,26.2,59,33.8315067447082,20.068933731533523
P4481,2025-06-03 04:00:00,27.7511,110.8889,851.1,娄底市,大桥,新化县,914.0,22.9,59,28.948249270343368,16.470180277859367
P4512,2025-06-03 04:00:00,27.5672,111.3708,289,娄底市,连岩,冷水江市,974.2,26.4,61,43.17492429373342,20.99598442759917
P4515,2025-06-03 04:00:00,27.7794,111.4869,677,娄底市,谭家,冷水江市,931.1,22.5,69,37.207120637182165,18.799555531524543
P4516,2025-06-03 04:00:00,27.6011,111.4764,178,娄底市,杨源,冷水江市,986.0,27.0,59,40.88948556544835,21.03852195320535
P4517,2025-06-03 04:00:00,27.6461,111.5622,338,娄底市,大冲,冷水江市,970.9,24.9,67,44.63414270311168,21.095450671745496
P4561,2025-06-03 04:00:00,27.5222,111.7556,693,娄底市,龙山林场,涟源市,930.8,22.8,57,20.041984575617143,15.815655807699073
P4562,2025-06-03 04:00:00,27.85,111.7756,141,娄底市,迎宾,涟源市,989.6,26.3,59,35.89785729859213,20.18795417402334
P4563,2025-06-03 04:00:00,27.8811,111.6511,613.5,娄底市,古塘,涟源市,940.8,23.6,61,33.09633509231432,17.76474163479349
P4564,2025-06-03 04:00:00,27.72,111.6253,185,娄底市,芙蓉,涟源市,988.6,26.3,65,40.7140648417589,22.24096646290707
P4565,2025-06-03 04:00:00,27.8219,111.6697,350,娄底市,安平,涟源市,966.7,25.7,67,42.76452730238074,22.12475219195579
P4567,2025-06-03 04:00:00,27.9064,111.8492,181,娄底市,七星中学,涟源市,987.5,26.9,63,48.81816696155264,22.333100909437878
P4568,2025-06-03 04:00:00,27.7781,111.8789,97,娄底市,渡头塘,涟源市,994.8,27.0,57,45.1551260871753,20.325351717503473
P4569,2025-06-03 04:00:00,27.4906,111.9294,298.7,娄底市,坝塘,涟源市,970.4,25.4,34,20.08322686700404,11.029056289877168
P4570,2025-06-03 04:00:00,27.7767,111.7514,166,娄底市,龙塘,涟源市,987.6,26.2,60,40.844648638026555,20.409085150712055
P4571,2025-06-03 04:00:00,27.55,111.6817,185.6,娄底市,孙家桥,涟源市,986.0,27.4,52,40.081800525356286,18.98307819440033
P4572,2025-06-03 04:00:00,27.6306,111.9314,148,娄底市,水洞底,娄星区,992.9,27.4,63,45.442861830984214,22.998729350908093
P4573,2025-06-03 04:00:00,27.5897,111.9006,146.8,娄底市,荷塘,涟源市,989.6,28.4,55,42.02438383979588,21.286040356388938
P4574,2025-06-03 04:00:00,27.575,111.8128,148.8,娄底市,茶亭子,涟源市,988.6,26.9,51,37.2580518941595,18.079176926687804
P4575,2025-06-03 04:00:00,27.6592,111.8269,185,娄底市,斗笠山,涟源市,985.7,27.1,50,35.16006583703718,17.934367510286346
P4576,2025-06-03 04:00:00,27.6225,111.6239,281.2,娄底市,谢家,涟源市,981.8,26.6,63,45.537319945842164,21.941861674357526
P4577,2025-06-03 04:00:00,27.7153,111.7697,108,娄底市,湖泉,涟源市,993.5,27.4,54,36.94311753287988,19.713196586492653
P4578,2025-06-03 04:00:00,27.5856,111.7683,208.3,娄底市,茅塘,涟源市,982.6,26.9,49,40.07775077484388,17.370189596229462
P4580,2025-06-03 04:00:00,27.8442,111.8475,134.6,娄底市,桥头河,涟源市,993.0,28.0,51,42.4874516879987,19.283116891045175
P4582,2025-06-03 04:00:00,27.6583,111.7725,146.5,娄底市,青树,涟源市,989.5,27.3,50,31.469647469792204,18.14621710510805
P4583,2025-06-03 04:00:00,27.9822,111.6572,488,娄底市,漆树,涟源市,951.4,24.7,49,22.4406433866415,15.244682990693418
P4594,2025-06-03 04:00:00,27.6264,111.6889,199,娄底市,杨岭水库,涟源市,983.2,27.1,52,42.61366337332451,18.6517422106978
P4601,2025-06-03 04:00:00,27.7633,111.9192,165,娄底市,石井,娄星区,990.1,26.8,50,34.12617381193637,17.62064727735575
P4602,2025-06-03 04:00:00,27.7783,111.9608,117,娄底市,黄泥塘,娄星区,993.4,27.3,54,42.726583313743404,19.597914473516695
P4611,2025-06-03 04:00:00,27.7747,112.0722,77,娄底市,春园中学,娄星区,995.4,27.4,58,42.01507426807685,21.17343337067729
P4614,2025-06-03 04:00:00,27.8078,112.0092,146,娄底市,花溪谷,娄星区,992.5,27.8,58,43.35182364502577,21.67510890048982
P4615,2025-06-03 04:00:00,27.6531,111.995,154,娄底市,军分区仓库,娄星区,991.8,31.7,47,41.715356039877705,21.990714052380543
P4618,2025-06-03 04:00:00,27.9219,111.9692,272,娄底市,双江水库,娄星区,979.3,26.5,58,45.216784784917905,20.081613681122416
P4627,2025-06-03 04:00:00,27.7464,112.0158,112.5,娄底市,乐坪,娄星区,993.5,26.8,59,43.626426354611965,20.792363787279786
P4639,2025-06-03 04:00:00,27.7286,112.0014,151.5,娄底市,市气象局,娄星区,991.1,27.2,51,31.650432452237528,18.40082087173366
P4651,2025-06-03 04:00:00,27.4397,112.1436,83.5,娄底市,金开街道,双峰县,997.3,25.6,57,39.94630539359337,18.711085985403425
P4657,2025-06-03 04:00:00,27.5836,112.0908,106,娄底市,洪福,娄星区,994.2,26.4,62,42.533856612927735,21.340180893625384
P4660,2025-06-03 04:00:00,27.6347,112.2511,68.4,娄底市,水府庙,双峰县,1000.3,26.8,23,18.2425550373475,8.105497747583646
P4661,2025-06-03 04:00:00,27.4411,111.9703,128.9,娄底市,甘棠,双峰县,992.2,26.6,55,32.95982868207584,19.15559352523276
P4662,2025-06-03 04:00:00,27.6261,112.2436,74.9,娄底市,杏子铺,双峰县,999.8,27.1,55,42.81487472340804,19.727804261314983
P4663,2025-06-03 04:00:00,27.5339,112.2253,56.5,娄底市,黄马洲,双峰县,1000.0,27.1,58,35.886692247462086,20.803866311932158
P4666,2025-06-03 04:00:00,27.3297,112.1042,106.8,娄底市,锁石,双峰县,995.4,27.9,57,40.23553939624247,21.426240067217403
P4667,2025-06-03 04:00:00,27.4825,112.1942,67,娄底市,茅坪,双峰县,998.8,26.3,59,36.50845051964522,20.18795417402334
P4668,2025-06-03 04:00:00,27.3981,111.9872,116.2,娄底市,三塘铺,双峰县,993.8,26.1,59,41.875037705463626,19.950527473861033
P4669,2025-06-03 04:00:00,27.4258,112.1083,83.5,娄底市,岳家,双峰县,995.9,26.6,57,35.472865655271136,19.85216056251395
P4670,2025-06-03 04:00:00,27.4661,112.4281,115.2,娄底市,井字,双峰县,992.6,27.3,53,39.551022876727544,19.234990131414534
P4671,2025-06-03 04:00:00,27.5189,112.1044,84.1,娄底市,走马街,双峰县,996.5,27.4,59,43.38574791325832,21.538492566723452
P4672,2025-06-03 04:00:00,27.3789,112.0317,106.2,娄底市,青树坪,双峰县,994.5,26.5,57,40.003458034972574,19.735378962482375
P4674,2025-06-03 04:00:00,27.3983,112.4289,118.2,娄底市,双鱼,双峰县,992.2,27.5,55,45.21056051520682,20.196276019077978
P4675,2025-06-03 04:00:00,27.5603,112.0128,88.5,娄底市,洪山殿,双峰县,996.2,27.7,57,41.642846866900584,21.177196304035522
P4676,2025-06-03 04:00:00,27.2908,112.0944,109.5,娄底市,花门,双峰县,994.5,26.3,58,39.15717751398444,19.845785459209385
P4677,2025-06-03 04:00:00,27.38,112.2297,116.2,娄底市,石牛,双峰县,991.5,26.9,59,48.176962649901306,20.915126248521187
P4678,2025-06-03 04:00:00,27.4853,112.2675,123.2,娄底市,民实,双峰县,991.3,25.7,63,42.49947804771124,20.803871464077833
P4801,2025-06-03 04:00:00,28.0036,112.4569,123,湘潭市,金石,湘乡市,995.1,27.0,54,42.813351470727746,19.255596363950662
P4802,2025-06-03 04:00:00,27.9392,113.0025,36,湘潭市,昭山,岳塘区,1003.4,26.7,65,46.580526998059085,22.77228929130197
P4804,2025-06-03 04:00:00,27.9589,112.4703,106.6,湘潭市,石屏,韶山市,995.4,26.4,51,34.04205376606068,17.55401976733701
P4806,2025-06-03 04:00:00,27.935,112.3047,72,湘潭市,金薮,湘乡市,988.2,26.7,57,37.136120166213075,19.969545993910955
P4807,2025-06-03 04:00:00,28.02,112.4997,111.3,湘潭市,云源,韶山市,993.8,26.5,54,32.24087026784914,18.696674806562253
P4815,2025-06-03 04:00:00,27.9203,112.4253,134.6,湘潭市,新联,韶山市,990.6,27.3,61,48.31441860023775,22.138384868231824
P4816,2025-06-03 04:00:00,27.8856,112.9744,60,湘潭市,荷塘,岳塘区,1000.6,26.9,58,40.23433492936441,20.560632583292012
P4818,2025-06-03 04:00:00,27.9178,112.5942,72.4,湘潭市,银田,韶山市,998.0,26.4,52,38.835069918817815,17.898216233363225
P4821,2025-06-03 04:00:00,27.89,112.5347,69.9,湘潭市,高铁南站,韶山市,997.7,27.2,63,49.891853197351175,22.730425782729817
P4829,2025-06-03 04:00:00,27.8378,112.5158,120,湘潭市,龙洞,湘乡市,998.3,27.2,55,34.9257308999379,19.84402250873238
P4831,2025-06-03 04:00:00,27.8344,112.9397,68,湘潭市,锦源广场,岳塘区,1000.5,27.9,51,43.39485730140568,19.17084637593136
P4834,2025-06-03 04:00:00,27.7967,112.5972,75,湘潭市,韶灌科研所,湘乡市,1000.5,26.7,52,34.88637154561512,18.217831433041574
P4835,2025-06-03 04:00:00,27.7922,112.9525,78,湘潭市,易俗河,湘潭县,1002.0,26.7,46,23.007953800629345,16.115773959998318
P4839,2025-06-03 04:00:00,27.7614,112.4711,90,湘潭市,泉塘,湘乡市,999.4,27.0,56,28.25209467634361,19.96876659965254
P4841,2025-06-03 04:00:00,27.7161,112.3417,57,湘潭市,潭市,湘乡市,1000.0,27.0,51,35.96947582513319,18.185841010397844
P4843,2025-06-03 04:00:00,27.6639,112.4522,75.4,湘潭市,洙津渡,湘乡市,1000.8,26.6,59,40.361415529331204,20.548727599795143
P4844,2025-06-03 04:00:00,27.6903,112.1053,99.7,湘潭市,毛田,湘乡市,997.1,27.0,60,42.50596775951347,21.395107071056287
P4845,2025-06-03 04:00:00,27.6383,112.5831,259.8,湘潭市,梅桥,湘乡市,978.4,24.3,60,35.26597779971924,18.224974508462548
P4846,2025-06-03 04:00:00,27.6442,112.3406,82,湘潭市,洋潭电站,湘乡市,999.1,27.0,56,30.800349544148585,19.96876659965254
P4847,2025-06-03 04:00:00,27.6442,112.6283,93.5,湘潭市,上石坝水库,湘潭县,995.6,27.3,54,39.439108298613085,19.597914473516695
P4848,2025-06-03 04:00:00,27.6269,112.3814,104,湘潭市,栗山,湘乡市,998.6,26.9,58,40.39842300366932,20.560632583292012
P4850,2025-06-03 04:00:00,27.6158,112.71,65.1,湘潭市,锦石,湘潭县,999.8,26.1,65,41.82935757406537,21.979394674592665
P4851,2025-06-03 04:00:00,27.5836,112.6533,98.7,湘潭市,严冲水库,湘潭县,997.6,27.5,55,35.50860867576797,20.196276019077978
P4852,2025-06-03 04:00:00,27.5608,112.9153,68.2,湘潭市,中路铺水库,湘潭县,1000.3,25.8,59,35.85184299018862,19.598967008732323
P4854,2025-06-03 04:00:00,27.5328,112.3353,140,湘潭市,中沙,湘乡市,992.3,26.3,59,50.01191622059684,20.18795417402334
P4855,2025-06-03 04:00:00,27.5292,112.5147,76.4,湘潭市,石鼓,湘潭县,997.2,26.3,60,39.85404508757893,20.530122888837294
P4858,2025-06-03 04:00:00,27.4975,112.8272,99,湘潭市,印子山水库,湘潭县,995.4,27.1,56,39.68221729356907,20.08649161152071
P4860,2025-06-03 04:00:00,27.4747,112.7319,84.2,湘潭市,龙口,湘潭县,997.2,28.0,51,32.00395180440298,19.283116891045175
P4862,2025-06-03 04:00:00,27.3747,112.825,76.9,湘潭市,茶恩寺,湘潭县,998.8,25.7,61,40.36517607089887,20.14343110013885
P4863,2025-06-03 04:00:00,27.7808,112.7739,63,湘潭市,杨嘉桥,湘潭县,1001.7,27.6,57,33.20397122697208,21.053625858187807
P4864,2025-06-03 04:00:00,27.8578,112.8989,30,湘潭市,白石公园,雨湖区,1003.8,27.5,57,36.72309724999383,20.930686056135354
P4865,2025-06-03 04:00:00,27.9172,112.9608,38,湘潭市,九华,雨湖区,1003.7,27.3,57,37.441894469529025,20.686687499823176
P4868,2025-06-03 04:00:00,27.8489,112.3881,102.6,湘潭市,白田,湘乡市,997.4,27.2,59,43.551494430271305,21.287224145731095
P4870,2025-06-03 04:00:00,27.8144,112.3172,90.2,湘潭市,褒忠山,湘乡市,997.2,27.9,50,28.170984210927116,18.79494742738369
P4873,2025-06-03 04:00:00,27.7042,112.9678,74.1,湘潭市,梅林桥,湘潭县,997.5,25.8,62,40.782370609101896,20.595524653244134
P4877,2025-06-03 04:00:00,27.6872,112.2133,132,湘潭市,水府旅游区,湘乡市,997.4,26.2,39,23.30335727161284,13.265905347962837
P4879,2025-06-03 04:00:00,27.7286,112.725,40.5,湘潭市,石潭,湘潭县,1002.5,27.0,56,42.93597940892037,19.96876659965254
P4881,2025-06-03 04:00:00,27.8331,113.0089,25,湘潭市,马家河,岳塘区,1003.5,27.8,57,38.71166194192766,21.301400126343445
P4885,2025-06-03 04:00:00,27.7089,112.5983,132.5,湘潭市,奇才,湘潭县,993.4,26.6,56,37.47238490997535,19.50387704387336
P4890,2025-06-03 04:00:00,27.6028,112.3539,98,湘潭市,虞唐,湘乡市,994.0,25.0,61,35.41384383908593,19.321319560742438
P4919,2025-06-03 04:00:00,27.8208,112.225,228.9,湘潭市,农之源,湘乡市,982.3,27.1,52,37.23918528991647,18.6517422106978
P5101,2025-06-03 04:00:00,28.1106,113.0253,72,长沙市,省植物园,雨花区,998.2,25.7,57,33.69673943359489,18.822550372260892
P5103,2025-06-03 04:00:00,28.0467,113.0011,83,长沙市,西湖小学,天心区,998.0,28.6,53,35.060761852761374,20.751976404777203
P5104,2025-06-03 04:00:00,28.3772,113.44,91,长沙市,中洲,浏阳市,997.9,27.2,54,36.41550103345226,19.4832220994827
P5106,2025-06-03 04:00:00,28.5328,113.2044,119,长沙市,福临,长沙县,995.0,26.7,60,37.75774362896013,21.020574730432585
P5107,2025-06-03 04:00:00,28.4536,113.0375,73,长沙市,北山镇福高,长沙县,1000.1,26.6,66,42.099493644063415,22.986712230279313
P5108,2025-06-03 04:00:00,28.5322,113.3683,78,长沙市,金井,长沙县,999.0,27.5,49,29.216530974941023,17.993045907905834
P5110,2025-06-03 04:00:00,28.2892,113.1817,58,长沙市,银龙,长沙县,1002.0,26.5,60,32.37999392788847,20.7740831184025
P5111,2025-06-03 04:00:00,28.5892,113.3836,140,长沙市,白石洞水库,长沙县,992.0,27.2,55,35.297040011585466,19.84402250873238
P5112,2025-06-03 04:00:00,28.5469,113.2,113,长沙市,西冲水库,长沙县,995.5,26.4,57,38.80886301853437,19.619198563494304
P5114,2025-06-03 04:00:00,28.4783,112.8044,45,长沙市,铜官,望城区,1002.5,27.1,58,36.543771961294254,20.803866311932158
P5115,2025-06-03 04:00:00,28.5142,112.7536,24,长沙市,苏蓼垸,望城区,1004.2,25.4,71,41.73938127015209,23.03126460533173
P5116,2025-06-03 04:00:00,28.2419,112.7236,71,长沙市,光明,望城区,1000.5,27.3,63,40.98630848026036,22.864233552436147
P5118,2025-06-03 04:00:00,28.485,113.3806,96,长沙市,桐仁桥水库,长沙县,996.5,26.3,56,38.45757093061828,19.16144802958148
P5121,2025-06-03 04:00:00,28.3467,112.8169,55,长沙市,和园公园,望城区,1002.9,27.2,57,36.01979760473865,20.565623327231737
P5123,2025-06-03 04:00:00,28.6153,113.2478,64,长沙市,枫林市,长沙县,1000.9,26.4,59,38.61919806693768,20.30759149554674
P5124,2025-06-03 04:00:00,28.4675,113.0103,392,长沙市,黑麋峰水电站,望城区,962.6,24.9,66,37.83392388263041,20.78059319903288
P5126,2025-06-03 04:00:00,28.2311,113.0644,71,长沙市,金科公园,长沙县,1001.3,26.4,58,36.19326596403632,19.96339502952052
P5132,2025-06-03 04:00:00,28.2947,112.7897,194,长沙市,英雄岭,望城区,987.3,24.6,76,42.47589826759963,23.503750136762186
P5137,2025-06-03 04:00:00,28.4061,112.7758,97,长沙市,廖家坪,望城区,997.4,26.9,64,43.66394748847586,22.68759457466705
P5140,2025-06-03 04:00:00,27.9883,112.9792,31,长沙市,兴马洲,天心区,1004.2,27.4,53,37.035556739976684,19.348137390446492
P5142,2025-06-03 04:00:00,28.2556,113.1589,47.5,长沙市,长龙,长沙县,1001.4,25.9,59,30.503365894752665,19.715546783175448
P5143,2025-06-03 04:00:00,28.0861,113.1761,23,长沙市,黄兴镇林塘,长沙县,1002.6,26.3,61,37.52389713263671,20.872291603651252
P5150,2025-06-03 04:00:00,28.3217,112.8728,53,长沙市,大泽湖,望城区,1002.8,25.9,70,46.05071253828637,23.391326691903075
P5151,2025-06-03 04:00:00,28.3128,112.8869,55,长沙市,永通车管所,望城区,1003.2,26.2,62,28.97583819820553,21.089387989069124
P5156,2025-06-03 04:00:00,28.3111,112.9056,40,长沙市,四医院,望城区,1003.5,26.1,63,37.53766663086447,21.30310560768212
P5157,2025-06-03 04:00:00,28.4072,114.1969,531,长沙市,东麓园,浏阳市,950.7,25.1,66,40.98246734638145,21.030127060831653
P5161,2025-06-03 04:00:00,28.4922,112.7303,28,长沙市,乔口,望城区,1005.1,25.6,68,35.99877817705289,22.32199731591988
P5162,2025-06-03 04:00:00,28.3003,112.92,44,长沙市,新奥佳园,望城区,1003.9,26.4,61,37.640570287398845,20.99598442759917
P5163,2025-06-03 04:00:00,28.2825,112.9075,61,长沙市,金峰园,望城区,1002.2,26.2,58,35.09461082828494,19.728782312354987
P5164,2025-06-03 04:00:00,28.2931,112.8494,54,长沙市,李家祠堂,望城区,1003.3,26.9,61,35.101812557225465,21.624113578979532
P5165,2025-06-03 04:00:00,28.5281,113.3594,78,长沙市,石壁湖,长沙县,1000.9,26.6,53,34.974994929023545,18.45902648795157
P5175,2025-06-03 04:00:00,28.4675,113.3308,61.1,长沙市,锦绣,长沙县,1000.0,27.3,51,30.915442265412295,18.50914144721021
P5187,2025-06-03 04:00:00,28.49,113.1111,53,长沙市,新桥,长沙县,1002.2,27.5,58,34.19427898067203,21.297891074664044
P5188,2025-06-03 04:00:00,28.4061,112.9925,85,长沙市,北山水库,长沙县,997.8,25.9,64,43.67926164198557,21.386355832597097
P5189,2025-06-03 04:00:00,28.4369,112.9975,64,长沙市,洞阳,望城区,1001.1,26.4,61,39.8374666812272,20.99598442759917
P5190,2025-06-03 04:00:00,28.2758,112.9675,32,长沙市,江湾,开福区,1004.0,26.0,63,37.77191193320979,21.1773247647653
P5195,2025-06-03 04:00:00,28.4267,112.9922,120,长沙市,黑麋峰,望城区,993.5,26.0,64,47.75265339091746,21.51347277690443
P5199,2025-06-03 04:00:00,27.975,113.7275,125,长沙市,大瑶,浏阳市,993.5,24.4,67,31.872602468691053,20.47363963819215
P5201,2025-06-03 04:00:00,28.4103,113.22,52,长沙市,明月,长沙县,1002.3,27.5,59,36.623681612441366,21.665096093192737
P5206,2025-06-03 04:00:00,28.3222,113.3075,66,长沙市,红旗水库,长沙县,1000.7,26.3,62,40.126140817291486,21.214460318465207
P5215,2025-06-03 04:00:00,28.4372,113.6556,268,长沙市,周洛,浏阳市,976.9,24.1,68,40.08039283340465,20.408430459358843
P5218,2025-06-03 04:00:00,28.2203,112.9436,49,长沙市,咸嘉湖,岳麓区,1003.2,27.1,58,39.12744564368685,20.803866311932158
P5221,2025-06-03 04:00:00,28.4306,113.5953,145,长沙市,石牛,浏阳市,991.1,26.2,60,30.219734227899345,20.409085150712055
P5225,2025-06-03 04:00:00,28.2489,113.0753,61,长沙市,县政府,长沙县,1001.3,26.9,58,35.91479660327528,20.560632583292012
P5230,2025-06-03 04:00:00,28.2311,112.6875,41,长沙市,天马新村,宁乡市,1002.9,25.5,65,31.514381890627934,21.210753857442764
P5231,2025-06-03 04:00:00,28.3489,112.8297,44,长沙市,望府路,望城区,1003.4,26.9,76,52.36431451769274,26.941518557417123
P5233,2025-06-03 04:00:00,28.2806,112.5453,67,长沙市,玉潭,宁乡市,1000.5,27.3,58,34.494119292546934,21.049611841925337
P5235,2025-06-03 04:00:00,28.4014,113.1228,69,长沙市,和平,长沙县,999.7,27.1,78,48.10324904617811,27.9776133160467
P5245,2025-06-03 04:00:00,28.3578,113.7469,192,长沙市,宝盖寺,浏阳市,987.7,25.9,61,40.49195363124002,20.38387040294411
P5249,2025-06-03 04:00:00,28.4283,114.1492,1437,长沙市,大围山,浏阳市,852.7,16.2,93,36.78471976231316,17.11460354594165
P5259,2025-06-03 04:00:00,28.4119,112.9264,47,长沙市,桥驿,望城区,1002.6,26.4,60,33.98401333877258,20.651787961572953
P5266,2025-06-03 04:00:00,28.225,112.1089,242,长沙市,石龙洞,宁乡市,980.3,26.9,49,24.216456477649086,17.370189596229462
P5269,2025-06-03 04:00:00,28.28,112.6847,60,长沙市,关山,宁乡市,1001.7,26.0,62,28.76207210360968,20.841176752626165
P5273,2025-06-03 04:00:00,28.32,112.7211,52,长沙市,乌山,望城区,1003.4,27.6,60,37.252747390470006,22.161711429671374
P5275,2025-06-03 04:00:00,28.3381,113.2011,41,长沙市,果园,长沙县,1003.8,26.5,59,38.08070127921035,20.42784839976246
P5281,2025-06-03 04:00:00,28.2647,112.9558,46,长沙市,观沙岭,岳麓区,1003.6,27.4,61,42.88855633189781,22.268610958815774
P5290,2025-06-03 04:00:00,28.3578,113.8136,136,长沙市,礼花,浏阳市,993.5,26.9,58,39.426628741883405,20.560632583292012
P5291,2025-06-03 04:00:00,28.4119,113.9247,125,长沙市,椒花水库,浏阳市,993.8,27.3,58,36.422914971402136,21.049611841925337
P5292,2025-06-03 04:00:00,28.2658,114.0942,207,长沙市,皇碑,浏阳市,985.1,23.8,71,39.08011138513883,20.927720702779443
P5293,2025-06-03 04:00:00,28.0658,113.5647,88,长沙市,青草,浏阳市,1000.0,26.6,60,36.97286746072926,20.89701111843574
P5294,2025-06-03 04:00:00,27.9958,113.7706,94,长沙市,澄潭江,浏阳市,997.1,25.2,68,39.14915644283545,21.796961538230022
P5295,2025-06-03 04:00:00,28.0739,113.9867,166,长沙市,岩前,浏阳市,988.4,23.8,75,41.615156471696345,22.106747221245886
P5296,2025-06-03 04:00:00,28.1881,113.5158,417,长沙市,菖蒲岭,浏阳市,960.8,25.5,67,42.12526370984505,21.863392437671774
P5298,2025-06-03 04:00:00,28.2083,112.7342,75,长沙市,白箬铺,望城区,1000.6,27.1,55,26.07441634848094,19.727804261314983
P5303,2025-06-03 04:00:00,28.3167,112.9208,43,长沙市,月亮岛公园,望城区,1004.3,26.8,63,46.51105123787099,22.202015569468248
P5304,2025-06-03 04:00:00,28.1058,112.9289,46,长沙市,大王山,岳麓区,1002.8,27.0,56,43.37540109850459,19.96876659965254
P5305,2025-06-03 04:00:00,28.0719,112.9189,39,长沙市,巴溪洲,岳麓区,1004.1,27.8,57,37.48551507350961,21.301400126343445
P5306,2025-06-03 04:00:00,28.1253,112.9214,30,长沙市,洋湖湿地,岳麓区,1004.6,28.3,54,35.68733153590816,20.777699548613917
P5307,2025-06-03 04:00:00,28.2764,112.8547,64,长沙市,观音岩水库,望城区,1000.8,25.9,58,32.2614323195868,19.38138497329112
P5309,2025-06-03 04:00:00,28.2733,112.8256,50,长沙市,黄金园,望城区,1002.4,26.4,60,34.913512495217745,20.651787961572953
P5314,2025-06-03 04:00:00,28.2231,113.1889,70,长沙市,黄龙小学,长沙县,1000.2,26.9,58,39.15635803563368,20.560632583292012
P5315,2025-06-03 04:00:00,28.2975,113.4322,74.4,长沙市,北盛,浏阳市,999.9,28.8,52,36.28079269221015,20.59827833474205
P5322,2025-06-03 04:00:00,28.2247,112.2611,121,长沙市,喻家坳,宁乡市,995.2,25.8,53,31.69393647686229,17.605851719708696
P5323,2025-06-03 04:00:00,28.2836,113.9053,122,长沙市,铁山,浏阳市,993.5,26.1,67,42.352853988381604,22.655683741503207
P5328,2025-06-03 04:00:00,28.2336,112.9639,65,长沙市,岳北,岳麓区,1003.9,26.7,62,40.255540011332634,21.72126055478034
P5329,2025-06-03 04:00:00,28.4608,112.7889,44,长沙市,靖港电排,望城区,1004.7,26.5,57,35.06112510217635,19.735378962482375
P5330,2025-06-03 04:00:00,28.1872,112.9747,64,长沙市,天心公园,天心区,1002.1,26.7,55,39.12312477258337,19.268860169563204
P5331,2025-06-03 04:00:00,28.1886,111.9597,574,长沙市,沩山,宁乡市,940.9,23.1,58,24.99541679772489,16.38839378159016
P5332,2025-06-03 04:00:00,28.1672,113.1039,37,长沙市,敢胜,长沙县,1004.0,27.3,56,33.10578236508789,20.323763157721018
P5333,2025-06-03 04:00:00,28.145,112.9647,92,长沙市,南郊公园,天心区,998.7,27.0,57,38.35615262595931,20.325351717503473
P5335,2025-06-03 04:00:00,28.31,112.4928,78,长沙市,菁华铺,宁乡市,999.8,27.0,60,36.91358052578782,21.395107071056287
P5336,2025-06-03 04:00:00,28.1936,112.5236,67,长沙市,金州村,宁乡市,1000.6,25.3,62,36.23911683167373,19.99244418924676
P5337,2025-06-03 04:00:00,28.1239,112.23,112,长沙市,云山,宁乡市,996.5,26.5,58,34.573131418895315,20.081613681122416
P5339,2025-06-03 04:00:00,28.0281,112.0342,348,长沙市,草冲,宁乡市,969.0,25.1,62,43.32678931806471,19.755573905629735
P5342,2025-06-03 04:00:00,27.9244,112.1153,201,长沙市,田心铺,宁乡市,986.6,26.3,54,36.00805016826609,18.47711059995357
P5343,2025-06-03 04:00:00,28.1831,112.765,70,长沙市,牌楼坝,望城区,999.8,27.0,57,37.69535229910394,20.325351717503473
P5345,2025-06-03 04:00:00,28.2161,112.8033,36,长沙市,真人桥,望城区,1000.0,26.0,56,37.11768276031029,18.824288679791376
P5346,2025-06-03 04:00:00,28.2114,112.9578,36,长沙市,银盆岭,岳麓区,1003.9,27.4,59,37.38648225570919,21.538492566723452
P5347,2025-06-03 04:00:00,28.1581,112.9825,104,长沙市,七里庙,雨花区,997.7,27.2,50,38.26691188045109,18.04002046248398
P5348,2025-06-03 04:00:00,28.0739,113.1175,122,长沙市,冬斯港,雨花区,995.3,26.3,59,41.47812277327912,20.18795417402334
P5352,2025-06-03 04:00:00,28.3069,113.7983,106,长沙市,沿溪,浏阳市,997.7,26.9,60,33.14878313605145,21.269619913750358
P5359,2025-06-03 04:00:00,28.185,113.8469,121,长沙市,株树桥水库,浏阳市,995.7,24.4,69,34.921641398714776,21.084793060227735
P5363,2025-06-03 04:00:00,28.2042,114.0764,223,长沙市,小河,浏阳市,982.0,23.9,72,40.15045748866292,21.3506156594545
P5372,2025-06-03 04:00:00,28.2153,113.1131,58,长沙市,长桥公园,长沙县,1001.8,26.0,58,30.93758692515472,19.496584704069637
P5373,2025-06-03 04:00:00,28.1264,112.0311,192,长沙市,联花,宁乡市,987.4,27.5,52,44.44478002876904,19.094660963491904
P5382,2025-06-03 04:00:00,28.0978,112.7422,59,长沙市,莲花,岳麓区,1000.6,27.4,56,43.39828223513159,20.443314978584972
P5383,2025-06-03 04:00:00,28.1314,112.9047,38,长沙市,学士,岳麓区,1004.2,27.2,54,37.15145703924861,19.4832220994827
P5384,2025-06-03 04:00:00,28.1669,112.945,34,长沙市,天马,岳麓区,1004.2,26.7,54,34.12689734088016,18.91851725738933
P5387,2025-06-03 04:00:00,28.4106,113.0097,88,长沙市,蒿塘,长沙县,1000.4,26.9,60,38.66208922892745,21.269619913750358
P5388,2025-06-03 04:00:00,28.1344,112.6739,74,长沙市,泉水冲水库,岳麓区,999.6,27.1,61,41.18863338362341,21.879928362549343
P5390,2025-06-03 04:00:00,28.0997,112.8567,60,长沙市,含浦,岳麓区,1000.1,27.3,58,41.53768810122432,21.049611841925337
P5398,2025-06-03 04:00:00,28.0856,113.8717,189,长沙市,中和,浏阳市,987.2,23.7,73,38.58731371890303,21.387999285314446
P5404,2025-06-03 04:00:00,28.1303,113.3728,122,长沙市,江背,长沙县,993.2,26.6,64,40.61199445425955,22.29014519299812
P5416,2025-06-03 04:00:00,28.1031,111.9381,287,长沙市,巷子口,宁乡市,976.3,26.6,60,45.459513063729446,20.89701111843574
P5420,2025-06-03 04:00:00,28.1178,112.9831,79,长沙市,天心区政府,天心区,998.9,27.1,51,35.457956353703906,18.293054860492074
P5421,2025-06-03 04:00:00,28.0331,112.7922,44,长沙市,含浦干子,岳麓区,1002.5,27.6,55,45.70539696660606,20.314902143865428
P5426,2025-06-03 04:00:00,28.5369,113.3522,82,长沙市,金井茶场,长沙县,999.1,26.4,55,25.47732694086562,18.930805631441874
P5431,2025-06-03 04:00:00,28.0792,113.4703,98,长沙市,葛家,浏阳市,997.1,26.8,57,35.953002881710276,20.087537896185555
P5434,2025-06-03 04:00:00,28.1975,113.0539,60,长沙市,东岸,芙蓉区,1004.4,27.7,56,35.01983872288342,20.805666544315603
P5436,2025-06-03 04:00:00,28.0397,112.9897,90,长沙市,省气象局,天心区,999.7,26.8,55,37.94473856225267,19.382712005091328
P5437,2025-06-03 04:00:00,28.2036,112.9086,37,长沙市,梅溪湖,岳麓区,1003.8,26.9,54,37.56299133451284,19.142657922375324
P5438,2025-06-03 04:00:00,28.2119,113.0339,31,长沙市,马王堆,芙蓉区,1004.4,26.0,56,31.906143914109865,18.824288679791376
P5439,2025-06-03 04:00:00,28.2061,113.0594,75,长沙市,马坡岭,芙蓉区,1001.6,26.1,58,31.963435690373167,19.61238294040576
P5440,2025-06-03 04:00:00,28.1908,113.0242,41,长沙市,荷花园,芙蓉区,1004.4,26.5,54,33.13163646197913,18.696674806562253
P5441,2025-06-03 04:00:00,28.1986,113.0028,36,长沙市,晓园公园,芙蓉区,1004.0,27.3,52,31.613004313187552,18.872065789312373
P5442,2025-06-03 04:00:00,28.2589,112.9797,28,长沙市,开福区政府,开福区,1004.6,26.0,61,37.70983037912181,20.505028740487035
P5443,2025-06-03 04:00:00,28.2386,112.9956,32,长沙市,科大佳园,开福区,1004.6,26.2,59,37.18014765675848,20.068933731533523
P5444,2025-06-03 04:00:00,28.3419,112.9292,52,长沙市,金盆丘,开福区,1002.6,26.7,60,36.650520399613946,21.020574730432585
P5445,2025-06-03 04:00:00,28.2378,113.0133,29,长沙市,四方坪,开福区,1004.6,25.8,59,31.067714415916576,19.598967008732323
P5446,2025-06-03 04:00:00,28.235,112.9736,44,长沙市,新河,开福区,1004.6,25.5,58,32.35192847842335,18.926518826641235
P5447,2025-06-03 04:00:00,27.9856,112.0058,250,长沙市,田坪,宁乡市,979.4,25.8,54,32.419208056255705,17.938037601212635
P5459,2025-06-03 04:00:00,28.0453,112.6447,80,长沙市,花明楼,宁乡市,1000.1,27.1,58,38.82406198002932,20.803866311932158
P5463,2025-06-03 04:00:00,28.0794,112.9858,58,长沙市,黑石铺,天心区,1001.0,26.8,57,42.07222559516465,20.087537896185555
P5467,2025-06-03 04:00:00,27.9956,113.4331,81,长沙市,书院,浏阳市,998.2,26.1,57,36.69155961073705,19.274238406950488
P5471,2025-06-03 04:00:00,27.9542,113.6558,145,长沙市,杨花,浏阳市,991.3,25.1,63,30.47105089349494,20.074212194430213
P5484,2025-06-03 04:00:00,28.0486,113.9253,154,长沙市,文家市,浏阳市,992.2,24.3,69,36.83309559228743,20.95872068473193
P5486,2025-06-03 04:00:00,28.0297,112.2636,128,长沙市,枫木桥,宁乡市,992.5,26.5,63,46.545707822562356,21.812787274322627
P5488,2025-06-03 04:00:00,28.0275,112.3783,80,长沙市,双盆,宁乡市,998.8,26.1,61,40.14659712509765,20.626816540771575
P5499,2025-06-03 04:00:00,28.0056,112.985,51,长沙市,花园岭,天心区,1001.8,27.4,56,43.63592974058326,20.443314978584972
P5500,2025-06-03 04:00:00,28.1356,112.9936,91,长沙市,林科大,天心区,997.5,26.1,60,39.05049816090822,20.288672007316304
P5501,2025-06-03 04:00:00,28.1917,112.9411,49,长沙市,湖南师大,岳麓区,1002.3,27.6,55,47.596019850774574,20.314902143865428
P5508,2025-06-03 04:00:00,27.9989,112.1214,129,长沙市,流沙河,宁乡市,994.3,26.8,60,42.96203371385497,21.1447767328269
P5509,2025-06-03 04:00:00,27.9139,113.6867,90,长沙市,金刚,浏阳市,998.1,25.5,61,34.494406120150806,19.90547669698475
P5514,2025-06-03 04:00:00,27.9664,112.3169,106,长沙市,花果山,宁乡市,995.7,26.7,57,38.15992881251669,19.969545993910955
P5593,2025-06-03 04:00:00,28.3967,113.01,70,长沙市,北山文化站,长沙县,1001.1,28.2,56,30.56691667694191,21.422067249223034
P5599,2025-06-03 04:00:00,28.2008,112.9164,37,长沙市,望城坡,岳麓区,1003.9,27.6,53,40.145381362159576,19.57617842954305
P5600,2025-06-03 04:00:00,28.3558,112.7844,64,长沙市,望城,望城区,1002.6,26.3,59,38.03202440011815,20.18795417402334
P5647,2025-06-03 04:00:00,28.1706,113.1258,41,长沙市,花园,长沙县,1003.7,27.0,52,31.75315957560218,18.542426128248785
P5648,2025-06-03 04:00:00,28.5453,113.4511,82,长沙市,龙华山,长沙县,993.9,27.1,62,34.03747627595725,22.238615712755067
P5653,2025-06-03 04:00:00,28.2256,113.0103,38,长沙市,马栏山,开福区,1003.7,26.5,59,37.81044108499424,20.42784839976246
P5700,2025-06-03 04:00:00,27.9969,113.1928,63.5,株洲市,云田,石峰区,1000.9,27.9,52,39.976052629398225,19.546745324479037
P5702,2025-06-03 04:00:00,27.8203,113.1147,100,株洲市,神农湖,天元区,996.9,27.6,55,38.92919670580396,20.314902143865428
P5703,2025-06-03 04:00:00,27.9508,113.1778,62,株洲市,龙升,石峰区,1001.5,27.5,60,35.332764306122236,22.032301111721427
P5704,2025-06-03 04:00:00,27.9656,113.23,83,株洲市,黄塘,荷塘区,998.8,27.9,55,40.533040990793005,20.67444217012206
P5705,2025-06-03 04:00:00,27.9417,113.2475,115,株洲市,仙庾岭,荷塘区,997.2,26.5,58,36.14161709856896,20.081613681122416
P5706,2025-06-03 04:00:00,27.9267,113.0711,95,株洲市,白马,石峰区,1001.7,26.8,55,41.36458290840957,19.382712005091328
P5707,2025-06-03 04:00:00,27.9567,113.1653,63,株洲市,龙头铺,石峰区,1001.3,27.1,61,28.89066849177914,21.879928362549343
P5708,2025-06-03 04:00:00,27.8642,113.2342,116,株洲市,金山,荷塘区,994.9,26.1,60,43.16372310728368,20.288672007316304
P5709,2025-06-03 04:00:00,27.8803,113.0744,49,株洲市,清水塘,石峰区,1002.7,27.3,64,42.318104020846285,23.227157894538305
P5711,2025-06-03 04:00:00,27.9042,113.2058,52,株洲市,明照,荷塘区,1002.3,26.5,63,34.20590424911111,21.812787274322627
P5712,2025-06-03 04:00:00,27.9522,113.1381,54,株洲市,鸡嘴山,石峰区,1002.4,27.0,57,40.674626061842474,20.325351717503473
P5715,2025-06-03 04:00:00,27.6842,113.4639,62.2,株洲市,国瓷,醴陵市,999.9,24.9,67,41.1709852143109,21.095450671745496
P5716,2025-06-03 04:00:00,27.8286,113.4711,200.6,株洲市,横江,醴陵市,985.3,23.6,73,34.59134950129665,21.25944490721188
P5717,2025-06-03 04:00:00,27.8192,113.2322,76,株洲市,白关,芦淞区,1001.7,27.2,58,35.69758457377435,20.926423736481414
P5718,2025-06-03 04:00:00,27.8486,113.2667,45,株洲市,大京水库,芦淞区,994.8,26.5,65,45.33823610030354,22.505256711602712
P5720,2025-06-03 04:00:00,27.7717,113.2061,71,株洲市,董家塅,芦淞区,1000.2,26.1,78,50.892019635408914,26.375273609511197
P5721,2025-06-03 04:00:00,27.8081,113.0839,63,株洲市,栗雨,天元区,1001.0,26.7,57,41.57416510809449,19.969545993910955
P5722,2025-06-03 04:00:00,27.8814,113.4278,123.5,株洲市,官庄水库,醴陵市,993.5,26.0,68,38.797931758291014,22.858064825460957
P5723,2025-06-03 04:00:00,27.8264,113.3458,109,株洲市,楠木山,芦淞区,996.1,25.2,61,28.88902665365758,19.55315667400046
P5724,2025-06-03 04:00:00,27.8683,113.6172,180,株洲市,洪源,醴陵市,988.1,24.5,72,42.14843322357709,22.13376924676115
P5726,2025-06-03 04:00:00,27.7992,113.1581,58,株洲市,新谭,芦淞区,1002.9,27.4,59,36.912664865808985,21.538492566723452
P5727,2025-06-03 04:00:00,27.8092,113.2158,67,株洲市,五里墩,芦淞区,1001.6,26.8,64,42.539967752666854,22.554428515015363
P5728,2025-06-03 04:00:00,27.8492,113.3811,130,株洲市,老鸦坡水库,醴陵市,992.1,24.5,67,30.704824625081912,20.596701937958294
