Station_Id_C,Datetime,Lat,Lon,Alti,City,Station_Name,Cnty,PRS,TEM,RHU,PWV,VAP
57249,2025-06-03 04:00:00,32.3244,109.6889,448.2,十堰市,竹溪,竹溪县,959.3,23.0,70.0,36.602999999999966,19.65967782131166
57251,2025-06-03 04:00:00,33.0033,110.4083,321.2,十堰市,郧西,郧西县,973.0,23.8,67.0,28.7,19.748694184312992
57253,2025-06-03 04:00:00,32.84,110.8669,244.8,十堰市,郧阳,郧阳区,980.9,25.4,65.0,37.92100000000003,21.084960554176938
57256,2025-06-03 04:00:00,32.6553,110.7728,290.2,十堰市,十堰,张湾区,976.1,25.6,61.0,30.3,20.02414465104577
57257,2025-06-03 04:00:00,32.2256,110.2261,308.4,十堰市,竹山,竹山县,975.3,21.9,74.0,31.3,19.437876576279635
57259,2025-06-03 04:00:00,32.0511,110.7475,429.5,十堰市,房县,房县,961.3,24.0,66.0,30.7,19.689478411799765
57260,2025-06-03 04:00:00,32.5417,111.4531,248.4,十堰市,丹江口,丹江口市,979.9,24.4,71.0,31.952499999999958,21.695946482263327
57264,2025-06-03 04:00:00,32.4261,111.0153,1017.5,十堰市,武当山,丹江口市,898.2,22.4,59.0,29.477500000000017,15.97749099053099
57265,2025-06-03 04:00:00,32.4319,111.7319,132.1,襄阳市,老河口,老河口市,993.1,25.3,61.0,32.885,19.669985412000848
57268,2025-06-03 04:00:00,32.2718,111.6211,124.2,襄阳市,谷城,谷城县,994.3,25.8,70.0,28.6,23.253011705275632
57278,2025-06-03 04:00:00,32.0031,112.0765,166.1,襄阳市,襄阳,襄城区,989.6,25.6,65.0,24.6,21.337203316688118
57279,2025-06-03 04:00:00,32.1614,112.7767,136.5,襄阳市,枣阳,枣阳市,992.1,25.3,69.0,23,22.24965562996817
57351,2025-06-03 04:00:00,30.8333,111.0167,231,宜昌市,坛子岭,夷陵区,983.0,24.6,65.0,42.87700000000002,20.10189156433608
57352,2025-06-03 04:00:00,30.8092,111.0003,185.3,宜昌市,三斗坪,夷陵区,988.2,25.3,67.0,46.62899999999994,21.60473807547634
57353,2025-06-03 04:00:00,30.8378,111.0164,191.8,宜昌市,苏家坳,夷陵区,987.5,24.6,64.0,48.410999999999994,19.792631694115524
57354,2025-06-03 04:00:00,31.4558,110.2711,2948.1,省直辖县级行政区划,神农顶,神农架林区,714.7,11.0,46.0,10.457999999999997,6.034289222938973
57355,2025-06-03 04:00:00,31.0483,110.35,337.5,恩施土家族苗族自治州,巴东,巴东县,971.4,23.7,77.0,33.99750000000005,22.559944451633047
57358,2025-06-03 04:00:00,30.8303,110.9639,295.5,宜昌市,秭归,秭归县,975.3,23.9,68.0,34.96099999999999,20.164470345040364
57359,2025-06-03 04:00:00,31.3453,110.7417,336.8,宜昌市,兴山,兴山县,971.4,23.6,58.0,31.575000000000014,16.89106581668889
57361,2025-06-03 04:00:00,31.8791,111.2583,331.8,襄阳市,保康,保康县,972.0,25.0,62.0,30.8,19.638062504361166
57362,2025-06-03 04:00:00,31.7484,110.6602,939,省直辖县级行政区划,神农架,神农架林区,906.2,21.9,59.0,23.8,15.497766459466195
57363,2025-06-03 04:00:00,31.7995,111.8388,159.9,襄阳市,南漳,南漳县,990.1,28.5,52.0,25.4,20.2424076086186
57367,2025-06-03 04:00:00,31.0836,110.9406,1910,宜昌市,大老岭,夷陵区,809.1,17.0,49.0,17.98900000000001,9.488046686575565
57368,2025-06-03 04:00:00,31.053,111.6318,146.2,宜昌市,远安,远安县,991.7,26.0,59.0,30.8,19.83273271620877
57370,2025-06-03 04:00:00,31.7353,112.2189,71.6,襄阳市,宜城,宜城市,1000.3,26.8,63.0,24.7,22.202015569468248
57371,2025-06-03 04:00:00,31.9356,113.3081,121.9,随州市,随县,随县,993.6,25.2,72.0,39.22325000000001,23.079135746361196
57377,2025-06-03 04:00:00,30.9931,112.2123,191.9,荆门市,荆门,掇刀区,986.4,26.5,62.0,31.4,21.466552555682586
57378,2025-06-03 04:00:00,31.1724,112.5812,66.6,荆门市,钟祥,钟祥市,995.5,26.9,64.0,35.6,22.68759457466705
57381,2025-06-03 04:00:00,31.6194,113.3386,110.5,随州市,随州,曾都区,995.2,26.2,69.0,29,23.470447923318865
57385,2025-06-03 04:00:00,31.625,113.8206,120.4,随州市,广水,广水市,993.8,26.4,66.0,30.5,22.71696675773025
57386,2025-06-03 04:00:00,31.2519,113.9997,51.6,孝感市,孝昌,孝昌县,1001.0,27.5,59.0,37.002000000000024,21.665096093192737
57387,2025-06-03 04:00:00,30.9996,113.132,86.3,荆门市,京山,京山市,997.8,28.4,53.0,31.9,20.51200252524752
57388,2025-06-03 04:00:00,31.2642,113.6936,57.5,孝感市,安陆,安陆市,1001.2,27.6,58.0,32,21.422987715348995
57389,2025-06-03 04:00:00,31.0269,113.7486,32.2,孝感市,云梦,云梦县,1003.7,28.0,55.0,36.93599999999999,20.795518215833035
57395,2025-06-03 04:00:00,31.5883,114.1675,120,孝感市,大悟,大悟县,993.0,26.9,61.0,36.772000000000034,21.624113578979532
57398,2025-06-03 04:00:00,31.2803,114.6206,76.4,黄冈市,红安,红安县,999.1,27.2,59.0,28.2,21.287224145731095
57399,2025-06-03 04:00:00,31.1308,114.9547,74.3,黄冈市,麻城,麻城市,999.2,26.6,59.0,35.08650000000008,20.548727599795143
57439,2025-06-03 04:00:00,30.2911,108.9297,1127.5,恩施土家族苗族自治州,利川,利川市,886.4,20.9,62.0,30.8,15.317208728935205
57445,2025-06-03 04:00:00,30.6071,109.7201,610.3,恩施土家族苗族自治州,建始,建始县,941.5,23.2,64.0,32.9,18.19350772438039
57447,2025-06-03 04:00:00,30.2861,109.4707,458.7,恩施土家族苗族自治州,恩施,恩施市,958.1,23.6,63.0,37.4,18.347192180196554
57451,2025-06-03 04:00:00,30.8131,110.2539,1813.5,恩施土家族苗族自治州,绿葱坡,巴东县,818.6,16.0,62.0,20.625,11.264971227234406
57453,2025-06-03 04:00:00,30.762,111.4172,191.9,宜昌市,夷陵,夷陵区,986.9,25.8,59.0,31.4,19.598967008732323
57458,2025-06-03 04:00:00,30.1511,111.0683,243.2,宜昌市,五峰,五峰土家族自治县,980.2,28.0,47.0,32.06100000000006,17.77071556625732
57460,2025-06-03 04:00:00,30.8215,111.7841,95.6,宜昌市,当阳,当阳市,997.5,26.8,53.0,35.8,18.677886113997097
57461,2025-06-03 04:00:00,30.7019,111.2975,136.4,宜昌市,三峡,西陵区,978.7,25.3,-999.0,29.8,-322.13631846866963
57462,2025-06-03 04:00:00,30.8592,111.0831,139.9,宜昌市,夷陵三峡,夷陵区,993.0,26.1,63.0,45.807499999999976,21.30310560768212
57464,2025-06-03 04:00:00,30.4717,111.1817,180.7,宜昌市,长阳,长阳土家族自治县,988.0,25.8,58.0,31.9,19.266781127228384
57465,2025-06-03 04:00:00,30.3622,111.4319,120.1,宜昌市,宜都,宜都市,994.3,26.8,61.0,45.24449999999993,21.497189678374017
57466,2025-06-03 04:00:00,30.462,111.7464,67.3,宜昌市,枝江,枝江市,1000.5,27.4,51.0,32.1,18.61801899835417
57469,2025-06-03 04:00:00,30.1783,111.68,111.2,荆州市,松滋,松滋市,995.9,27.4,58.0,34.3,21.17343337067729
57475,2025-06-03 04:00:00,30.403,112.9014,34.5,省直辖县级行政区划,潜江,潜江市,1004.3,27.7,54.0,36,20.06260702487576
57476,2025-06-03 04:00:00,30.3505,112.1484,35.3,荆州市,荆州,荆州区,1004.3,27.2,65.0,36.2,23.452026601229175
57477,2025-06-03 04:00:00,30.0708,112.2159,40.1,荆州市,公安,公安县,1003.6,27.2,58.0,35.1,20.926423736481414
57481,2025-06-03 04:00:00,30.9561,113.5753,33.4,孝感市,应城,应城市,1004.1,28.3,55.0,29.5,21.162471762477136
57482,2025-06-03 04:00:00,30.9033,113.9461,26.4,孝感市,孝感,孝感市,1004.9,26.3,65.0,33.6,22.24096646290707
57483,2025-06-03 04:00:00,30.6697,113.135,35.4,省直辖县级行政区划,天门,天门市,1004.1,27.4,60.0,33.2,21.90355176276961
57484,2025-06-03 04:00:00,30.7359,112.5489,61.1,荆门市,沙洋,沙洋县,1001.4,26.6,66.0,29.1,22.986712230279313
57485,2025-06-03 04:00:00,30.2953,113.4829,27.1,省直辖县级行政区划,仙桃,仙桃市,1005.6,26.9,61.0,36,21.624113578979532
57486,2025-06-03 04:00:00,30.6556,113.8431,25,孝感市,汉川,汉川市,1004.7,26.5,62.0,38.78266666666671,21.466552555682586
57489,2025-06-03 04:00:00,30.5236,114.0081,26.2,武汉市,蔡甸,蔡甸区,1005.4,26.8,61.0,32.5,21.497189678374017
57491,2025-06-03 04:00:00,30.871,114.3948,34.7,武汉市,黄陂,黄陂区,1004.1,26.1,63.0,27.2,21.30310560768212
57492,2025-06-03 04:00:00,30.8386,114.8386,44.7,武汉市,新洲,新洲区,1003.3,25.8,67.0,28.9,22.256454060763822
57493,2025-06-03 04:00:00,30.3429,114.3353,80.8,武汉市,江夏,江夏区,999.6,25.6,68.0,32,22.32199731591988
57494,2025-06-03 04:00:00,30.5978,114.0506,23.6,武汉市,武汉,东西湖区,1005.3,27.0,59.0,31.359499999999983,21.03852195320535
57495,2025-06-03 04:00:00,30.6675,115.0669,61.8,黄冈市,团风,团风县,1001.2,25.8,54.0,28.032999999999983,17.938037601212635
57496,2025-06-03 04:00:00,30.2572,114.6119,35.3,鄂州市,鄂州,梁子湖区,1004.3,24.3,68.0,46.777499999999854,20.654971109590893
57498,2025-06-03 04:00:00,30.5147,114.9364,28.4,黄冈市,黄冈,黄州区,1005.2,25.9,57.0,29.9,19.047223163406787
57499,2025-06-03 04:00:00,30.0744,114.875,40.3,黄石市,大冶,大冶市,1003.7,26.4,54.0,31.670499999999976,18.58660916541566
57540,2025-06-03 04:00:00,29.6847,109.1436,779.9,恩施土家族苗族自治州,咸丰,咸丰县,923.0,21.6,84.0,37.4,21.663505467766047
57541,2025-06-03 04:00:00,29.995,109.4783,602.6,恩施土家族苗族自治州,宣恩,宣恩县,942.2,22.8,70.0,35.9,19.422735202437458
57543,2025-06-03 04:00:00,29.8839,110.025,541.2,恩施土家族苗族自治州,鹤峰,鹤峰县,948.2,23.0,65.0,34.5,18.255415119789404
57545,2025-06-03 04:00:00,29.5281,109.4211,506.4,恩施土家族苗族自治州,来凤,来凤县,952.3,23.6,74.0,42.9,21.550670179913414
57571,2025-06-03 04:00:00,29.6594,112.4122,41.2,荆州市,石首,石首市,1003.7,27.0,65.0,41.6,23.178032660310983
57573,2025-06-03 04:00:00,29.8753,112.9044,26.2,荆州市,监利,监利市,1004.9,27.5,62.0,44.002000000000045,22.766711148778807
57581,2025-06-03 04:00:00,29.8122,113.4422,28.4,荆州市,洪湖,洪湖市,1005.4,26.6,60.0,38.4,20.89701111843574
57582,2025-06-03 04:00:00,29.7242,113.8758,51.1,咸宁市,赤壁,赤壁市,1003.0,26.6,51.0,35.8,17.762459450670377
57583,2025-06-03 04:00:00,29.9259,113.9595,65.6,咸宁市,嘉鱼,嘉鱼县,1001.3,25.9,59.0,35.4,19.715546783175448
57586,2025-06-03 04:00:00,29.5746,114.0339,138.9,咸宁市,崇阳国家基本气象站,崇阳县,992.8,25.7,67.0,37.6,22.12475219195579
57589,2025-06-03 04:00:00,29.274,113.8787,149.7,咸宁市,通城,通城县,991.3,26.3,57.0,39.2,19.50361674439543
57590,2025-06-03 04:00:00,29.8517,114.3672,102.8,咸宁市,咸宁,市辖区,997.2,25.0,62.0,35,19.638062504361166
57595,2025-06-03 04:00:00,29.6111,114.4578,103.6,咸宁市,通山,通山县,996.7,26.1,59.0,34.5,19.950527473861033
57596,2025-06-03 04:00:00,29.6347,114.2053,751.6,咸宁市,金沙本底站,崇阳县,924.9,20.7,71.0,37.924,17.325918529336377
58401,2025-06-03 04:00:00,30.7467,115.3956,127.1,黄冈市,罗田,罗田县,993.6,26.6,55.0,24.8,19.15559352523276
58402,2025-06-03 04:00:00,30.7295,115.6676,126.2,黄冈市,英山,英山县,993.5,27.3,52.0,28.9,18.872065789312373
58404,2025-06-03 04:00:00,30.4717,115.2175,69.9,黄冈市,浠水,浠水县,1000.5,26.2,56.0,28.9,19.048479473997922
58407,2025-06-03 04:00:00,30.2385,115.0275,35.4,黄石市,黄石,黄石港区,1004.4,26.7,53.0,35.2,18.56817434521545
58408,2025-06-03 04:00:00,30.23,115.4358,75.7,黄冈市,蕲春,蕲春县,1000.0,26.1,63.0,34.5,21.30310560768212
58409,2025-06-03 04:00:00,30.0978,115.9314,32,黄冈市,黄梅,黄梅县,1004.4,25.5,61.0,35.084333333333305,19.90547669698475
58500,2025-06-03 04:00:00,29.8961,115.2163,60.7,黄石市,阳新,阳新县,1002.0,25.1,67.0,34.5,21.34876534963213
58501,2025-06-03 04:00:00,29.925,115.6264,28.1,黄冈市,武穴,武穴市,1005.5,25.3,64.0,32.2,20.637361743738595
Q0004,2025-06-03 04:00:00,30.2789,108.8711,1082.2,恩施土家族苗族自治州,沪渝K1464,利川市,888.5,20.1,64.0,21.721499999999978,15.049397631784792
Q0005,2025-06-03 04:00:00,30.2444,109.1197,1131.4,恩施土家族苗族自治州,沪渝K1439,利川市,884.6,19.4,95.0,44.10525000000001,21.38887633601968
Q0007,2025-06-03 04:00:00,30.2389,109.3664,706.7,恩施土家族苗族自治州,沪渝K1412,恩施市,928.9,22.5,74.0,40.747000000000035,20.161842164243716
Q0008,2025-06-03 04:00:00,30.2439,109.4128,545.1,恩施土家族苗族自治州,沪渝K1407,巴东县,945.6,23.4,68.0,40.24050000000002,19.565709768439117
Q0010,2025-06-03 04:00:00,30.4114,109.5864,729.9,恩施土家族苗族自治州,沪渝K1375,恩施市,926.1,22.2,64.0,33.90300000000003,17.121694172148192
Q0011,2025-06-03 04:00:00,30.455,109.6258,624.1,恩施土家族苗族自治州,沪渝K1369,恩施市,937.0,22.6,66.0,28.473000000000003,18.091824319303473
Q0013,2025-06-03 04:00:00,30.4628,109.7828,780.1,恩施土家族苗族自治州,沪渝K1351,恩施市,920.0,21.2,73.0,31.980000000000015,18.370487241320614
Q0014,2025-06-03 04:00:00,30.4997,109.8508,903.4,恩施土家族苗族自治州,沪渝K1343,恩施市,907.3,21.2,66.0,33.25850000000003,16.608933670235075
Q0015,2025-06-03 04:00:00,30.55,109.8914,879.8,恩施土家族苗族自治州,沪渝K1336,建始县,909.4,21.6,69.0,30.76049999999999,17.79502234852211
Q0017,2025-06-03 04:00:00,30.6506,110.0908,794.9,恩施土家族苗族自治州,沪渝K1313,巴东县,918.5,21.6,70.0,32.54050000000001,18.052921223138373
Q0019,2025-06-03 04:00:00,30.6308,110.1639,865.2,恩施土家族苗族自治州,沪渝K1305,巴东县,910.8,21.1,70.0,30.04700000000001,17.507652391091323
Q0021,2025-06-03 04:00:00,30.6119,110.3097,1104.2,恩施土家族苗族自治州,沪渝K1291,巴东县,886.1,20.8,55.0,26.276500000000002,13.50444161986731
Q0022,2025-06-03 04:00:00,30.6217,110.3864,923,恩施土家族苗族自治州,沪渝k1283,恩施市,911.4,20.8,71.0,29.744500000000013,17.4330064547378
Q0023,2025-06-03 04:00:00,30.6325,111.3253,62.7,宜昌市,秭归k48,市辖区,997.9,26.5,58.0,38.89149999999998,20.081613681122416
Q0026,2025-06-03 04:00:00,30.6247,110.6047,597.8,宜昌市,沪渝K1262,长阳土家族自治县,939.4,22.2,65.0,31.531999999999993,17.38922064358801
Q0028,2025-06-03 04:00:00,30.5711,111.4003,54.9,宜昌市,沪渝K1179,市辖区,999.4,26.6,59.0,40.56499999999996,20.548727599795143
Q0030,2025-06-03 04:00:00,30.5589,111.1281,241.9,宜昌市,沪渝K1208,长阳土家族自治县,981.7,25.0,66.0,30.363500000000002,20.90503427883608
Q0032,2025-06-03 04:00:00,30.3922,112.195,25.4,荆州市,沪渝K1097,荆州区,1003.9,27.3,52.0,29.008000000000017,18.872065789312373
Q0033,2025-06-03 04:00:00,30.3353,112.4733,25.4,荆州市,沪渝K1069,荆州区,1004.5,27.4,66.0,45.515999999999885,24.093906939046573
Q0034,2025-06-03 04:00:00,30.3383,112.5164,24.4,省直辖县级行政区划,沪渝K1065,潜江市,1004.1,26.8,52.0,29.536000000000012,18.32547316844998
Q0037,2025-06-03 04:00:00,30.4533,113.8225,17,武汉市,沪渝K933,蔡甸区,1005.0,27.0,57.0,36.46849999999997,20.325351717503473
Q0039,2025-06-03 04:00:00,30.3486,113.5853,15.2,省直辖县级行政区划,沪渝k959,仙桃市,1004.9,27.3,58.0,41.95250000000004,21.049611841925337
Q0040,2025-06-03 04:00:00,30.3631,113.3619,9,省直辖县级行政区划,沪渝K982,仙桃市,1005.3,27.0,61.0,36.58249999999999,21.751692188907228
Q0047,2025-06-03 04:00:00,30.2406,115.1297,19.8,黄冈市,黄黄785,浠水县,1006.2,26.6,55.0,36.082999999999984,19.15559352523276
Q0049,2025-06-03 04:00:00,30.1353,115.33,21.4,黄冈市,黄黄K761,蕲春县,1005.7,25.3,64.0,40.883999999999986,20.637361743738595
Q0050,2025-06-03 04:00:00,30.0289,115.4664,41.4,黄冈市,黄黄K742,武穴市,1003.8,26.7,64.0,38.31649999999994,22.42194637912809
Q0051,2025-06-03 04:00:00,30.0039,115.5917,38,黄冈市,黄黄K730,武穴市,1004.8,24.5,71.0,32.97650000000003,21.82635578500058
Q0052,2025-06-03 04:00:00,30.0161,115.6708,42.5,黄冈市,黄黄K722,武穴市,1003.4,24.7,69.0,40.15850000000003,21.467002578731545
Q0053,2025-06-03 04:00:00,30.0278,115.7514,22.2,黄冈市,黄黄K714,武穴市,1005.8,24.1,78.0,46.20050000000002,23.409670232793964
Q0054,2025-06-03 04:00:00,30.0278,115.8164,23.1,黄冈市,黄黄K708,黄梅县,1006.2,24.9,76.0,36.39800000000004,23.92916792615907
Q0055,2025-06-03 04:00:00,30.0333,115.8986,25.2,黄冈市,黄黄K700,黄梅县,1005.6,25.3,58.0,26.190500000000014,18.702609080263098
Q0056,2025-06-03 04:00:00,30.1047,116.0217,45.9,黄冈市,黄黄K685,黄梅县,1003.4,25.9,63.0,29.76649999999997,21.05219402271277
Q0058,2025-06-03 04:00:00,30.1703,114.9136,25,黄石市,大广K2491,市辖区,1004.4,25.8,59.0,34.246499999999976,19.598967008732323
Q0060,2025-06-03 04:00:00,30.0042,114.9003,50.6,黄石市,大广K2510,大冶市,1001.3,26.2,61.0,36.60599999999999,20.74923656989059
Q0061,2025-06-03 04:00:00,29.9158,114.8833,57.7,黄石市,大广K2520,大冶市,1001.3,25.6,57.0,30.48950000000007,18.711085985403425
Q0064,2025-06-03 04:00:00,29.6617,114.9464,23.5,黄石市,大广K2552,阳新县,1005.3,26.8,59.0,35.444500000000005,20.792363787279786
Q0065,2025-06-03 04:00:00,29.6053,114.9322,37.1,黄石市,大广K2560,阳新县,1002.7,26.3,55.0,23.109499999999983,18.819279314767524
Q0066,2025-06-03 04:00:00,29.4306,114.8339,281.9,咸宁市,大广K2583,通山县,974.5,24.4,57.0,38.29500000000001,17.417872528014218
Q0067,2025-06-03 04:00:00,29.3742,113.8803,81,咸宁市,杭瑞K731,崇阳县,997.4,26.7,62.0,42.03299999999999,21.72126055478034
Q0069,2025-06-03 04:00:00,29.5817,114.3203,81,咸宁市,杭瑞K679,通山县,994.5,25.7,53.0,35.56150000000003,17.501669644382936
Q0070,2025-06-03 04:00:00,29.6758,114.6372,141.1,咸宁市,杭瑞K646,通山县,991.2,25.4,53.0,38.244499999999945,17.192352451867347
Q0071,2025-06-03 04:00:00,29.7172,114.6692,128.1,咸宁市,杭瑞K640,通山县,992.9,26.0,56.0,36.314500000000024,18.824288679791376
Q0072,2025-06-03 04:00:00,29.7147,114.8767,167.3,黄石市,杭瑞K620,阳新县,989.4,24.6,65.0,34.832999999999984,20.10189156433608
Q0074,2025-06-03 04:00:00,29.7067,115.2367,54.2,黄石市,杭瑞K583,阳新县,1001.2,25.8,61.0,36.14599999999998,20.263338771740198
Q0079,2025-06-03 04:00:00,33.08,110.3,444.3,十堰市,福银K1447,郧西县,958.7,22.8,77.0,39.74600000000009,21.365008722681207
Q0080,2025-06-03 04:00:00,32.95,110.5,395.1,十堰市,福银K1421,郧西县,963.7,24.2,65.0,33.20200000000002,19.62558074306304
Q0081,2025-06-03 04:00:00,32.86,110.65,275.8,十堰市,福银K1405,郧西县,975.4,25.2,63.0,32.977500000000006,20.194243778066046
Q0082,2025-06-03 04:00:00,32.82,110.7,205.1,十堰市,福银K1398,郧西县,983.6,25.3,64.0,35.68099999999995,20.637361743738595
Q0083,2025-06-03 04:00:00,32.51,111.14,162.4,十堰市,福银K1338,丹江口市,988.8,24.7,68.0,37.19800000000003,21.155886599329644
Q0084,2025-06-03 04:00:00,32.63,110.86,199.4,十堰市,福银K1364,丹江口市,984.5,26.5,56.0,38.59999999999997,19.38914424384234
Q0087,2025-06-03 04:00:00,32.28,111.66,73.4,襄阳市,福银K1277,谷城县,998.5,26.0,65.0,35.64700000000003,21.849620789043563
Q0089,2025-06-03 04:00:00,32.19,112.1,76.5,襄阳市,福银K1234,市辖区,998.4,26.2,52.0,31.770000000000028,17.687873797283785
Q0093,2025-06-03 04:00:00,31.67,113.26,101,随州市,福银K1103,市辖区,995.8,26.0,65.0,31.214500000000065,21.849620789043563
Q0094,2025-06-03 04:00:00,31.6,113.33,83,随州市,福银K1093,市辖区,998.2,26.7,60.0,37.18949999999993,21.020574730432585
Q0095,2025-06-03 04:00:00,31.48,113.43,110,随州市,福银K1076,市辖区,994.8,29.7,52.0,40.16950000000006,21.698886949804923
Q0096,2025-06-03 04:00:00,31.39,113.51,97.7,孝感市,福银K1064,安陆市,996.9,27.6,59.0,41.146,21.792349572510187
Q0100,2025-06-03 04:00:00,30.98,114.05,29.2,孝感市,福银K993,市辖区,1003.5,27.4,63.0,39.346,22.998729350908093
Q0103,2025-06-03 04:00:00,31.54,112.28,56.7,荆门市,襄荆K1620,钟祥市,1000.6,27.1,5.0,6.130499999999994,1.7934367510286349
Q0104,2025-06-03 04:00:00,31.42,112.34,68.6,荆门市,襄荆K1634,钟祥市,999.4,26.9,62.0,39.51949999999999,21.978607244208703
Q0106,2025-06-03 04:00:00,30.99,112.27,51.3,荆门市,襄荆K1685,市辖区,1000.7,27.0,64.0,38.06249999999997,22.821447542460042
Q0107,2025-06-03 04:00:00,30.82,112.24,75.1,荆门市,襄荆K1704,市辖区,998.7,26.6,59.0,31.294499999999967,20.548727599795143
Q0108,2025-06-03 04:00:00,30.7,112.22,50.4,荆门市,襄荆K1715交通气象站,沙洋县,1002.4,26.7,5.0,8.7915,1.7517145608693823
Q0109,2025-06-03 04:00:00,30.45,112.21,42.3,荆门市,襄荆K1745,沙洋县,1003.4,27.1,68.0,51.64700000000007,24.390739813989434
Q0600,2025-06-03 04:00:00,29.8361,113.5272,26,荆州市,洪湖石码头,洪湖市,1004.9,27.1,55.0,26.128000000000007,19.727804261314983
Q0603,2025-06-03 04:00:00,29.7378,112.4081,20,荆州市,石首海事码头,石首市,1003.9,27.7,64.0,32.42200000000003,23.777904622074974
Q0604,2025-06-03 04:00:00,30.0744,112.215,11,荆州市,公安航道码头,公安县,1003.6,27.3,62.0,35.01149999999995,22.501309210333982
Q0605,2025-06-03 04:00:00,30.03,112.4025,50,荆州市,江陵航道码头,江陵县,1003.5,27.2,64.0,39.025000000000006,23.091226191979494
Q0606,2025-06-03 04:00:00,30.3206,112.2025,15,荆州市,杨林矶海事码头,市辖区,1003.5,26.1,76.0,48.47049999999999,25.698984542600655
Q0607,2025-06-03 04:00:00,30.6586,114.5494,40,武汉市,阳逻海事水上搜救中心,新洲区,1005.1,24.5,68.0,35.90000000000002,20.90411539971887
Q0608,2025-06-03 04:00:00,30.3672,114.1486,0,武汉市,金口航道码头,江夏区,1005.2,25.5,62.0,34.42500000000001,20.23179598709925
Q0609,2025-06-03 04:00:00,30.2064,113.9283,20,咸宁市,嘉鱼簰洲湾海事站房,嘉鱼县,1005.2,25.5,64.0,38.031499999999916,20.88443456732826
Q0611,2025-06-03 04:00:00,31.0047,110.6128,194.5,宜昌市,秭归泄滩小学,秭归县,986.2,23.0,81.0,36.0405,22.749055764660643
Q0612,2025-06-03 04:00:00,30.5539,111.39,40,宜昌市,长江航道宜昌综合码头,宜都市,1002.3,25.7,70.0,32.5155,23.115412737864254
Q0613,2025-06-03 04:00:00,30.4106,111.5064,60,宜昌市,宜昌海事局孙家河执法队,宜都市,1002.8,26.3,61.0,39.65900000000002,20.872291603651252
Q0614,2025-06-03 04:00:00,30.3075,111.6236,40,宜昌市,松滋河口,宜都市,1002.7,25.0,64.0,37.35600000000001,20.271548391598625
Q0615,2025-06-03 04:00:00,30.3725,111.64,50,宜昌市,枝江姚港,枝江市,1003.2,26.1,71.0,46.16700000000006,24.008261875324294
Q0616,2025-06-03 04:00:00,30.4125,111.8875,40,宜昌市,枝江七星台,枝江市,1003.3,25.4,64.0,36.255999999999965,20.760576545651137
Q0617,2025-06-03 04:00:00,29.7708,113.0303,40,荆州市,监利何王庙,监利市,1004.2,28.6,59.0,39.830249999999936,23.101256752487828
Q0618,2025-06-03 04:00:00,29.6517,112.9492,30,荆州市,监利三洲,监利市,1004.4,27.1,15.0,6.812499999999995,5.380310253085903
Q0619,2025-06-03 04:00:00,29.9542,113.8303,30,荆州市,洪湖龙口汽渡码头,洪湖市,1004.9,26.6,62.0,31.60450000000004,21.59357815571693
Q0701,2025-06-03 04:00:00,30.6869,114.5175,4,武汉市,水口白灯船,新洲区,1004.7,24.8,69.0,40.513999999999996,21.59574643988916
Q0702,2025-06-03 04:00:00,30.5583,114.6317,4,武汉市,牧鹅洲白灯船,新洲区,1005.0,25.5,67.0,36.60100000000004,21.863392437671774
Q0704,2025-06-03 04:00:00,30.3142,112.2003,8,荆州市,沙市河段航道整治一期工程提示标,沙市区,1002.7,25.2,74.0,45.629000000000005,23.720222850426783
Q0705,2025-06-03 04:00:00,30.0753,112.3128,7,荆州市,公安大桥进口白泵船,公安县,1002.8,25.6,68.0,39.162999999999904,22.32199731591988
Q0707,2025-06-03 04:00:00,29.7636,112.6675,6,荆州市,桃花洲中提示标,洪湖市,1003.3,25.9,59.0,34.01900000000002,19.715546783175448
Q0725,2025-06-03 04:00:00,30.6411,114.3525,4,武汉市,天兴洲航道整治建筑物上提示标,江岸区,1004.4,24.6,61.0,26.76200000000002,18.864852083453858
Q0729,2025-06-03 04:00:00,30.5308,114.8308,4,黄冈市,黄冈大桥#1红浮,市辖区,1004.7,24.8,65.0,32.18949999999998,20.34381911004052
Q0737,2025-06-03 04:00:00,30.1289,115.2844,3,黄冈市,李家洲#3红浮,市辖区,1004.9,23.8,76.0,45.48199999999999,22.4015038508625
Q1000,2025-06-03 04:00:00,30.5944,114.3017,28.8,武汉市,江滩,江岸区,1005.3,26.6,60.0,31.053000000000008,20.89701111843574
Q1001,2025-06-03 04:00:00,30.9978,114.8886,62,武汉市,潘塘,新洲区,1000.3,26.8,57.0,35.09700000000007,20.087537896185555
Q1002,2025-06-03 04:00:00,30.9278,114.7925,28,武汉市,三店,新洲区,1005.0,26.4,60.0,33.46250000000002,20.651787961572953
Q1003,2025-06-03 04:00:00,30.8803,114.6789,24.6,武汉市,李集,新洲区,1005.4,26.6,66.0,42.57100000000004,22.986712230279313
Q1004,2025-06-03 04:00:00,30.8169,114.8717,27,武汉市,旧街,新洲区,1005.2,25.7,65.0,32.610000000000035,21.46431182801681
Q1005,2025-06-03 04:00:00,30.7997,114.8161,40,武汉市,辛冲,新洲区,1004.1,26.4,61.0,37.41500000000002,20.99598442759917
Q1006,2025-06-03 04:00:00,30.8086,114.73,37,武汉市,汪集,新洲区,1003.9,26.8,61.0,31.992500000000053,21.497189678374017
Q1007,2025-06-03 04:00:00,30.8736,114.6136,28.8,武汉市,仓埠,江岸区,1002.9,26.8,63.0,42.54800000000011,22.202015569468248
Q1008,2025-06-03 04:00:00,30.9403,114.7225,67,武汉市,凤凰,新洲区,1001.6,26.3,66.0,27.16999999999998,22.583135177721026
Q1010,2025-06-03 04:00:00,30.5064,114.3839,40.8,武汉市,化工,洪山区,1004.2,26.4,58.0,30.18699999999994,19.96339502952052
Q1011,2025-06-03 04:00:00,30.7475,114.0272,26,武汉市,五一大队,东西湖区,1005.6,26.5,69.0,47.26099999999999,23.890195586162875
Q1013,2025-06-03 04:00:00,30.4836,114.3192,31,武汉市,湖北省农科院,洪山区,1005.4,27.5,59.0,43.25749999999996,21.665096093192737
Q1014,2025-06-03 04:00:00,30.5325,114.5006,41,武汉市,花山工作基地,市辖区,1003.4,26.3,63.0,34.80900000000003,21.55662903327916
Q1016,2025-06-03 04:00:00,30.5333,114.5058,29,武汉市,湖北省预备役师,洪山区,1004.5,27.5,62.0,39.852000000000075,22.766711148778807
Q1017,2025-06-03 04:00:00,30.6381,114.3803,22,武汉市,和平公园,青山区,1005.3,28.4,56.0,37.985500000000044,21.673059271959648
Q1018,2025-06-03 04:00:00,30.3322,114.0706,19,武汉市,纱帽,汉南区,1005.6,25.6,64.0,32.95900000000003,21.008938650277532
Q1019,2025-06-03 04:00:00,30.2669,113.8478,25,武汉市,湘口,汉南区,1005.6,26.1,68.0,40.227749999999986,22.99382827495848
Q1020,2025-06-03 04:00:00,30.3078,113.9783,27,武汉市,邓南,汉南区,1005.3,25.6,71.0,38.10625,23.306791315151635
Q1021,2025-06-03 04:00:00,30.3461,113.9131,24,武汉市,东荆,汉南区,1005.5,27.2,65.0,38.30149999999996,23.452026601229175
Q1022,2025-06-03 04:00:00,30.6703,114.1803,32,武汉市,气象预警中心,东西湖区,1005.5,28.4,55.0,36.212999999999965,21.286040356388938
Q1023,2025-06-03 04:00:00,30.4614,114.2383,23.2,武汉市,建和分校,洪山区,1005.7,27.3,58.0,36.688500000000026,21.049611841925337
Q1024,2025-06-03 04:00:00,30.6242,114.1408,26,武汉市,实验小学,东西湖区,1005.6,30.2,51.0,27.85200000000002,21.902779665550423
Q1025,2025-06-03 04:00:00,30.6014,114.4875,25,武汉市,白玉公园,青山区,1017.1,28.5,58.0,28.705,22.578070024997665
Q1026,2025-06-03 04:00:00,30.455,114.1294,28,武汉市,沌阳,汉南区,1005.6,27.9,59.0,36.21900000000007,22.178037964312754
Q1027,2025-06-03 04:00:00,30.5183,114.3594,43.1,武汉市,华师,洪山区,1003.4,27.0,56.0,32.76199999999996,19.96876659965254
Q1028,2025-06-03 04:00:00,30.6731,114.2292,24,武汉市,常青路,东西湖区,1005.7,28.5,53.0,31.45300000000001,20.63168467801511
Q1029,2025-06-03 04:00:00,30.5644,114.4858,26.8,武汉市,光谷二十七小学,洪山区,1005.1,26.9,61.0,38.71149999999991,21.624113578979532
Q1030,2025-06-03 04:00:00,30.6772,114.2828,35,武汉市,材保所,东西湖区,1005.6,28.7,49.0,30.16040000000001,19.29756860347438
Q1031,2025-06-03 04:00:00,30.4789,114.4464,35,武汉市,湖北省第二师范,洪山区,1004.3,26.5,60.0,27.610999999999986,20.7740831184025
Q1032,2025-06-03 04:00:00,30.6644,114.3136,26,武汉市,百步亭社区,江岸区,1005.8,27.1,60.0,33.51750000000006,21.521241012343612
Q1033,2025-06-03 04:00:00,30.5133,114.3114,19,武汉市,南湖社区,武昌区,1005.8,27.3,57.0,34.9575,20.686687499823176
Q1036,2025-06-03 04:00:00,30.5517,114.4369,23,武汉市,东湖落雁景区,市辖区,1005.7,26.1,66.0,39.18449999999997,22.317539208047936
Q1038,2025-06-03 04:00:00,30.6708,114.41,25,武汉市,天兴洲,洪山区,1005.2,27.0,57.0,28.191999999999954,20.325351717503473
Q1039,2025-06-03 04:00:00,30.5031,114.4803,45.3,武汉市,光谷二十一小学,洪山区,1003.5,27.4,61.0,43.52900000000002,22.268610958815774
Q1040,2025-06-03 04:00:00,30.7594,114.6317,24,武汉市,五云,江岸区,1004.0,27.0,65.0,43.79299999999996,23.178032660310983
Q1041,2025-06-03 04:00:00,30.6386,114.5739,11.5,武汉市,鄢家湖,江岸区,1005.6,27.0,63.0,38.01500000000007,22.464862424609105
Q1042,2025-06-03 04:00:00,30.8764,114.4739,32.5,武汉市,席家岗,江岸区,1003.9,26.8,65.0,48.13149999999996,22.90684146056248
Q1043,2025-06-03 04:00:00,30.8822,114.5217,39.2,武汉市,六指中心福利院,江岸区,1003.8,26.4,63.0,41.03050000000004,21.684377359651602
Q1044,2025-06-03 04:00:00,30.8683,114.5803,42.3,武汉市,青华,江岸区,1003.7,26.5,60.0,31.336999999999993,20.7740831184025
Q1045,2025-06-03 04:00:00,30.7972,114.4647,31.3,武汉市,大咀,江岸区,1003.7,27.1,64.0,41.53749999999995,22.95599041316652
Q1052,2025-06-03 04:00:00,30.5447,114.42,23.3,武汉市,武汉植物园,洪山区,1005.5,26.9,64.0,41.2825,22.68759457466705
Q1054,2025-06-03 04:00:00,30.5814,114.3311,23,武汉市,湖大,武昌区,1005.5,27.1,57.0,27.560000000000063,20.445178961726434
Q1057,2025-06-03 04:00:00,30.6369,114.5061,33,武汉市,林业站,洪山区,1005.8,27.7,62.0,39.755499999999955,23.03484510263513
Q1061,2025-06-03 04:00:00,30.6411,114.4039,33.5,武汉市,青山,青山区,1004.7,26.8,58.0,32.281499999999966,20.43995084173267
Q1071,2025-06-03 04:00:00,30.51,114.4581,35,武汉市,士官学校,洪山区,1004.9,26.8,59.0,31.59050000000001,20.792363787279786
Q1072,2025-06-03 04:00:00,30.6664,114.335,27,武汉市,堤角公园,江岸区,1005.3,28.6,54.0,35.16449999999998,21.143523129395643
Q1073,2025-06-03 04:00:00,30.6272,114.2394,25,武汉市,湖北省移动公司,江汉区,1005.5,28.8,48.0,35.406499999999966,19.01379538591574
Q1081,2025-06-03 04:00:00,30.255,114.0589,22.1,武汉市,汉南,汉南区,1005.7,26.1,60.0,33.10350000000002,20.288672007316304
Q1082,2025-06-03 04:00:00,30.4769,114.1631,18.1,武汉市,沌口,汉南区,1005.3,26.8,63.0,42.90550000000003,22.202015569468248
Q1083,2025-06-03 04:00:00,30.4156,114.1306,21.6,武汉市,春笋,汉南区,1005.8,27.1,62.0,40.17050000000002,22.238615712755067
Q1084,2025-06-03 04:00:00,30.3267,114.0014,23.3,武汉市,恒大农业,汉南区,1005.7,26.3,63.0,38.27400000000002,21.55662903327916
Q1085,2025-06-03 04:00:00,30.2131,113.8472,22.6,武汉市,武湖湿地,汉南区,1005.8,25.6,63.0,41.53899999999999,20.680673983866946
Q1086,2025-06-03 04:00:00,30.22,113.8256,21.3,武汉市,喜鹊湖,汉南区,1005.9,27.3,63.0,36.25150000000002,22.864233552436147
Q1087,2025-06-03 04:00:00,30.4258,114.1092,33.7,武汉市,龙灵山,汉南区,1004.5,26.6,66.0,38.12087500000003,22.986712230279313
Q1088,2025-06-03 04:00:00,30.4586,114.0606,29,武汉市,武汉西,汉南区,1004.8,27.4,57.0,38.607,20.80837417463113
Q1101,2025-06-03 04:00:00,30.8781,114.9839,83,武汉市,道观河,新洲区,997.9,26.7,61.0,46.30900000000003,21.370917642606464
Q1102,2025-06-03 04:00:00,30.6969,114.5339,25,武汉市,阳逻,江岸区,1005.8,26.5,64.0,34.805500000000045,22.159021992962668
Q1103,2025-06-03 04:00:00,30.6675,114.7861,18.7,武汉市,涨渡湖,新洲区,1006.3,26.8,62.0,33.81750000000006,21.849602623921133
Q1104,2025-06-03 04:00:00,30.5964,114.6472,23,武汉市,双柳,新洲区,1005.8,27.3,60.0,38.52350000000003,21.77546052612966
Q1105,2025-06-03 04:00:00,30.8894,115.0589,344.5,武汉市,将军山,新洲区,969.2,25.3,62.0,37.62249999999998,19.99244418924676
Q1106,2025-06-03 04:00:00,30.9481,114.9694,73,武汉市,徐古,新洲区,999.8,26.8,57.0,36.138000000000055,20.087537896185555
Q1107,2025-06-03 04:00:00,30.8731,114.7681,25,武汉市,徐治湾,新洲区,1005.1,26.6,60.0,36.239500000000035,20.89701111843574
Q1108,2025-06-03 04:00:00,30.9156,114.6519,39.3,武汉市,方院,新洲区,1003.6,26.8,68.0,38.29400000000001,23.964080297203825
Q1109,2025-06-03 04:00:00,30.7858,114.5475,31.6,武汉市,杨裴,江岸区,1004.5,27.6,60.0,38.385,22.161711429671374
Q1111,2025-06-03 04:00:00,30.975,114.7111,51.1,武汉市,陈家田,新洲区,1002.2,26.7,68.0,38.013999999999974,23.8233180278236
Q1112,2025-06-03 04:00:00,30.8286,114.9725,196.4,武汉市,大雾山,新洲区,985.9,26.8,61.0,46.41050000000002,21.497189678374017
Q1113,2025-06-03 04:00:00,30.8742,114.8856,30.1,武汉市,王寨,新洲区,1004.7,27.6,55.0,31.32150000000005,20.314902143865428
Q1114,2025-06-03 04:00:00,30.9244,114.6972,55.4,武汉市,春光,新洲区,1001.8,26.6,66.0,40.34100000000007,22.986712230279313
Q1115,2025-06-03 04:00:00,30.9389,114.9081,36,武汉市,易河,新洲区,1004.0,27.3,60.0,34.521000000000015,21.77546052612966
Q1116,2025-06-03 04:00:00,30.9575,114.87,60,武汉市,李岗,新洲区,1001.3,27.0,59.0,33.82350000000001,21.03852195320535
Q1117,2025-06-03 04:00:00,30.9631,114.7978,28,武汉市,徐寨,新洲区,1005.0,27.1,63.0,33.06350000000002,22.597303062960798
Q1118,2025-06-03 04:00:00,30.6256,114.7536,22.2,武汉市,陈路,新洲区,1006.0,27.0,62.0,36.693000000000026,22.108277306758165
Q1119,2025-06-03 04:00:00,30.6903,114.705,26.5,武汉市,滨湖,新洲区,1005.4,26.5,63.0,38.632000000000005,21.812787274322627
Q1120,2025-06-03 04:00:00,30.5981,114.6917,22.5,武汉市,航天新城,新洲区,1006.0,27.1,66.0,44.60900000000005,23.673365113577976
Q1121,2025-06-03 04:00:00,30.7686,114.6692,20.6,武汉市,大泊,新洲区,1005.9,26.1,73.0,40.334500000000034,24.684550942234836
Q1122,2025-06-03 04:00:00,30.7528,114.7064,23.9,武汉市,冯铺,新洲区,1005.7,26.2,62.0,36.334500000000006,21.089387989069124
Q1123,2025-06-03 04:00:00,30.8286,114.6825,23.6,武汉市,人胜,新洲区,1005.6,25.6,68.0,37.08599999999997,22.32199731591988
Q1124,2025-06-03 04:00:00,30.7658,114.815,35.4,武汉市,杨铺,新洲区,1004.3,27.0,60.0,31.132000000000062,21.395107071056287
Q1125,2025-06-03 04:00:00,30.7722,114.8658,39.5,武汉市,朱岗,新洲区,1003.8,25.9,65.0,34.76550000000002,21.72051764248143
Q1126,2025-06-03 04:00:00,30.6581,114.6303,22,武汉市,毛集,新洲区,1004.4,26.3,64.0,37.28500000000002,21.898797748093116
Q1128,2025-06-03 04:00:00,30.7972,114.6519,13.8,武汉市,王瓦,新洲区,1005.7,26.7,67.0,44.419999999999945,23.47297511564972
Q1129,2025-06-03 04:00:00,30.73,114.7775,20.2,武汉市,四道沟,新洲区,1006.1,26.5,60.0,43.73649999999996,20.7740831184025
Q1130,2025-06-03 04:00:00,30.8692,115.0061,92.7,武汉市,道观河水库,新洲区,997.5,28.4,56.0,31.44200000000005,21.673059271959648
Q1131,2025-06-03 04:00:00,30.9228,115.0169,109.7,武汉市,大屋冲,新洲区,995.6,26.0,62.0,41.37749999999999,20.841176752626165
Q1132,2025-06-03 04:00:00,30.9228,114.7528,34,武汉市,凤凰镇中心小学,新洲区,1002.7,28.3,57.0,31.94200000000003,21.932016190203576
Q1133,2025-06-03 04:00:00,30.8536,114.9625,31,武汉市,旧街利河小学,新洲区,1003.2,26.6,63.0,32.7525,21.941861674357526
Q1134,2025-06-03 04:00:00,30.6467,114.8336,15,武汉市,双柳汉昕小学,新洲区,1006.1,26.9,57.0,36.34800000000001,20.20613891806284
Q1135,2025-06-03 04:00:00,30.8819,114.8447,32,武汉市,刘六,新洲区,1003.4,26.8,65.0,38.83950000000004,22.90684146056248
Q1136,2025-06-03 04:00:00,30.6756,114.7642,28.8,武汉市,涨渡湖湿地森林公园,新洲区,1006.3,26.7,68.0,43.272,23.8233180278236
Q1191,2025-06-03 04:00:00,30.8192,114.6042,35.7,武汉市,紫薇都市田园,江岸区,1004.0,27.5,60.0,41.95100000000002,22.032301111721427
Q1199,2025-06-03 04:00:00,30.8331,114.7997,26.4,武汉市,邾城,新洲区,1005.1,26.4,60.0,33.18150000000002,20.651787961572953
Q1201,2025-06-03 04:00:00,31.2047,114.3831,48.5,武汉市,姚家集,黄陂区,1002.3,27.6,63.0,39.67349999999993,23.269797001154945
Q1202,2025-06-03 04:00:00,30.9883,114.5211,88,武汉市,蔡家榨,黄陂区,998.1,27.9,62.0,38.70099999999999,23.305734809955773
Q1203,2025-06-03 04:00:00,30.9947,114.2333,37.5,武汉市,李家集,黄陂区,1002.2,28.4,59.0,34.4565,22.834116018671768
Q1204,2025-06-03 04:00:00,30.8131,114.2119,35,武汉市,天河机场,黄陂区,1003.5,26.4,63.0,39.64750000000001,21.684377359651602
Q1207,2025-06-03 04:00:00,31.2856,114.3106,67,武汉市,蔡店,黄陂区,999.8,28.5,60.0,36.19399999999998,23.356624163790688
Q1208,2025-06-03 04:00:00,30.8853,114.2261,41,武汉市,祁家湾,黄陂区,1003.5,27.2,58.0,33.183999999999976,20.926423736481414
Q1209,2025-06-03 04:00:00,30.8003,114.2903,38,武汉市,横店,黄陂区,1002.8,26.4,58.0,30.21850000000002,19.96339502952052
Q1210,2025-06-03 04:00:00,30.7506,114.3008,30,武汉市,盘龙城,黄陂区,1003.6,28.2,54.0,30.695000000000004,20.656993418893638
Q1212,2025-06-03 04:00:00,31.0553,114.4678,49,武汉市,夏家寺水库,黄陂区,1001.2,29.3,56.0,32.471,22.834589409045815
Q1213,2025-06-03 04:00:00,31.3047,114.2033,537,武汉市,刘家山,黄陂区,948.6,24.5,69.0,44.66850000000002,21.211528861479433
Q1214,2025-06-03 04:00:00,30.7583,114.4194,23,武汉市,三里桥,江岸区,1005.9,28.7,59.0,36.949000000000055,23.23584791030589
Q1215,2025-06-03 04:00:00,30.9933,114.3361,48,武汉市,罗汉寺,黄陂区,1002.4,27.3,60.0,36.35750000000004,21.77546052612966
Q1216,2025-06-03 04:00:00,31.1075,114.3617,49,武汉市,长轩岭,黄陂区,1002.5,27.3,60.0,36.188500000000026,21.77546052612966
Q1217,2025-06-03 04:00:00,30.7003,114.5036,21,武汉市,现代农展中心,江岸区,1005.8,26.9,66.0,42.46450000000005,23.396581905125394
Q1218,2025-06-03 04:00:00,31.2347,114.23,100.2,武汉市,源泉,黄陂区,994.2,28.6,56.0,32.169999999999945,21.92661657863252
Q1219,2025-06-03 04:00:00,31.0919,114.2014,105.3,武汉市,矿巴水库,黄陂区,997.1,26.9,64.0,44.63250000000001,22.68759457466705
Q1220,2025-06-03 04:00:00,30.7003,114.4181,29,武汉市,武湖,江岸区,1005.4,25.9,63.0,43.38350000000002,21.05219402271277
Q1221,2025-06-03 04:00:00,30.7122,114.3606,17.3,武汉市,滠口,黄陂区,1004.7,26.4,60.0,32.68899999999999,20.651787961572953
Q1222,2025-06-03 04:00:00,30.7164,114.4722,28,武汉市,农科院北区,江岸区,1005.5,27.2,64.0,43.85500000000004,23.091226191979494
Q1224,2025-06-03 04:00:00,31.2561,114.3842,50.2,武汉市,崇杰,黄陂区,1001.8,27.8,63.0,39.49849999999994,23.543652771221705
Q1225,2025-06-03 04:00:00,31.1831,114.3153,65.1,武汉市,梅店水库,黄陂区,999.8,28.8,60.0,35.95950000000001,23.76724423239467
Q1226,2025-06-03 04:00:00,31.2664,114.2336,106.9,武汉市,道士冲,黄陂区,994.9,28.0,63.0,43.09949999999997,23.820320865408746
Q1227,2025-06-03 04:00:00,31.2417,114.2836,87.3,武汉市,姚家老屋,黄陂区,997.2,29.1,63.0,41.915499999999994,25.393363268861968
Q1228,2025-06-03 04:00:00,30.8536,114.1789,22,武汉市,双墩,黄陂区,1003.7,27.1,67.0,33.478500000000025,24.032052463783703
Q1229,2025-06-03 04:00:00,30.9553,114.1625,21.6,武汉市,红旗,黄陂区,1003.6,26.6,63.0,34.22100000000004,21.941861674357526
Q1230,2025-06-03 04:00:00,31.1272,114.4814,46.7,武汉市,同兴集,黄陂区,1000.6,29.0,61.0,47.1526666666666,24.445222407464456
Q1231,2025-06-03 04:00:00,31.1839,114.4325,61.2,武汉市,磨盘,黄陂区,998.8,28.4,61.0,36.51749999999997,23.608153849813185
Q1232,2025-06-03 04:00:00,31.1419,114.4219,73.8,武汉市,吊箭楼,黄陂区,997.3,28.3,60.0,35.609500000000004,23.086332831793236
Q1233,2025-06-03 04:00:00,31.035,114.3906,29,武汉市,卧虎,黄陂区,1002.7,27.1,62.0,38.48250000000008,22.238615712755067
Q1234,2025-06-03 04:00:00,31.0972,114.315,48.5,武汉市,院基寺水库,黄陂区,1000.2,27.4,63.0,41.226499999999966,22.998729350908093
Q1235,2025-06-03 04:00:00,31.0725,114.2422,86.4,武汉市,彭家冲,黄陂区,998.4,27.8,61.0,44.52249999999997,22.796235222928953
Q1236,2025-06-03 04:00:00,30.9511,114.4708,49,武汉市,红十月水库,黄陂区,1000.7,26.9,64.0,37.46599999999998,22.68759457466705
Q1237,2025-06-03 04:00:00,31.0414,114.3053,60.4,武汉市,北新,黄陂区,999.0,27.5,63.0,38.77500000000001,23.1339161673075
Q1238,2025-06-03 04:00:00,31.3386,114.2825,96,武汉市,余家冲水库,黄陂区,994.4,28.2,65.0,43.536,24.864899485705305
Q1239,2025-06-03 04:00:00,31.0269,114.1628,34,武汉市,官家砦,黄陂区,1002.2,26.6,70.0,45.53500000000005,24.379846304841692
Q1243,2025-06-03 04:00:00,30.9133,114.4825,21,武汉市,定正,黄陂区,1003.5,26.7,65.0,41.43399999999999,22.77228929130197
Q1244,2025-06-03 04:00:00,31.1486,114.3,62.7,武汉市,黄陂石门,黄陂区,999.0,29.3,61.0,42.557000000000016,24.873392034853474
Q1245,2025-06-03 04:00:00,31.25,114.3386,27.9,武汉市,仁和,黄陂区,1001.8,28.6,60.0,37.24949999999994,23.492803477106268
Q1246,2025-06-03 04:00:00,31.1961,114.4222,55.1,武汉市,帽子村,黄陂区,999.4,27.4,64.0,39.99700000000002,23.363788546954254
Q1247,2025-06-03 04:00:00,30.9967,114.2653,53,武汉市,白庙集,黄陂区,1002.3,27.2,62.0,33.57600000000006,22.369625373480137
Q1248,2025-06-03 04:00:00,30.9969,114.4553,28.8,武汉市,白龙寺,黄陂区,1004.1,26.9,63.0,44.95900000000003,22.333100909437878
Q1250,2025-06-03 04:00:00,30.7614,114.1772,14.3,武汉市,童家湖,黄陂区,1005.1,27.0,55.0,33.678999999999995,19.6121814818016
Q1251,2025-06-03 04:00:00,30.9539,114.6003,55.1,武汉市,艾馆,黄陂区,999.8,26.1,64.0,37.35499999999996,21.64125014113739
Q1252,2025-06-03 04:00:00,30.8608,114.2969,43.9,武汉市,全华,黄陂区,1001.4,26.8,63.0,36.33649999999999,22.202015569468248
Q1253,2025-06-03 04:00:00,30.9294,114.3856,35.8,武汉市,下店,黄陂区,1002.4,26.5,65.0,34.52700000000002,22.505256711602712
Q1254,2025-06-03 04:00:00,30.9661,114.2142,32.9,武汉市,黄陂郑店,黄陂区,1002.0,28.9,63.0,38.66099999999992,25.10078722038195
Q1255,2025-06-03 04:00:00,31.2994,114.4211,65.4,武汉市,茶庙,黄陂区,998.2,28.6,55.0,38.45149999999997,21.53506985401408
Q1270,2025-06-03 04:00:00,31.1797,114.2817,337.8,武汉市,木兰天池,黄陂区,970.9,25.3,75.0,43.85399999999997,24.184408293443663
Q1271,2025-06-03 04:00:00,31.1264,114.2086,122,武汉市,云雾山,黄陂区,993.8,26.4,66.0,42.46200000000002,22.71696675773025
Q1301,2025-06-03 04:00:00,30.3508,114.4364,20.5,武汉市,老屋汤,江夏区,1006.0,25.9,68.0,37.53200000000001,22.72300307213442
Q1302,2025-06-03 04:00:00,30.1533,114.2303,42,武汉市,安山,江夏区,1003.9,24.7,65.0,40.727000000000004,20.222538661123924
Q1303,2025-06-03 04:00:00,30.3481,114.1275,27.6,武汉市,金口,江夏区,1005.5,26.8,61.0,38.85249999999997,21.497189678374017
Q1304,2025-06-03 04:00:00,30.285,114.2281,32.6,武汉市,郑店,江夏区,1005.3,26.4,62.0,37.88549999999997,21.340180893625384
Q1305,2025-06-03 04:00:00,30.1131,114.1917,24,武汉市,法泗,江夏区,1005.7,25.5,53.0,25.226000000000013,17.294922376068715
Q1306,2025-06-03 04:00:00,30.3058,114.4239,38.2,武汉市,五里界,江夏区,1004.2,27.3,64.0,42.00850000000003,23.227157894538305
Q1307,2025-06-03 04:00:00,30.0333,114.3808,40,武汉市,山坡,江夏区,1003.3,26.5,60.0,32.33100000000004,20.7740831184025
Q1308,2025-06-03 04:00:00,30.0231,114.4622,40.8,武汉市,湖泗,江夏区,1003.8,26.6,61.0,41.15650000000007,21.245294637076334
Q1309,2025-06-03 04:00:00,30.1494,114.5,32.3,武汉市,舒安,江夏区,1004.3,26.2,62.0,29.370999999999995,21.089387989069124
Q1310,2025-06-03 04:00:00,30.2106,114.3286,35,武汉市,乌龙泉,江夏区,1004.2,26.3,61.0,26.934999999999988,20.872291603651252
Q1311,2025-06-03 04:00:00,30.4372,114.3781,19.7,武汉市,庙山,江夏区,1005.9,27.1,66.0,35.88999999999998,23.673365113577976
Q1313,2025-06-03 04:00:00,30.2603,114.4494,22.8,武汉市,梁子湖,江夏区,1006.1,26.6,58.0,35.13200000000004,20.200444081154547
Q1314,2025-06-03 04:00:00,30.3864,114.38,22,武汉市,庙山天玺湾,江夏区,1006.0,26.6,68.0,37.3535,23.683279267560508
Q1316,2025-06-03 04:00:00,30.3872,114.3056,26,武汉市,中央大公园,江夏区,1005.7,26.5,62.0,39.88749999999999,21.466552555682586
Q1317,2025-06-03 04:00:00,30.3178,114.2592,28,武汉市,郑店海吉星,江夏区,1005.7,26.5,66.0,39.112999999999985,22.851491430242753
Q1318,2025-06-03 04:00:00,30.3278,114.3869,27,武汉市,五里界锦绣,江夏区,1004.2,25.9,64.0,36.02300000000002,21.386355832597097
Q1319,2025-06-03 04:00:00,30.1294,114.4775,35,武汉市,舒安未来家园,江夏区,1005.8,24.8,64.0,35.462500000000006,20.030837277578357
Q1320,2025-06-03 04:00:00,30.005,114.5111,55,武汉市,湖泗祝祠,江夏区,1003.2,25.8,59.0,32.70799999999997,19.598967008732323
Q1321,2025-06-03 04:00:00,30.0417,114.5383,49,武汉市,舒安嗣孟,江夏区,1003.9,26.1,62.0,40.77650000000006,20.964961074226846
Q1322,2025-06-03 04:00:00,30.2406,114.3142,66,武汉市,乌龙泉茗泉谷,江夏区,1002.3,26.0,60.0,30.763500000000032,20.1688807283479
Q1323,2025-06-03 04:00:00,30.0956,114.3458,24,武汉市,山坡光星,江夏区,1006.1,26.5,67.0,36.29350000000004,23.197726148882793
Q1324,2025-06-03 04:00:00,30.2308,114.4347,24,武汉市,乌龙泉杨湖,江夏区,1006.2,26.7,59.0,35.40200000000004,20.67023181825871
Q1325,2025-06-03 04:00:00,30.2164,114.0742,24,武汉市,金口南岸,江夏区,1006.1,26.1,60.0,37.052500000000045,20.288672007316304
Q1326,2025-06-03 04:00:00,30.2019,114.1539,21,武汉市,金水花篮棚,江夏区,1006.3,25.7,60.0,32.28900000000001,19.81321091816936
Q1327,2025-06-03 04:00:00,30.2031,114.1856,23,武汉市,法泗花莲湖,江夏区,1006.2,27.7,52.0,36.53900000000004,19.319547505435917
Q1328,2025-06-03 04:00:00,30.3664,114.3228,23,武汉市,东湖路学校,江夏区,1005.8,26.4,62.0,39.79599999999999,21.340180893625384
Q1329,2025-06-03 04:00:00,30.2903,114.0978,21.1,武汉市,金口长江,江夏区,1005.8,26.5,65.0,40.984999999999964,22.505256711602712
Q1330,2025-06-03 04:00:00,30.2444,114.1503,23.7,武汉市,马蹄口,江夏区,1005.9,25.7,64.0,33.01300000000001,21.13409164604732
Q1331,2025-06-03 04:00:00,30.2861,114.1775,43.3,武汉市,三门口,江夏区,1003.4,25.4,69.0,38.31249999999998,22.38249658828013
Q1332,2025-06-03 04:00:00,30.1914,114.4686,20.9,武汉市,塘口,江夏区,1006.1,25.3,63.0,38.55900000000003,20.31490296649268
Q1333,2025-06-03 04:00:00,30.1481,114.36,34.1,武汉市,三合,江夏区,1004.7,26.8,59.0,30.27399999999999,20.792363787279786
Q1334,2025-06-03 04:00:00,30.1872,114.3167,41,武汉市,乌龙泉五星,江夏区,1003.8,26.3,63.0,35.546500000000016,21.55662903327916
Q1335,2025-06-03 04:00:00,30.0183,114.25,21.7,武汉市,邓家洲,江夏区,1006.1,25.6,66.0,42.972,21.665467983098704
Q1336,2025-06-03 04:00:00,30.0481,114.3033,35.5,武汉市,前途,江夏区,1004.5,27.1,65.0,42.106999999999935,23.314677763372252
Q1337,2025-06-03 04:00:00,30.2183,114.2303,28.3,武汉市,涂洲,江夏区,1005.3,26.1,64.0,39.39249999999997,21.64125014113739
Q1338,2025-06-03 04:00:00,30.1039,114.2444,31.2,武汉市,合心,江夏区,1005.1,26.5,58.0,33.304499999999976,20.081613681122416
Q1339,2025-06-03 04:00:00,30.1778,114.3586,32.5,武汉市,沿湖,江夏区,1004.8,26.2,59.0,32.736,20.068933731533523
Q1340,2025-06-03 04:00:00,30.2194,114.3758,21.5,武汉市,长岭,江夏区,1006.0,26.2,61.0,36.28450000000005,20.74923656989059
Q1341,2025-06-03 04:00:00,30.1742,114.5003,39.8,武汉市,祝庙,江夏区,1003.9,26.6,59.0,31.304999999999993,20.548727599795143
Q1342,2025-06-03 04:00:00,30.0381,114.4119,39.1,武汉市,陈六,江夏区,1004.0,26.3,69.0,45.391999999999946,23.60964132216289
Q1343,2025-06-03 04:00:00,30.3275,114.1272,27.9,武汉市,金口花园,江夏区,1005.3,26.4,69.0,39.62250000000003,23.749556155808893
Q1344,2025-06-03 04:00:00,30.1744,114.2619,26.9,武汉市,安山青春,江夏区,1005.5,25.5,67.0,37.86200000000004,21.863392437671774
Q1345,2025-06-03 04:00:00,30.1472,114.3175,41.3,武汉市,安山英雄,江夏区,1003.8,26.7,62.0,33.44349999999998,21.72126055478034
Q1346,2025-06-03 04:00:00,30.0914,114.3069,40.7,武汉市,周李家,江夏区,1003.9,25.7,62.0,38.35999999999992,20.473651282108342
Q1347,2025-06-03 04:00:00,30.2844,114.3825,35.2,武汉市,狮子山,江夏区,1004.2,25.4,63.0,36.91249999999998,20.43619253712534
Q1348,2025-06-03 04:00:00,30.3039,114.1303,26,武汉市,凉亭,江夏区,1005.8,26.6,61.0,37.992999999999995,21.245294637076334
Q1349,2025-06-03 04:00:00,30.3728,114.1886,24.9,武汉市,金港,江夏区,1005.7,26.1,65.0,36.936000000000014,21.979394674592665
Q1350,2025-06-03 04:00:00,30.0536,114.2386,22.2,武汉市,山坡东方红,江夏区,1006.1,25.5,70.0,37.29750000000002,22.84235030801528
Q1351,2025-06-03 04:00:00,30.1067,114.4064,42.6,武汉市,新生,江夏区,1003.7,26.3,67.0,42.652499999999975,22.92530389253498
Q1352,2025-06-03 04:00:00,30.0669,114.4333,38.5,武汉市,官堤,江夏区,1004.2,26.5,59.0,35.337499999999935,20.42784839976246
Q1353,2025-06-03 04:00:00,30.3608,114.2928,262,武汉市,八分山,江夏区,978.4,24.7,71.0,39.485500000000016,22.08923453753536
Q1401,2025-06-03 04:00:00,30.7736,114.0089,20.9,武汉市,东山,东西湖区,1005.4,27.2,63.0,46.14650000000009,22.730425782729817
Q1402,2025-06-03 04:00:00,30.7692,114.1272,33.6,武汉市,柏泉,东西湖区,1004.6,27.6,64.0,41.79574999999993,23.639158858316133
Q1403,2025-06-03 04:00:00,30.7053,114.0806,21,武汉市,郁金香公园,东西湖区,1005.8,27.6,62.0,35.40450000000004,22.900435143993754
Q1404,2025-06-03 04:00:00,30.6506,114.0136,13,武汉市,走马岭,东西湖区,1005.2,27.8,54.0,34.52249999999999,20.18027380390432
Q1405,2025-06-03 04:00:00,30.7461,113.9286,31.3,武汉市,辛安渡,东西湖区,1005.2,27.0,61.0,39.67300000000001,21.751692188907228
Q1406,2025-06-03 04:00:00,30.6808,114.1228,23,武汉市,径河,东西湖区,1005.2,28.1,59.0,34.64250000000007,22.43846526149607
Q1407,2025-06-03 04:00:00,30.6642,114.2636,16,武汉市,将军路,东西湖区,1005.3,27.1,59.0,38.86550000000008,21.16255366213789
Q1408,2025-06-03 04:00:00,30.7228,114.145,25,武汉市,杜公湖,东西湖区,1005.6,27.4,55.0,36.468499999999956,20.07825578253881
Q1410,2025-06-03 04:00:00,30.6897,113.9931,22,武汉市,新沟,东西湖区,1005.5,27.1,63.0,39.757500000000014,22.597303062960798
Q1411,2025-06-03 04:00:00,30.6919,114.1892,32,武汉市,塔尔头,东西湖区,1005.5,28.8,55.0,31.32450000000002,21.786640546361784
Q1412,2025-06-03 04:00:00,30.6422,114.1814,23,武汉市,金银湖,东西湖区,1005.6,28.3,52.0,35.421000000000035,20.008155120887473
Q1413,2025-06-03 04:00:00,30.7642,113.9464,32,武汉市,红星合作社,东西湖区,1005.4,26.9,68.0,51.418499999999966,24.105569235583744
Q1501,2025-06-03 04:00:00,30.3908,113.7656,21,武汉市,成功闸,蔡甸区,1005.3,27.0,60.0,36.12900000000004,21.395107071056287
Q1502,2025-06-03 04:00:00,30.5081,114.0531,30,武汉市,大集,蔡甸区,1004.6,27.1,59.0,36.18800000000001,21.16255366213789
Q1503,2025-06-03 04:00:00,30.5236,113.8964,41.3,武汉市,索河,蔡甸区,1003.7,26.2,64.0,41.24999999999999,21.769690827426196
Q1504,2025-06-03 04:00:00,30.3917,113.9786,35,武汉市,桐湖农场,蔡甸区,1005.7,27.1,64.0,40.003500000000024,22.95599041316652
Q1506,2025-06-03 04:00:00,30.3169,113.7728,27,武汉市,消泗,蔡甸区,1005.9,28.5,62.0,41.64699999999993,24.135178302583714
Q1507,2025-06-03 04:00:00,30.4617,113.9281,48.6,武汉市,永安,蔡甸区,1002.9,26.8,62.0,36.34499999999999,21.849602623921133
Q1509,2025-06-03 04:00:00,30.4297,114.0436,31.3,武汉市,奓山,蔡甸区,1004.5,27.0,64.0,38.98650000000004,22.821447542460042
Q1510,2025-06-03 04:00:00,30.4525,113.8792,26.5,武汉市,侏儒,蔡甸区,1005.4,26.9,65.0,42.16950000000001,23.042088239896223
Q1512,2025-06-03 04:00:00,30.3242,113.8619,25,武汉市,沉湖湿地,蔡甸区,1005.3,27.0,68.0,37.179,24.247788013863797
Q1513,2025-06-03 04:00:00,30.4078,114.0333,37.2,武汉市,千子山,蔡甸区,1004.0,26.2,63.0,40.07300000000002,21.42953940824766
Q1514,2025-06-03 04:00:00,30.4839,113.9544,122,武汉市,九真山,蔡甸区,994.3,25.8,71.0,52.726500000000016,23.585197586779575
Q1515,2025-06-03 04:00:00,30.4467,114.0142,27.3,武汉市,绿茵园,蔡甸区,1005.1,26.8,63.0,43.32000000000004,22.202015569468248
Q1516,2025-06-03 04:00:00,30.4086,113.8017,21.5,武汉市,时光农场,蔡甸区,1005.8,27.0,63.0,39.47700000000001,22.464862424609105
Q1517,2025-06-03 04:00:00,30.4275,113.9525,22.7,武汉市,农耕园,蔡甸区,1005.8,27.1,67.0,37.324499999999986,24.032052463783703
Q1518,2025-06-03 04:00:00,30.4956,114.0656,32.4,武汉市,花博汇,蔡甸区,1005.8,27.7,59.0,32.736499999999985,21.920255823475365
Q1519,2025-06-03 04:00:00,30.5394,113.9619,32,武汉市,鸽翅岭,蔡甸区,1004.5,28.0,61.0,34.39987499999999,23.06412020301482
Q1520,2025-06-03 04:00:00,30.4989,113.9781,22.3,武汉市,景秀大地,蔡甸区,1005.6,26.7,63.0,39.421000000000035,22.071603466954215
Q1521,2025-06-03 04:00:00,30.4289,113.7733,23.2,武汉市,七沟,蔡甸区,1005.6,26.9,65.0,41.63750000000004,23.042088239896223
Q1522,2025-06-03 04:00:00,30.5133,113.8858,27.1,武汉市,香草花田,蔡甸区,1005.0,27.5,64.0,36.72024999999994,23.50112118583619
Q1523,2025-06-03 04:00:00,30.54,113.9247,22.2,武汉市,金龙水寨,蔡甸区,1005.5,26.5,62.0,39.020500000000055,21.466552555682586
Q1524,2025-06-03 04:00:00,30.6244,113.9264,24.8,武汉市,谢八家,蔡甸区,1005.1,27.4,64.0,41.43250000000002,23.363788546954254
Q1525,2025-06-03 04:00:00,30.5567,113.9353,23.3,武汉市,蔡甸野生动物王国,蔡甸区,1005.4,26.9,61.0,35.24750000000005,21.624113578979532
Q1526,2025-06-03 04:00:00,30.5292,114.0256,21.5,武汉市,长江大学,蔡甸区,1005.7,26.5,62.0,38.449000000000034,21.466552555682586
Q1527,2025-06-03 04:00:00,30.6311,113.9797,26.1,武汉市,蔡甸汉江堤防,蔡甸区,1005.0,27.5,61.0,40.53499999999999,22.399506130250117
Q1528,2025-06-03 04:00:00,30.5306,114.0786,24.3,武汉市,后官湖湿地公园,蔡甸区,1005.3,26.3,67.0,37.10799999999999,22.92530389253498
Q1529,2025-06-03 04:00:00,30.3156,113.8164,23.3,武汉市,张家大湖,蔡甸区,1005.9,26.9,63.0,41.642500000000034,22.333100909437878
Q1599,2025-06-03 04:00:00,30.5664,114.0289,17.8,武汉市,孙家畈,蔡甸区,1005.2,27.4,61.0,41.49800000000002,22.268610958815774
Q1701,2025-06-03 04:00:00,30.4017,114.4189,30,武汉市,藏龙岛,江夏区,1005.3,25.5,67.0,36.42600000000004,21.863392437671774
Q1702,2025-06-03 04:00:00,30.5039,114.4608,40,武汉市,东湖高新射击场,洪山区,1004.2,28.5,61.0,42.97949999999998,23.7459012331872
Q1703,2025-06-03 04:00:00,30.5972,114.3886,30,武汉市,武汉欢乐谷,洪山区,1005.7,26.8,56.0,30.984000000000027,19.735124950638443
Q1704,2025-06-03 04:00:00,30.57,114.39,30,武汉市,东湖湖心亭,武昌区,1005.6,26.4,70.0,43.35300000000002,24.093752621835108
Q1706,2025-06-03 04:00:00,30.6508,114.3919,30,武汉市,青山沙排中心,青山区,1005.3,25.2,70.0,37.992000000000026,22.438048642295602
Q1707,2025-06-03 04:00:00,30.5,114.5006,50,武汉市,驿山高尔夫,洪山区,1001.6,25.5,67.0,39.66899999999999,21.863392437671774
Q1708,2025-06-03 04:00:00,30.5094,114.4117,40,武汉市,华科,武昌区,1004.3,26.8,56.0,30.096499999999995,19.735124950638443
Q1709,2025-06-03 04:00:00,30.4739,114.4547,40,武汉市,省奥体中心,市辖区,1003.2,25.9,70.0,39.31399999999996,23.391326691903075
Q1710,2025-06-03 04:00:00,30.5489,114.3281,30,武汉市,洪山体育馆,武昌区,1004.1,27.0,59.0,29.990500000000015,21.03852195320535
Q1711,2025-06-03 04:00:00,30.5219,114.3725,30,武汉市,武汉体育学院,洪山区,1005.3,26.1,59.0,32.45349999999999,19.950527473861033
Q1712,2025-06-03 04:00:00,30.5383,114.3511,30,武汉市,武大,武昌区,1005.3,26.5,58.0,34.54649999999999,20.081613681122416
Q1713,2025-06-03 04:00:00,30.4508,114.4231,30,武汉市,武汉软件职院,市辖区,1004.6,26.2,55.0,25.85600000000003,18.708328054819386
Q1714,2025-06-03 04:00:00,30.5058,114.325,30,武汉市,武汉理工大学,洪山区,1005.8,26.5,55.0,33.85300000000003,19.042909525202294
Q1715,2025-06-03 04:00:00,30.4414,114.3086,20,武汉市,武汉城市职院,洪山区,1006.0,26.1,61.0,36.25950000000005,20.626816540771575
Q1716,2025-06-03 04:00:00,30.5061,114.1683,30,武汉市,武汉体育中心,汉南区,1005.6,26.6,55.0,32.602500000000006,19.15559352523276
Q1717,2025-06-03 04:00:00,30.4664,114.08,30,武汉市,武汉商学院,汉南区,1005.6,26.6,58.0,32.60149999999998,20.200444081154547
Q1718,2025-06-03 04:00:00,30.5208,114.1497,30,武汉市,江汉大学,汉南区,1005.6,27.0,62.0,42.024500000000074,22.108277306758165
Q1720,2025-06-03 04:00:00,30.6472,114.2831,30,武汉市,全民健身中心,江岸区,1005.9,27.9,51.0,30.3505,19.17084637593136
Q1721,2025-06-03 04:00:00,30.6028,114.2636,30,武汉市,汉口文体中心,江汉区,1005.8,26.7,63.0,38.41600000000002,22.071603466954215
Q1722,2025-06-03 04:00:00,30.5017,114.2308,30,武汉市,汉阳沙排中心,汉阳区,1005.2,26.4,57.0,32.22199999999996,19.619198563494304
Q1723,2025-06-03 04:00:00,30.3978,114.1156,40,武汉市,军山,汉南区,1003.7,25.9,65.0,39.541500000000006,21.72051764248143
Q1724,2025-06-03 04:00:00,30.4764,113.9647,60,武汉市,蔡甸国防园,蔡甸区,1002.4,26.1,61.0,35.76199999999995,20.626816540771575
Q1725,2025-06-03 04:00:00,31.1183,114.4642,50,武汉市,海工大木兰校区,黄陂区,1001.8,26.3,75.0,44.61449999999993,25.66265361104662
Q1726,2025-06-03 04:00:00,30.6378,114.1269,20,武汉市,体育中心,东西湖区,1004.8,27.0,53.0,33.675999999999966,18.89901124609972
Q1727,2025-06-03 04:00:00,30.5425,114.3689,30,武汉市,东湖帆船基地,武昌区,1005.9,27.5,65.0,39.15600000000003,23.86832620436488
Q1728,2025-06-03 04:00:00,30.4408,114.2756,20,武汉市,雷神山,江夏区,1005.8,26.1,63.0,39.932500000000005,21.30310560768212
Q1729,2025-06-03 04:00:00,30.1603,114.1839,47,武汉市,桂子米业,江夏区,1003.7,26.2,60.0,34.44650000000002,20.409085150712055
Q1730,2025-06-03 04:00:00,30.1494,114.4292,40,武汉市,天子山教育基地,江夏区,1004.5,25.3,65.0,31.76149999999997,20.95982052098451
Q1745,2025-06-03 04:00:00,30.5631,114.07,22.1,武汉市,中法生态城,蔡甸区,1005.2,27.9,57.0,33.39299999999999,21.426240067217403
Q1752,2025-06-03 04:00:00,30.6517,114.2239,35,武汉市,马池路,东西湖区,1005.6,27.6,54.0,33.56850000000003,19.94554028670424
Q1753,2025-06-03 04:00:00,30.4872,114.4561,50,武汉市,高新大道,市辖区,1002.4,26.9,64.0,46.542999999999985,22.68759457466705
Q1754,2025-06-03 04:00:00,30.6575,114.4003,60,武汉市,天兴洲大桥,洪山区,1000.4,26.5,56.0,25.937000000000026,19.38914424384234
Q1755,2025-06-03 04:00:00,30.5811,114.2161,35,武汉市,知音桥,硚口区,1004.4,26.8,57.0,39.88666666666668,20.087537896185555
Q1756,2025-06-03 04:00:00,30.5656,114.2783,15,武汉市,晴川桥,硚口区,1003.8,25.8,61.0,34.64800000000003,20.263338771740198
Q1759,2025-06-03 04:00:00,30.6036,114.3217,20,武汉市,长江二桥,江岸区,1002.0,25.7,55.0,27.063499999999987,18.162110008321918
Q1760,2025-06-03 04:00:00,30.6294,114.3394,25,武汉市,二七长江大桥,江岸区,1001.4,25.0,59.0,30.625499999999974,18.68783367350498
Q1761,2025-06-03 04:00:00,30.5069,114.2625,30,武汉市,杨泗港长江大桥,汉阳区,1000.9,24.8,54.0,31.8515,16.90101895295674
Q1762,2025-06-03 04:00:00,30.5339,114.2764,40,武汉市,鹦鹉洲大桥,汉阳区,1001.8,24.6,58.0,28.783500000000007,17.93707247279219
Q1763,2025-06-03 04:00:00,30.5872,114.1797,25,武汉市,古田桥,硚口区,1003.6,25.8,54.0,30.021000000000004,17.938037601212635
Q1764,2025-06-03 04:00:00,30.5644,114.2483,35,武汉市,月湖桥,硚口区,1004.1,26.7,56.0,28.018500000000003,19.619203081737083
Q1765,2025-06-03 04:00:00,30.5286,114.3831,11,武汉市,八一路延长线,市辖区,1004.7,26.1,66.0,43.62600000000004,22.317539208047936
Q1766,2025-06-03 04:00:00,30.6058,114.43,20,武汉市,青化立交,洪山区,1004.1,26.2,56.0,30.89899999999998,19.048479473997922
Q1767,2025-06-03 04:00:00,30.6017,114.41,22,武汉市,欢乐大道,市辖区,1004.4,25.6,57.0,28.38200000000004,18.711085985403425
Q1768,2025-06-03 04:00:00,30.6386,114.2514,26,武汉市,姑嫂树立交,东西湖区,1003.8,27.5,50.0,34.57899999999996,18.360250926434524
Q1769,2025-06-03 04:00:00,30.5097,114.3594,18,武汉市,楚康路出口,洪山区,1004.2,26.2,55.0,24.997000000000025,18.708328054819386
Q1770,2025-06-03 04:00:00,30.6083,114.2083,22,武汉市,长丰大道,硚口区,1004.3,26.8,52.0,39.83499999999993,18.32547316844998
Q1771,2025-06-03 04:00:00,30.4992,114.4108,27,武汉市,雄楚大道光谷大道入口,洪山区,1002.1,26.7,57.0,37.003499999999974,19.969545993910955
Q1772,2025-06-03 04:00:00,30.505,114.2844,22,武汉市,白沙洲大道高架,洪山区,1004.7,27.3,54.0,30.434999999999977,19.597914473516695
Q1773,2025-06-03 04:00:00,30.4556,114.3156,6,武汉市,野芷湖立交线,洪山区,1006.0,26.2,67.0,41.90700000000002,22.790145084961797
Q1775,2025-06-03 04:00:00,30.5186,114.1814,17,武汉市,汪家咀立交,汉阳区,1003.9,27.4,55.0,38.637500000000024,20.07825578253881
Q1776,2025-06-03 04:00:00,30.5147,114.2403,21,武汉市,四新北路,汉阳区,1004.5,25.7,58.0,32.14600000000001,19.152770554230383
Q1778,2025-06-03 04:00:00,30.5103,114.4556,8,武汉市,老武黄立交,市辖区,1003.3,26.2,64.0,37.105000000000004,21.769690827426196
Q1779,2025-06-03 04:00:00,30.4628,114.2886,13,武汉市,青菱立交,洪山区,1005.0,25.5,62.0,33.4515,20.23179598709925
Q1780,2025-06-03 04:00:00,30.4244,114.3781,25,武汉市,汤逊湖大桥,江夏区,1006.0,24.9,69.0,41.9635,21.725165617170735
Q2004,2025-06-03 04:00:00,32.6525,110.7253,336.4,十堰市,红卫,张湾区,970.5,25.2,68.0,47.01900000000008,21.796961538230022
Q2022,2025-06-03 04:00:00,32.4628,110.7172,643.8,十堰市,小川,茅箭区,937.6,24.0,63.0,34.11749999999996,18.794502120354323
Q2023,2025-06-03 04:00:00,32.6861,110.5586,186.4,十堰市,黄龙,张湾区,986.9,25.2,64.0,36.265499999999996,20.51478733009884
Q2031,2025-06-03 04:00:00,32.4253,111.0228,851,十堰市,紫霄宫,丹江口市,915.1,23.3,60.0,30.21899999999998,17.159862921312342
Q2032,2025-06-03 04:00:00,32.4308,111.0567,588,十堰市,八仙观,丹江口市,945.4,23.3,70.0,33.71599999999997,20.019840074864398
Q2033,2025-06-03 04:00:00,32.4489,111.0708,558,十堰市,太子坡,丹江口市,946.9,23.8,74.0,40.29049999999994,21.811990591629275
Q2034,2025-06-03 04:00:00,32.4978,111.0942,396,十堰市,元和观,丹江口市,963.4,25.1,63.0,34.76099999999999,20.074212194430213
Q2050,2025-06-03 04:00:00,32.6017,110.7742,310,十堰市,火车站小学,茅箭区,974.2,25.7,62.0,35.4785,20.473651282108342
Q2204,2025-06-03 04:00:00,32.7708,111.1592,253.1,十堰市,习家店,丹江口市,979.7,25.3,67.0,38.942,21.60473807547634
Q2205,2025-06-03 04:00:00,32.7553,111.3811,297,十堰市,石鼓,丹江口市,974.8,24.4,66.0,28.33100000000003,20.168062927174358
Q2206,2025-06-03 04:00:00,32.4447,111.2453,186,十堰市,丁家营,丹江口市,987.5,25.7,68.0,33.975999999999985,22.454972373925283
Q2236,2025-06-03 04:00:00,32.5219,111.0364,179.1,十堰市,蒿口新村,丹江口市,988.1,27.1,58.0,36.07650000000001,20.803866311932158
Q2261,2025-06-03 04:00:00,32.3306,111.1797,503.1,十堰市,马鞍山,丹江口市,952.3,25.9,56.0,28.154000000000057,18.713061353522463
Q2266,2025-06-03 04:00:00,32.5486,111.5125,133.4,十堰市,大坝街道,丹江口市,993.0,25.5,63.0,31.475499999999947,20.55811527721376
Q2309,2025-06-03 04:00:00,32.7992,110.8847,212.2,十堰市,茶店,郧阳区,984.6,25.9,63.0,38.77700000000002,21.05219402271277
Q2324,2025-06-03 04:00:00,32.8525,111.0044,221,十堰市,安阳,郧阳区,982.6,25.0,68.0,41.211666666666694,21.538520166073543
Q2326,2025-06-03 04:00:00,32.8278,110.3708,193.5,十堰市,五峰,郧阳区,987.0,26.2,63.0,37.557499999999955,21.42953940824766
Q2334,2025-06-03 04:00:00,33.0756,110.735,834.7,十堰市,塘上,郧阳区,916.3,24.4,56.0,31.374999999999986,17.112295816996426
Q2350,2025-06-03 04:00:00,32.8653,110.6186,244.8,十堰市,韩家沟,郧阳区,981.7,25.1,69.0,43.57200000000002,21.98604192723309
Q2353,2025-06-03 04:00:00,32.5125,110.4669,537.4,十堰市,毛河,郧阳区,949.2,21.8,70.0,33.23399999999994,18.275162955963115
Q2401,2025-06-03 04:00:00,33.0742,110.0211,273.4,十堰市,上津,郧西县,978.5,23.0,74.0,36.20649999999998,20.783087982529473
Q2402,2025-06-03 04:00:00,33.0053,110.2311,374.2,十堰市,马安,郧西县,966.9,24.5,66.0,38.69950000000004,20.289288476197722
Q2403,2025-06-03 04:00:00,33.0589,110.3233,364.3,十堰市,土门,郧西县,967.7,23.9,71.0,39.566999999999965,21.054079330850968
Q2405,2025-06-03 04:00:00,32.9978,110.0711,264.9,十堰市,六郎,郧西县,976.3,23.7,67.0,34.481499999999954,19.63008153583655
Q2409,2025-06-03 04:00:00,33.1683,110.5619,838.1,十堰市,三官,郧西县,915.8,22.2,70.0,34.70299999999997,18.726853000787084
Q2411,2025-06-03 04:00:00,33.2025,109.9003,794,十堰市,槐树,郧西县,921.6,20.5,77.0,35.03349999999996,18.559681385052823
Q2423,2025-06-03 04:00:00,32.9303,110.5283,273,十堰市,河夹,郧西县,975.4,26.4,60.0,37.30299999999998,20.651787961572953
Q2424,2025-06-03 04:00:00,33.1942,109.575,890.6,十堰市,湖北口,郧西县,911.2,20.8,70.0,32.73750000000002,17.18747115255839
Q2433,2025-06-03 04:00:00,33.1864,109.75,640,十堰市,包耳场,郧西县,937.9,20.5,75.0,32.995499999999964,18.07761173868781
Q2502,2025-06-03 04:00:00,32.2775,110.6972,669.3,十堰市,土城,房县,934.8,23.9,69.0,34.30100000000002,20.461006673643894
Q2503,2025-06-03 04:00:00,32.1378,111.0931,843.6,十堰市,沙河,房县,916.0,21.6,72.0,28.712500000000013,18.5687189723709
Q2504,2025-06-03 04:00:00,32.2108,110.9142,711.4,十堰市,卧牛观,房县,930.0,23.5,68.0,32.24449999999999,19.68420013119064
Q2505,2025-06-03 04:00:00,32.0058,110.4417,624.2,十堰市,门古寺,房县,940.2,23.8,59.0,32.489000000000004,17.390641147380098
Q2507,2025-06-03 04:00:00,32.0336,110.6253,495.7,十堰市,军店,房县,953.7,25.2,66.0,41.479000000000084,21.155874434164428
Q2509,2025-06-03 04:00:00,32.0064,110.28,795.4,十堰市,中坝,房县,920.9,23.1,64.0,54.58900000000003,18.083744862444316
Q2524,2025-06-03 04:00:00,31.9419,110.9697,415,十堰市,三里坪,房县,962.6,24.4,65.0,40.07449999999998,19.862486216156565
Q2528,2025-06-03 04:00:00,32.0997,110.7728,464.5,十堰市,白鹤,房县,957.2,23.7,67.0,34.470000000000034,19.63008153583655
Q2530,2025-06-03 04:00:00,32.1044,110.5331,563.7,十堰市,汪家河,房县,946.3,25.5,54.0,28.699500000000043,17.62124166618322
Q2532,2025-06-03 04:00:00,32.3347,110.3903,265,十堰市,对寺河,房县,980.9,24.7,64.0,39.542000000000044,19.911422681722016
Q2541,2025-06-03 04:00:00,31.8828,110.5647,991.9,十堰市,三座庵,房县,902.1,23.6,59.0,27.96400000000002,17.182291089390425
Q2546,2025-06-03 04:00:00,31.9833,110.7353,737,十堰市,南潭,房县,927.5,23.9,61.0,34.44350000000004,18.08871604481562
Q2548,2025-06-03 04:00:00,32.2303,110.7133,592.3,十堰市,白鸡,房县,943.1,23.6,68.0,32.03149999999999,19.803318543704222
Q2559,2025-06-03 04:00:00,31.8842,110.7753,1359,十堰市,东蒿,房县,863.0,21.8,57.0,27.703499999999963,14.881204121284252
Q2605,2025-06-03 04:00:00,31.7169,110.0508,523.7,十堰市,柳林,竹山县,951.4,23.5,56.0,34.89299999999997,16.210517755098174
Q2623,2025-06-03 04:00:00,32.4331,109.82,580.3,十堰市,秦古,竹山县,944.9,21.4,76.0,42.03299999999992,19.361600034601214
Q2624,2025-06-03 04:00:00,32.3533,109.9286,513.9,十堰市,擂鼓,竹山县,952.2,22.0,74.0,40.21449999999993,19.55693099188291
Q2626,2025-06-03 04:00:00,32.2786,110.0842,508.8,十堰市,溢水,竹山县,952.6,22.2,72.0,36.99399999999996,19.26190594366672
Q2628,2025-06-03 04:00:00,32.1117,110.2306,361,十堰市,深河,竹山县,969.2,24.1,66.0,40.035500000000035,19.808182504671816
Q2655,2025-06-03 04:00:00,32.23,110.1844,273.8,十堰市,潘口,竹山县,978.7,23.9,66.0,38.28249999999999,19.571397687833294
Q2676,2025-06-03 04:00:00,32.2256,110.2261,307,十堰市,北大街,竹山县,975.2,24.0,65.0,36.4315,19.39115298131795
Q2701,2025-06-03 04:00:00,32.3569,109.6453,563.6,十堰市,龙坝,竹溪县,946.5,23.5,67.0,41.957999999999956,19.394726599849598
Q2721,2025-06-03 04:00:00,32.0428,109.6986,849.5,十堰市,泉溪,竹溪县,915.3,23.7,56.0,44.16200000000004,16.4072323284604
Q2745,2025-06-03 04:00:00,32.1683,109.5989,655.4,十堰市,界牌沟,竹溪县,937.3,23.2,57.0,38.35299999999995,16.203592817026284
Q2748,2025-06-03 04:00:00,31.9983,109.7814,498.9,十堰市,天宝,竹溪县,951.7,25.3,57.0,35.480499999999985,18.380150303017185
Q2757,2025-06-03 04:00:00,31.8119,109.7686,1063.6,十堰市,高子河,竹溪县,893.6,22.0,58.0,47.04599999999998,15.328405372016336
Q2903,2025-06-03 04:00:00,31.5953,110.8861,716.7,省直辖县级行政区划,新华,神农架林区,929.2,24.2,54.0,25.535499999999985,16.30432861731391
Q2906,2025-06-03 04:00:00,31.5622,110.5533,1398.1,省直辖县级行政区划,徐家庄,神农架林区,858.9,18.7,74.0,23.801500000000036,15.948525030605769
Q2910,2025-06-03 04:00:00,31.4828,110.3786,1245,省直辖县级行政区划,木鱼,神农架林区,872.1,21.6,51.0,23.744000000000014,13.152842605429386
Q2912,2025-06-03 04:00:00,31.6119,110.3383,2597.4,省直辖县级行政区划,神农架机场,神农架林区,745.5,11.9,50.0,11.960500000000017,6.9616422845413775
Q2916,2025-06-03 04:00:00,31.4089,110.1781,1026.6,省直辖县级行政区划,板桥,神农架林区,896.6,21.2,57.0,25.813999999999982,14.344079078839382
Q2923,2025-06-03 04:00:00,31.5508,110.3911,2285,省直辖县级行政区划,牛场坪,神农架林区,773.6,14.3,44.0,11.455000000000014,7.166497359313068
Q2925,2025-06-03 04:00:00,31.4083,110.5553,699.8,省直辖县级行政区划,九冲,神农架林区,931.3,21.2,55.0,24.891000000000012,13.84077805852923
Q2933,2025-06-03 04:00:00,31.4958,109.9953,1752,省直辖县级行政区划,大九湖,神农架林区,824.5,19.9,40.0,19.24049999999998,9.290018469662796
Q2940,2025-06-03 04:00:00,31.3992,110.475,819.5,省直辖县级行政区划,红花,神农架林区,918.2,22.8,55.0,29.850499999999993,15.260720516200863
Q2950,2025-06-03 04:00:00,31.7328,110.8061,498,省直辖县级行政区划,阳日,神农架林区,953.6,23.1,60.0,30.959500000000013,16.953510808541548
Q2957,2025-06-03 04:00:00,31.5144,110.3881,1569,省直辖县级行政区划,青天袍,神农架林区,843.7,21.1,48.0,19.154999999999987,12.005247353891194
Q3005,2025-06-03 04:00:00,31.9889,112.0322,107.3,襄阳市,隆中,襄城区,996.0,26.1,65.0,40.07699999999998,21.979394674592665
Q3008,2025-06-03 04:00:00,32.0283,112.1664,68.6,襄阳市,襄阳老站,襄城区,1000.6,27.2,56.0,35.30399999999997,20.20482291798206
Q3012,2025-06-03 04:00:00,32.1517,112.2992,70.1,襄阳市,刘集小学,襄州区,1000.1,26.6,66.0,41.807500000000026,22.986712230279313
Q3100,2025-06-03 04:00:00,32.0631,112.2203,69.7,襄阳市,东津,襄州区,1000.1,27.0,62.0,40.45699999999999,22.108277306758165
Q3101,2025-06-03 04:00:00,32.2967,112.3483,79,襄阳市,朱集,襄州区,999.6,25.5,71.0,35.216999999999985,23.16866959812979
Q3103,2025-06-03 04:00:00,31.9919,112.3706,93,襄阳市,峪山,襄州区,998.4,27.2,62.0,43.12800000000005,22.369625373480137
Q3104,2025-06-03 04:00:00,32.2089,111.9589,86,襄阳市,龙王,襄州区,997.2,26.2,60.0,37.75149999999992,20.409085150712055
Q3106,2025-06-03 04:00:00,31.9858,112.4556,84.6,襄阳市,黄龙,襄州区,996.0,26.8,64.0,39.788999999999945,22.554428515015363
Q3107,2025-06-03 04:00:00,32.3633,111.9611,110.7,襄阳市,石桥,襄州区,995.7,25.4,67.0,49.932499999999976,21.733728571228536
Q3108,2025-06-03 04:00:00,32.2664,112.4508,114.6,襄阳市,程河,襄州区,996.1,26.0,63.0,38.56150000000005,21.1773247647653
Q3109,2025-06-03 04:00:00,32.1878,112.1847,108.3,襄阳市,伙牌,襄州区,995.7,26.1,61.0,40.75250000000001,20.626816540771575
Q3112,2025-06-03 04:00:00,32.0886,112.1903,65.4,襄阳市,张湾,襄州区,1000.5,27.0,56.0,39.20999999999998,19.96876659965254
Q3113,2025-06-03 04:00:00,32.3253,112.1328,142.2,襄阳市,黄集,襄州区,992.1,25.8,62.0,37.16499999999991,20.595524653244134
Q3202,2025-06-03 04:00:00,31.9703,112.75,167.5,襄阳市,枣阳吴店,枣阳市,988.8,25.6,72.0,35.09599999999998,23.63505598156222
Q3203,2025-06-03 04:00:00,32.2017,112.5589,131,襄阳市,七方,枣阳市,992.9,25.5,67.0,35.50850000000008,21.863392437671774
Q3206,2025-06-03 04:00:00,32.3414,112.9942,241.1,襄阳市,枣阳新市,枣阳市,980.5,24.3,71.0,49.15749999999993,21.566219835014017
Q3207,2025-06-03 04:00:00,32.12,112.8781,156,襄阳市,刘升榆树,枣阳市,989.6,25.4,65.0,36.376999999999995,21.084960554176938
Q3212,2025-06-03 04:00:00,32.0417,112.5906,72,襄阳市,琚湾,枣阳市,997.9,26.4,68.0,44.77600000000001,23.405359689782685
Q3217,2025-06-03 04:00:00,32.3253,112.8719,177.3,襄阳市,姚棚水库,枣阳市,987.7,24.7,64.0,28.42599999999999,19.911422681722016
Q3218,2025-06-03 04:00:00,31.8503,112.8028,140,襄阳市,唐店,枣阳市,991.6,26.7,69.0,34.03749999999999,24.173660939997472
Q3222,2025-06-03 04:00:00,31.9303,112.5761,156,襄阳市,耿集,枣阳市,989.9,26.2,69.0,32.85950000000003,23.470447923318865
Q3237,2025-06-03 04:00:00,31.9519,112.9217,115,襄阳市,王城,枣阳市,994.5,25.9,67.0,36.157999999999994,22.388841262250086
Q3240,2025-06-03 04:00:00,32.1411,112.7553,125.5,襄阳市,北城,枣阳市,993.7,25.9,63.0,38.87249999999996,21.05219402271277
Q3305,2025-06-03 04:00:00,32.4536,111.7536,153.1,襄阳市,老河口半店,老河口市,990.3,26.3,61.0,30.928000000000008,20.872291603651252
Q3309,2025-06-03 04:00:00,32.3367,111.7022,90,襄阳市,方营,老河口市,998.4,26.5,61.0,41.29199999999997,21.120317837042546
Q3311,2025-06-03 04:00:00,32.3472,111.6742,80.3,襄阳市,老河口黄营,老河口市,998.7,26.1,64.0,34.99250000000007,21.64125014113739
Q3314,2025-06-03 04:00:00,32.4319,111.8458,148.3,襄阳市,农垦示范园,老河口市,991.5,26.2,62.0,34.996500000000054,21.089387989069124
Q3315,2025-06-03 04:00:00,32.5408,111.6622,163.3,襄阳市,老河口黑虎山水库,老河口市,989.4,25.8,62.0,28.3255,20.595524653244134
Q3317,2025-06-03 04:00:00,32.5203,111.7786,145.2,襄阳市,古城水库,老河口市,991.6,26.0,62.0,35.05350000000004,20.841176752626165
Q3318,2025-06-03 04:00:00,32.4217,111.6878,84.4,襄阳市,老河口西关,老河口市,997.6,25.4,69.0,41.37999999999998,22.38249658828013
Q3321,2025-06-03 04:00:00,32.38,111.67,90,襄阳市,老河口老站,老河口市,998.1,26.3,61.0,38.711000000000006,20.872291603651252
Q3326,2025-06-03 04:00:00,32.2931,111.7247,89,襄阳市,白鹤岗,老河口市,998.3,26.2,63.0,49.18649999999993,21.42953940824766
Q3401,2025-06-03 04:00:00,32.2931,111.3314,180,襄阳市,五山,谷城县,988.4,26.0,68.0,36.09999999999993,22.858064825460957
Q3404,2025-06-03 04:00:00,32.1678,111.4981,146.4,襄阳市,谷城南河,谷城县,991.4,27.4,54.0,29.821500000000015,19.713196586492653
Q3405,2025-06-03 04:00:00,31.9917,111.4303,518,襄阳市,赵湾,谷城县,951.0,24.4,66.0,36.86449999999998,20.168062927174358
Q3409,2025-06-03 04:00:00,32.1725,111.4061,701.7,襄阳市,薤山,谷城县,930.6,24.8,60.0,30.087500000000055,18.77890994772971
Q3413,2025-06-03 04:00:00,32.0483,111.8314,158,襄阳市,茨河,谷城县,989.8,25.1,70.0,39.88900000000009,22.304680216033567
Q3420,2025-06-03 04:00:00,32.1342,111.3078,247.7,襄阳市,紫金,谷城县,977.8,25.4,58.0,35.35600000000001,18.81427249449634
Q3501,2025-06-03 04:00:00,31.9906,111.1233,275,襄阳市,寺坪,保康县,978.2,24.3,63.0,39.762500000000045,19.13622323388568
Q3516,2025-06-03 04:00:00,31.5581,111.3953,660,襄阳市,两峪,保康县,934.2,26.5,46.0,32.23250000000005,15.926797057441918
Q3517,2025-06-03 04:00:00,31.6419,111.1967,796,襄阳市,歇马毛家岭,保康县,919.7,25.7,50.0,30.18900000000005,16.51100909847447
Q3520,2025-06-03 04:00:00,31.4017,111.2936,997,襄阳市,保康天宝寨,保康县,899.8,24.9,40.0,19.868,12.594298908504776
Q3525,2025-06-03 04:00:00,31.4942,111.3539,292,襄阳市,马良产业园,保康县,975.8,26.1,64.0,42.5025,21.64125014113739
Q3545,2025-06-03 04:00:00,31.8447,110.8022,1576,襄阳市,尧治河,保康县,841.7,20.0,49.0,21.353000000000005,11.451040904691572
Q3555,2025-06-03 04:00:00,31.68,111.0128,1064,襄阳市,团结,保康县,890.4,22.9,48.0,23.751499999999986,13.399468700631347
Q3606,2025-06-03 04:00:00,31.6647,111.9922,120,襄阳市,武镇,南漳县,994.8,27.7,74.0,45.967500000000015,27.493202219274185
Q3608,2025-06-03 04:00:00,31.3292,111.8253,183,襄阳市,东巩,南漳县,983.3,27.5,59.0,32.064500000000045,21.665096093192737
Q3617,2025-06-03 04:00:00,31.6231,111.6778,820,襄阳市,薛坪,南漳县,918.6,24.6,38.0,24.283000000000005,11.751875068381093
Q3618,2025-06-03 04:00:00,31.7775,111.5617,254,襄阳市,长坪,南漳县,981.3,27.1,66.0,45.58250000000002,23.673365113577976
Q3623,2025-06-03 04:00:00,31.5489,111.8342,343.2,襄阳市,南漳大坪,南漳县,969.3,28.0,48.0,24.805000000000064,18.148815897454284
Q3632,2025-06-03 04:00:00,31.9058,111.6194,271.6,襄阳市,赵店,南漳县,977.1,28.6,46.0,25.693000000000048,18.01114933244814
Q3641,2025-06-03 04:00:00,31.4556,111.6847,342,襄阳市,漫云,南漳县,968.7,28.7,38.0,23.18150000000001,14.965461365959726
Q3748,2025-06-03 04:00:00,31.6356,112.5942,141,襄阳市,高楼,宜城市,992.0,28.0,55.0,35.60499999999999,20.795518215833035
Q3750,2025-06-03 04:00:00,31.5681,112.2661,55,襄阳市,孔湾,宜城市,1002.0,27.7,63.0,46.06199999999998,23.406374862355054
Q3751,2025-06-03 04:00:00,31.7467,112.4303,89,襄阳市,二库,宜城市,997.5,27.2,62.0,33.72549999999997,22.369625373480137
Q3752,2025-06-03 04:00:00,31.4622,111.9878,177.5,襄阳市,小南河,宜城市,988.0,28.0,55.0,26.978000000000016,20.795518215833035
Q3760,2025-06-03 04:00:00,31.4853,112.0169,159,襄阳市,刘猴,宜城市,990.7,27.0,59.0,30.82449999999999,21.03852195320535
Q3770,2025-06-03 04:00:00,31.7736,112.0389,94,襄阳市,谭湾,宜城市,996.9,28.2,64.0,41.29650000000002,24.482362570540605
Q3782,2025-06-03 04:00:00,31.8692,112.2653,86,襄阳市,联合,宜城市,998.0,28.0,64.0,37.78200000000002,24.19842119660571
Q3792,2025-06-03 04:00:00,31.5683,112.455,62,襄阳市,流水,宜城市,1001.6,28.0,65.0,42.15600000000002,24.576521527802676
Q3802,2025-06-03 04:00:00,32.0808,113.5014,145.6,随州市,殷店,随县,990.7,25.8,69.0,42.007999999999974,22.920825823771697
Q3803,2025-06-03 04:00:00,31.6611,112.9072,154.4,随州市,洪山,随县,990.4,27.5,58.0,31.20049999999998,21.297891074664044
Q3804,2025-06-03 04:00:00,31.5336,113.2278,120,随州市,柳林,随县,993.8,28.4,61.0,38.421499999999966,23.608153849813185
Q3805,2025-06-03 04:00:00,32.0003,113.105,127.7,随州市,唐镇,随县,993.5,25.5,70.0,42.32099999999997,22.84235030801528
Q3807,2025-06-03 04:00:00,31.8839,113.3125,92,随州市,厉山,随县,997.8,25.9,71.0,44.09449999999996,23.725488501787407
Q3809,2025-06-03 04:00:00,32.3436,113.6333,153.8,随州市,淮河,随县,990.0,25.0,71.0,46.201000000000015,22.488748996929726
Q3812,2025-06-03 04:00:00,31.8386,113.5169,115,随州市,万店,曾都区,994.0,26.5,64.0,40.234999999999985,22.159021992962668
Q3815,2025-06-03 04:00:00,31.8106,113.0514,115.3,随州市,澴潭,随县,994.6,26.1,65.0,31.20825000000004,21.979394674592665
Q3820,2025-06-03 04:00:00,32.1531,113.0822,215.4,随州市,吴山,随县,983.5,24.0,74.0,44.86850000000001,22.07608185565428
Q3823,2025-06-03 04:00:00,31.7278,113.2831,64.1,随州市,南郊,曾都区,1000.3,26.5,69.0,38.43424999999999,23.890195586162875
Q3829,2025-06-03 04:00:00,31.61,113.4317,85,随州市,大堰坡,曾都区,998.8,26.5,64.0,41.23599999999998,22.159021992962668
Q3830,2025-06-03 04:00:00,31.53,112.9711,228.2,随州市,长岗,随县,982.1,26.8,63.0,38.75249999999998,22.202015569468248
Q3831,2025-06-03 04:00:00,31.7164,113.3869,96.2,随州市,雷达站,曾都区,996.8,26.6,64.0,37.74850000000002,22.29014519299812
Q3832,2025-06-03 04:00:00,31.4911,113.5678,65.8,随州市,府河,曾都区,999.9,28.3,63.0,41.41449999999996,24.240649473382902
Q3836,2025-06-03 04:00:00,32.3561,113.1931,215.4,随州市,新城,随县,983.5,24.4,70.0,44.30399999999999,21.390369771245528
Q3844,2025-06-03 04:00:00,31.5131,113.0106,274.3,随州市,东庄畈,随县,976.9,26.6,66.0,37.301500000000004,22.986712230279313
Q3845,2025-06-03 04:00:00,31.6922,113.3744,78.4,随州市,城南新区,曾都区,998.7,26.2,67.0,44.23199999999999,22.790145084961797
Q3847,2025-06-03 04:00:00,31.4867,112.9781,1042,随州市,金顶,随县,894.0,21.2,60.0,23.307999999999975,15.099030609304613
Q3852,2025-06-03 04:00:00,31.9353,113.3081,122.2,随州市,王家河,随县,993.9,25.3,74.0,46.47299999999993,23.861949516197747
Q3853,2025-06-03 04:00:00,31.4347,113.2972,175.7,随州市,银杏谷,曾都区,987.2,27.6,60.0,39.214999999999975,22.161711429671374
Q3854,2025-06-03 04:00:00,31.4703,112.9844,467.3,随州市,自在谷,随县,955.5,26.5,47.0,24.838999999999984,16.27303177608196
Q3855,2025-06-03 04:00:00,31.4778,112.9647,981.1,随州市,状元台,随县,900.8,21.0,71.0,22.624999999999996,17.648925371116096
Q3856,2025-06-03 04:00:00,31.7839,113.3958,105.4,随州市,北郊,曾都区,995.7,26.2,69.0,37.89325000000004,23.470447923318865
Q3857,2025-06-03 04:00:00,31.7206,113.3617,64.5,随州市,西城,曾都区,1000.3,26.3,69.0,38.96899999999997,23.60964132216289
Q3901,2025-06-03 04:00:00,31.7872,113.6322,109.6,随州市,余店,广水市,994.9,26.2,68.0,40.71400000000001,23.130296504140336
Q3902,2025-06-03 04:00:00,31.4711,113.5781,47.3,随州市,长岭,广水市,1001.9,27.8,63.0,41.088500000000025,23.543652771221705
Q3909,2025-06-03 04:00:00,31.7264,113.8322,120,随州市,蔡河,广水市,993.8,26.9,65.0,32.276300000000006,23.042088239896223
Q3911,2025-06-03 04:00:00,31.4608,113.9217,46.4,随州市,太平,广水市,1000.1,28.1,61.0,33.2015,23.199091202563736
Q3913,2025-06-03 04:00:00,31.7358,114.0353,100,随州市,武胜关,广水市,994.7,28.1,58.0,37.10449999999999,22.058152290962237
Q3918,2025-06-03 04:00:00,31.62,113.82,93.3,随州市,应山,广水市,996.5,27.3,57.0,35.1445,20.686687499823176
Q3924,2025-06-03 04:00:00,32.0019,113.7164,203.6,随州市,尹家湾,广水市,984.1,27.3,64.0,46.83750000000005,23.227157894538305
Q4000,2025-06-03 04:00:00,30.7433,111.2694,67.8,宜昌市,葛洲坝,西陵区,1000.4,25.3,59.0,41.49450000000006,19.025067857509015
Q4001,2025-06-03 04:00:00,30.6589,111.3303,56.3,宜昌市,王家河公园,伍家岗区,1002.2,27.1,59.0,38.62649999999997,21.16255366213789
Q4002,2025-06-03 04:00:00,30.7186,111.3436,160,宜昌市,窑湾,西陵区,988.7,26.4,65.0,43.70799999999994,22.372770291704036
Q4003,2025-06-03 04:00:00,30.5061,111.4444,42.6,宜昌市,猇亭,猇亭区,1002.6,27.3,58.0,37.56749999999999,21.049611841925337
Q4005,2025-06-03 04:00:00,30.6931,111.0022,615,宜昌市,土城,点军区,939.7,24.0,75.0,40.24249999999998,22.374407286136094
Q4015,2025-06-03 04:00:00,30.7067,111.2972,116.6,宜昌市,白龙岗公园,西陵区,993.4,26.8,61.0,43.842499999999966,21.497189678374017
Q4019,2025-06-03 04:00:00,30.6183,111.3422,87,宜昌市,艾家小学,点军区,998.2,25.9,65.0,44.87749999999995,21.72051764248143
Q4022,2025-06-03 04:00:00,30.5697,111.3964,78.5,宜昌市,猇亭古战场,猇亭区,999.2,27.2,58.0,38.015999999999984,20.926423736481414
Q4023,2025-06-03 04:00:00,30.6519,111.205,100,宜昌市,长岭,点军区,996.7,26.9,57.0,39.567999999999955,20.20613891806284
Q4025,2025-06-03 04:00:00,30.7389,111.2333,98.8,宜昌市,鸣翠谷,点军区,996.8,26.0,69.0,33.94400000000002,23.194212837600084
Q4026,2025-06-03 04:00:00,30.7417,111.3144,86.3,宜昌市,沙河公园,西陵区,998.4,26.7,63.0,44.09599999999994,22.071603466954215
Q4032,2025-06-03 04:00:00,30.7086,111.2361,78.9,宜昌市,宜昌一中,点军区,999.1,27.4,61.0,44.22549999999992,22.268610958815774
Q4033,2025-06-03 04:00:00,30.6853,111.3367,84.3,宜昌市,水井湾,伍家岗区,998.6,27.0,58.0,39.658999999999985,20.68193683535441
Q4034,2025-06-03 04:00:00,30.6161,111.4,62.5,宜昌市,龙盘湖,伍家岗区,1001.0,27.4,60.0,44.51399999999989,21.90355176276961
Q4035,2025-06-03 04:00:00,30.6478,111.3658,88.6,宜昌市,碧桂园公园,伍家岗区,998.1,27.0,61.0,44.15749999999993,21.751692188907228
Q4036,2025-06-03 04:00:00,30.6967,111.3817,113,宜昌市,夷陵中学,夷陵区,995.4,26.8,63.0,34.72499999999998,22.202015569468248
Q4037,2025-06-03 04:00:00,30.7214,111.1625,389.1,宜昌市,李家咀,点军区,964.4,25.4,66.0,43.58450000000002,21.409344562702735
Q4105,2025-06-03 04:00:00,30.8789,110.9697,215,宜昌市,太平溪,夷陵区,984.3,25.1,69.0,50.084833333333364,21.98604192723309
Q4109,2025-06-03 04:00:00,31.2667,111.15,1162,宜昌市,樟村坪林场,夷陵区,883.9,20.0,70.0,30.93100000000001,16.3586298638451
Q4111,2025-06-03 04:00:00,30.6117,111.5211,109.2,宜昌市,鸦鹊岭,夷陵区,995.7,27.3,55.0,29.727999999999987,19.960838815618857
Q4112,2025-06-03 04:00:00,30.9667,110.9878,990,宜昌市,王家垭,夷陵区,900.7,21.9,63.0,29.077499999999997,16.548462490616448
Q4113,2025-06-03 04:00:00,30.9228,110.9672,855,宜昌市,古村坪,夷陵区,914.3,20.9,69.0,30.314999999999976,17.046571004782727
Q4115,2025-06-03 04:00:00,30.96,111.5114,1251.8,宜昌市,百里荒,夷陵区,872.6,19.8,50.0,19.821000000000016,11.540702491907512
Q4120,2025-06-03 04:00:00,31.1456,111.0747,1068.2,宜昌市,秀水,夷陵区,892.0,21.3,62.0,26.112500000000004,15.698401397618124
Q4127,2025-06-03 04:00:00,31.0511,111.4406,402,宜昌市,十字沟,夷陵区,963.1,25.7,61.0,34.9285,20.14343110013885
Q4131,2025-06-03 04:00:00,31.0117,111.3114,945,宜昌市,二户坪,夷陵区,906.3,22.8,46.0,22.12350000000004,12.763511704458903
Q4140,2025-06-03 04:00:00,30.9325,111.3158,169.1,宜昌市,三峡大瀑布,夷陵区,986.7,25.1,73.0,43.85249999999999,23.26059508243501
Q4146,2025-06-03 04:00:00,30.9192,111.0428,403,宜昌市,沙坪,夷陵区,963.4,25.4,68.0,40.701000000000015,22.058112579754336
Q4148,2025-06-03 04:00:00,31.0078,110.9369,705.9,宜昌市,黄金河,夷陵区,930.3,23.4,66.0,31.991999999999972,18.990247716426197
Q4150,2025-06-03 04:00:00,31.4353,111.2158,1098.9,宜昌市,古村,夷陵区,889.1,24.2,40.0,23.40700000000004,12.077280457269564
Q4153,2025-06-03 04:00:00,31.2117,111.2406,1073.1,宜昌市,马卧泥,夷陵区,891.8,23.5,45.0,25.4205,13.026308910346744
Q4154,2025-06-03 04:00:00,30.7428,111.5075,108.8,宜昌市,青龙,夷陵区,995.7,26.7,54.0,26.743500000000026,18.91851725738933
Q4201,2025-06-03 04:00:00,30.3053,110.4817,705.3,宜昌市,傅家堰,五峰土家族自治县,929.4,21.2,76.0,33.19350000000002,19.125438771785845
Q4202,2025-06-03 04:00:00,30.1778,110.8722,1004.1,宜昌市,长乐坪,五峰土家族自治县,898.9,24.0,44.0,27.37550000000002,13.126318941199843
Q4203,2025-06-03 04:00:00,30.0528,110.4344,1139.2,宜昌市,湾潭,五峰土家族自治县,882.5,22.8,43.0,20.869499999999988,11.931108767211581
Q4204,2025-06-03 04:00:00,30.1022,111.2453,591.9,宜昌市,仁和坪,五峰土家族自治县,942.1,25.9,40.0,25.881000000000036,13.366472395373188
Q4205,2025-06-03 04:00:00,30.2381,110.3611,1830.5,宜昌市,牛庄,五峰土家族自治县,816.2,17.0,45.0,16.0275,8.71351226318164
Q4206,2025-06-03 04:00:00,30.2056,110.445,506.8,宜昌市,采花,五峰土家族自治县,952.3,24.0,61.0,35.450999999999986,18.197851259390692
Q4207,2025-06-03 04:00:00,30.1831,111.075,255.1,宜昌市,渔关,五峰土家族自治县,978.7,28.0,56.0,37.352500000000006,21.17361854703
Q4208,2025-06-03 04:00:00,30.0797,110.9669,853.1,宜昌市,清水湾,五峰土家族自治县,913.6,25.0,41.0,27.643000000000015,12.986460688367867
Q4209,2025-06-03 04:00:00,30.0789,110.6214,952.7,宜昌市,后河,五峰土家族自治县,903.9,19.7,82.0,32.91149999999999,18.80960611318924
Q4210,2025-06-03 04:00:00,30.2494,110.6283,564.8,宜昌市,水浕司,五峰土家族自治县,945.6,22.9,69.0,34.42599999999996,19.261736257157562
Q4213,2025-06-03 04:00:00,30.14,110.5681,2213.7,宜昌市,北风垭,五峰土家族自治县,780.0,14.6,55.0,15.519500000000008,9.133599475656936
Q4214,2025-06-03 04:00:00,30.2553,111.02,737.6,宜昌市,涨水坪,五峰土家族自治县,926.9,25.5,41.0,26.06600000000004,13.379090894694665
Q4215,2025-06-03 04:00:00,30.2011,110.9022,1031,宜昌市,三教庙,五峰土家族自治县,895.1,24.0,45.0,27.081000000000007,13.424644371681657
Q4218,2025-06-03 04:00:00,30.3589,110.4706,1157.3,宜昌市,大龙坪,五峰土家族自治县,883.2,21.4,58.0,20.976999999999972,14.77595792114303
Q4238,2025-06-03 04:00:00,30.1997,110.4069,1174.1,宜昌市,万里,五峰土家族自治县,881.4,20.2,77.0,32.77125,18.21872939092397
Q4249,2025-06-03 04:00:00,30.2219,110.8947,1259,宜昌市,柴埠溪,五峰土家族自治县,873.3,21.0,46.0,19.54149999999998,11.43451502917381
Q4252,2025-06-03 04:00:00,30.2056,110.665,619.4,宜昌市,万马池,五峰土家族自治县,939.7,24.0,63.0,36.02499999999995,18.794502120354323
Q4309,2025-06-03 04:00:00,30.5808,111.6733,125.7,宜昌市,胡家畈,枝江市,993.1,26.8,62.0,42.48699999999997,21.849602623921133
Q4321,2025-06-03 04:00:00,30.3967,111.5886,68,宜昌市,雅畈,枝江市,1000.3,27.8,61.0,46.51450000000007,22.796235222928953
Q4323,2025-06-03 04:00:00,30.43,111.7592,44.5,宜昌市,马家店,枝江市,1003.1,27.7,53.0,33.376500000000036,19.691077265155837
Q4325,2025-06-03 04:00:00,30.4386,111.4522,55.9,宜昌市,万福垴,枝江市,1001.7,26.7,62.0,38.884500000000045,21.72126055478034
Q4326,2025-06-03 04:00:00,30.3369,111.5311,57,宜昌市,田家河,枝江市,1001.6,28.5,55.0,32.041000000000025,21.410238816808135
Q4327,2025-06-03 04:00:00,30.4011,111.6131,87.7,宜昌市,姚家港工业园,枝江市,998.1,27.4,61.0,38.6765000000001,22.268610958815774
Q4401,2025-06-03 04:00:00,30.63,110.5428,506,宜昌市,社坪,长阳土家族自治县,952.0,22.7,63.0,31.56999999999999,17.374684528306915
Q4403,2025-06-03 04:00:00,30.4286,110.4992,380,宜昌市,渔峡口,长阳土家族自治县,967.4,23.3,67.0,35.59499999999994,19.16184692879878
Q4404,2025-06-03 04:00:00,30.6069,111.0583,167,宜昌市,高家堰,长阳土家族自治县,989.2,26.1,68.0,43.17250000000003,22.99382827495848
Q4406,2025-06-03 04:00:00,30.3353,111.0731,631,宜昌市,大堰,长阳土家族自治县,938.0,24.9,60.0,36.24349999999997,18.89144836275716
Q4411,2025-06-03 04:00:00,30.3692,110.9569,473,宜昌市,横山,长阳土家族自治县,955.2,24.5,72.0,41.60649999999997,22.13376924676115
Q4415,2025-06-03 04:00:00,30.4944,110.7997,1546.9,宜昌市,火烧坪,长阳土家族自治县,844.2,18.5,45.0,16.688999999999997,9.577697276967383
Q4425,2025-06-03 04:00:00,30.6219,110.4972,490,宜昌市,榔坪,长阳土家族自治县,955.9,23.1,62.0,32.02749999999999,17.518627835492932
Q4437,2025-06-03 04:00:00,30.6211,110.8139,1055,宜昌市,中岭,长阳土家族自治县,893.9,21.3,72.0,27.146999999999995,18.230401623040404
Q4441,2025-06-03 04:00:00,30.5814,111.0614,680,宜昌市,龙池山,长阳土家族自治县,932.5,22.7,63.0,31.56999999999999,17.374684528306915
Q4443,2025-06-03 04:00:00,30.4703,111.1336,190.3,宜昌市,清江画廊,长阳土家族自治县,986.8,25.0,64.0,41.83950000000005,20.271548391598625
Q4446,2025-06-03 04:00:00,30.3936,111.1128,220,宜昌市,三洞水,长阳土家族自治县,984.9,26.6,58.0,33.12100000000002,20.200444081154547
Q4447,2025-06-03 04:00:00,30.4117,110.97,290,宜昌市,都镇湾,长阳土家族自治县,977.1,24.7,62.0,33.14749999999997,19.2891907229182
Q4453,2025-06-03 04:00:00,30.3731,110.7244,283.3,宜昌市,崩尖子,长阳土家族自治县,976.8,24.4,68.0,25.871500000000005,20.77921634920995
Q4510,2025-06-03 04:00:00,30.1967,111.4717,199.8,宜昌市,九道河,宜都市,985.5,27.8,48.0,25.220500000000012,17.93802115902606
Q4519,2025-06-03 04:00:00,30.3839,111.4547,74.1,宜昌市,陆城,宜都市,999.8,27.2,55.0,33.08800000000005,19.84402250873238
Q4604,2025-06-03 04:00:00,30.5725,111.9686,74,宜昌市,草埠湖,当阳市,1001.6,27.0,65.0,38.68500000000009,23.178032660310983
Q4606,2025-06-03 04:00:00,30.7075,111.675,158.6,宜昌市,王店,当阳市,989.6,26.1,60.0,41.016500000000015,20.288672007316304
Q4610,2025-06-03 04:00:00,31.0844,111.9219,102.3,宜昌市,红旗岗,当阳市,994.1,25.3,70.0,42.56150000000002,22.572114407214084
Q4611,2025-06-03 04:00:00,30.9275,111.9269,58,宜昌市,淯溪光明,当阳市,1001.8,26.4,69.0,44.94649999999996,23.749556155808893
Q4612,2025-06-03 04:00:00,30.9167,111.685,96,宜昌市,向家草坝,当阳市,997.2,27.1,59.0,39.171,21.16255366213789
Q4614,2025-06-03 04:00:00,30.8369,111.7611,70,宜昌市,长坂雄风,当阳市,1000.2,27.1,59.0,38.86349999999997,21.16255366213789
Q4701,2025-06-03 04:00:00,31.1906,111.4081,553.8,宜昌市,嫘祖,远安县,946.4,25.5,54.0,28.880000000000017,17.62124166618322
Q4708,2025-06-03 04:00:00,31.1481,111.6794,179.8,宜昌市,茅坪场,远安县,986.9,27.0,57.0,31.86399999999995,20.325351717503473
Q4709,2025-06-03 04:00:00,31.2208,111.5594,152.4,宜昌市,洋坪,远安县,991.2,27.2,59.0,36.408000000000044,21.287224145731095
Q4710,2025-06-03 04:00:00,31.1881,111.7553,391.9,宜昌市,晓坪水库,远安县,963.7,27.3,49.0,27.76499999999999,17.783292763005893
Q4718,2025-06-03 04:00:00,31.2361,111.5361,186,宜昌市,芭芒店,远安县,985.0,25.9,56.0,37.294000000000025,18.713061353522463
Q4729,2025-06-03 04:00:00,30.9167,111.5608,723.5,宜昌市,龙凤,远安县,925.3,24.0,54.0,26.30549999999997,16.10957324601799
Q4801,2025-06-03 04:00:00,31.2092,110.53,992.5,宜昌市,高桥,兴山县,899.7,20.8,73.0,28.958999999999993,17.92407705909661
Q4802,2025-06-03 04:00:00,31.2261,110.7697,286,宜昌市,昭君,兴山县,977.3,24.3,60.0,28.801000000000016,18.224974508462548
Q4804,2025-06-03 04:00:00,31.1192,110.7786,266,宜昌市,峡口,兴山县,980.7,23.6,65.0,32.056000000000004,18.92964272559962
Q4806,2025-06-03 04:00:00,31.5008,111.0083,1281,宜昌市,榛子,兴山县,870.1,22.7,37.0,20.77599999999997,10.204179802338981
Q4808,2025-06-03 04:00:00,31.1778,111.0017,644.1,宜昌市,南对河,兴山县,937.8,22.0,68.0,38.054,17.97123388443295
Q4818,2025-06-03 04:00:00,31.5183,110.8078,498.7,宜昌市,观音河,兴山县,955.9,24.0,57.0,31.35100000000002,17.004549537463433
Q4837,2025-06-03 04:00:00,31.4728,110.9975,1301.6,宜昌市,和平,兴山县,869.2,24.0,34.0,20.41900000000002,10.143064636381698
Q4901,2025-06-03 04:00:00,31.0306,110.6972,190.3,宜昌市,彭家坡,秭归县,987.0,24.0,71.0,47.90199999999997,21.18110556420884
Q4902,2025-06-03 04:00:00,30.9564,110.7569,351,宜昌市,郭家坝,秭归县,970.9,22.9,70.0,35.70999999999993,19.54089185508738
Q4903,2025-06-03 04:00:00,30.8722,110.5756,620.5,宜昌市,两河口,秭归县,940.2,22.0,76.0,28.504,20.085496694366235
Q4905,2025-06-03 04:00:00,30.7458,110.7553,421.8,宜昌市,杨林桥,秭归县,962.6,22.6,71.0,34.477999999999994,19.462417070765856
Q4909,2025-06-03 04:00:00,30.9614,110.6022,420,宜昌市,沙镇溪,秭归县,962.7,22.1,75.0,39.922,19.94252445205993
Q4911,2025-06-03 04:00:00,30.8442,110.7836,499,宜昌市,九畹溪,秭归县,953.9,22.7,72.0,39.611999999999995,19.856782318065047
Q4918,2025-06-03 04:00:00,30.8361,110.9464,547.7,宜昌市,金缸城,秭归县,947.3,22.6,75.0,38.94100000000003,20.55889127193576
Q4920,2025-06-03 04:00:00,30.9039,110.7792,918,宜昌市,烟墩堡,秭归县,908.2,18.6,100.0,45.40100000000003,21.41754737896486
Q4921,2025-06-03 04:00:00,30.7814,110.7939,271.1,宜昌市,芝兰,秭归县,978.8,24.5,66.0,28.880500000000012,20.289288476197722
Q4932,2025-06-03 04:00:00,30.9803,110.8039,1385,宜昌市,九岭头,秭归县,860.4,16.8,100.0,41.834999999999965,19.119179778108673
Q4941,2025-06-03 04:00:00,30.9881,110.4783,753,宜昌市,高潮,秭归县,927.3,20.2,85.0,32.249000000000045,20.111584392578404
Q4945,2025-06-03 04:00:00,30.7944,110.4961,1330,宜昌市,七甲,秭归县,866.1,19.3,76.0,32.77249999999998,17.004871376454133
Q4950,2025-06-03 04:00:00,30.8117,110.3497,985,宜昌市,雁落坪,秭归县,900.9,21.1,74.0,33.282000000000025,18.508089670582258
Q4957,2025-06-03 04:00:00,30.6814,110.7139,1085,宜昌市,三台寺,秭归县,891.9,20.1,71.0,32.55750000000001,16.695425497761253
Q4962,2025-06-03 04:00:00,30.9811,110.7606,209.2,宜昌市,吴家沟,秭归县,984.1,23.3,66.0,41.00349999999997,18.875849213443576
Q5102,2025-06-03 04:00:00,30.4808,109.5828,638.9,恩施土家族苗族自治州,白杨坪,恩施市,937.9,23.7,68.0,34.21349999999993,19.9230678274162
Q5106,2025-06-03 04:00:00,30.2978,109.6278,1054.7,恩施土家族苗族自治州,三岔,恩施市,894.0,21.3,70.0,33.327000000000005,17.724001577955946
Q5109,2025-06-03 04:00:00,30.1222,109.3956,599.8,恩施土家族苗族自治州,芭蕉,恩施市,942.2,22.5,72.0,40.63500000000003,19.616927511156046
Q5116,2025-06-03 04:00:00,30.0906,109.1692,881,恩施土家族苗族自治州,金龙坝,恩施市,912.9,22.8,72.0,34.57749999999998,19.977670493935673
Q5122,2025-06-03 04:00:00,30.3303,109.4231,1113,恩施土家族苗族自治州,望城坡,恩施市,888.0,19.2,82.0,37.711000000000006,18.233370090741204
Q5133,2025-06-03 04:00:00,30.3539,109.6558,1312.4,恩施土家族苗族自治州,小卫家山,恩施市,868.3,21.6,58.0,28.790500000000012,14.958134727743223
Q5135,2025-06-03 04:00:00,30.3583,109.8217,1567,恩施土家族苗族自治州,神堂,恩施市,842.6,19.5,51.0,21.392000000000003,11.554125720789632
Q5150,2025-06-03 04:00:00,30.4167,109.1628,1615,恩施土家族苗族自治州,大峡谷顶,恩施市,835.8,19.4,48.0,18.248000000000005,10.807011201357312
Q5153,2025-06-03 04:00:00,30.3733,109.3019,946,恩施土家族苗族自治州,马者滑坡点,恩施市,906.5,22.2,63.0,33.11050000000002,16.854167700708377
Q5206,2025-06-03 04:00:00,30.3353,109.1053,1025.3,恩施土家族苗族自治州,宜影古镇,利川市,898.1,22.1,64.0,30.157999999999944,17.01762086575781
Q5207,2025-06-03 04:00:00,30.2233,109.0339,1088.3,恩施土家族苗族自治州,元堡,利川市,888.7,21.1,57.0,22.46199999999997,14.256231232745794
Q5208,2025-06-03 04:00:00,30.0775,108.8592,1469.7,恩施土家族苗族自治州,黄泥塘,利川市,856.9,18.9,50.0,20.055000000000014,10.911657562415591
Q5209,2025-06-03 04:00:00,29.9294,108.7097,474,恩施土家族苗族自治州,龙桥,利川市,955.4,23.5,76.0,38.827499999999965,21.999988381918946
Q5210,2025-06-03 04:00:00,30.2089,108.7014,1479.9,恩施土家族苗族自治州,福宝山,利川市,850.0,18.4,66.0,21.71450000000001,13.959482094025363
Q5211,2025-06-03 04:00:00,30.4353,108.5392,676,恩施土家族苗族自治州,建南,利川市,933.8,22.7,74.0,38.048,20.408359604677962
Q5214,2025-06-03 04:00:00,30.43,108.7925,1129,恩施土家族苗族自治州,南坪,利川市,886.2,21.7,69.0,33.57450000000002,17.904262030420256
Q5222,2025-06-03 04:00:00,30.2664,108.805,1092.5,恩施土家族苗族自治州,凉雾,利川市,888.5,21.4,66.0,30.654500000000056,16.81402108268
Q5226,2025-06-03 04:00:00,30.3353,109.1494,986.8,恩施土家族苗族自治州,利川团堡,利川市,900.4,20.8,75.0,34.79150000000007,18.415147663455418
Q5241,2025-06-03 04:00:00,30.0786,108.6025,1074,恩施土家族苗族自治州,小河,利川市,892.5,21.4,70.0,30.42849999999995,17.833052663448484
Q5249,2025-06-03 04:00:00,30.4533,108.6578,1558.5,恩施土家族苗族自治州,铁峰,利川市,842.4,18.5,85.0,31.921500000000037,18.091205967605056
Q5250,2025-06-03 04:00:00,30.4922,108.7469,1406,恩施土家族苗族自治州,药材,利川市,856.0,18.6,90.0,35.64700000000002,19.27579264106837
Q5301,2025-06-03 04:00:00,29.9539,109.0781,788.1,恩施土家族苗族自治州,黄金洞,咸丰县,921.0,21.7,77.0,33.94300000000002,19.98011849771536
Q5307,2025-06-03 04:00:00,29.6125,108.9175,468,恩施土家族苗族自治州,朝阳寺,咸丰县,956.6,23.7,72.0,33.87499999999996,21.095012993734798
Q5309,2025-06-03 04:00:00,29.3997,108.9803,1268.8,恩施土家族苗族自治州,坪坝营,咸丰县,871.9,19.8,78.0,31.58850000000004,18.003495887375717
Q5310,2025-06-03 04:00:00,29.7658,108.8233,723.6,恩施土家族苗族自治州,茅坝,咸丰县,928.7,22.1,79.0,35.243499999999955,21.006125756169798
Q5326,2025-06-03 04:00:00,29.8839,108.9089,832,恩施土家族苗族自治州,李子溪,咸丰县,917.8,21.3,80.0,36.852499999999985,20.256001803378226
Q5327,2025-06-03 04:00:00,29.9194,108.9083,847,恩施土家族苗族自治州,中心场,咸丰县,916.0,21.0,82.0,34.67449999999996,20.3832659215707
Q5330,2025-06-03 04:00:00,29.8736,108.8114,869,恩施土家族苗族自治州,八家台,咸丰县,911.1,21.6,75.0,32.56900000000002,19.342415596219684
Q5338,2025-06-03 04:00:00,29.8175,109.0397,872.4,恩施土家族苗族自治州,柏杨坪,咸丰县,910.4,21.1,78.0,34.01300000000003,19.508526950073193
Q5409,2025-06-03 04:00:00,29.4669,109.4019,458,恩施土家族苗族自治州,翔凤,来凤县,957.6,23.8,75.0,40.33899999999996,22.106747221245886
Q5421,2025-06-03 04:00:00,29.3261,109.2883,602,恩施土家族苗族自治州,兴隆坳,来凤县,939.7,22.6,83.0,43.493000000000045,22.75183967427558
Q5422,2025-06-03 04:00:00,29.4094,109.3228,512,恩施土家族苗族自治州,沙坝水库,来凤县,951.1,23.2,80.0,48.111499999999914,22.741884655475488
Q5508,2025-06-03 04:00:00,29.6986,109.5653,589,恩施土家族苗族自治州,沙道,宣恩县,942.5,23.7,72.0,38.1075,21.095012993734798
Q5509,2025-06-03 04:00:00,30.0575,109.8269,1681,恩施土家族苗族自治州,椿木营,宣恩县,830.6,19.6,39.0,15.853999999999987,8.890619296688238
Q5515,2025-06-03 04:00:00,30.1294,109.6347,664.8,恩施土家族苗族自治州,中间河,宣恩县,934.7,23.1,71.0,40.46249999999999,20.061654456774168
Q5516,2025-06-03 04:00:00,30.0081,109.5883,490.9,恩施土家族苗族自治州,长潭北,宣恩县,953.4,24.2,69.0,37.310999999999964,20.833308788789992
Q5517,2025-06-03 04:00:00,29.96,109.3461,1134.7,恩施土家族苗族自治州,荆竹坪,宣恩县,885.4,20.1,81.0,34.25649999999997,19.04689387772763
Q5530,2025-06-03 04:00:00,29.9867,109.3608,743.4,恩施土家族苗族自治州,洗草坝,宣恩县,926.5,21.9,70.0,31.551500000000004,18.387180545129382
Q5532,2025-06-03 04:00:00,29.8356,109.6717,655.8,恩施土家族苗族自治州,金盆村,宣恩县,935.5,23.2,68.0,34.339499999999994,19.330601957154165
Q5539,2025-06-03 04:00:00,29.9019,109.26,1180.2,恩施土家族苗族自治州,竹园,宣恩县,881.2,19.4,77.0,35.89750000000003,17.33624713551069
Q5543,2025-06-03 04:00:00,29.6717,109.6153,582.9,恩施土家族苗族自治州,彭家寨,宣恩县,942.7,23.0,72.0,35.55099999999996,20.22138290192057
Q5601,2025-06-03 04:00:00,29.7383,110.3472,467,恩施土家族苗族自治州,江坪河,鹤峰县,955.1,23.1,80.0,41.790499999999994,22.6046810780554
Q5603,2025-06-03 04:00:00,30.0658,110.2706,1382,恩施土家族苗族自治州,蛤蟆颈,鹤峰县,858.2,20.2,57.0,26.68600000000004,13.48659188678787
Q5605,2025-06-03 04:00:00,30.0139,110.2697,1300,恩施土家族苗族自治州,清湖,鹤峰县,866.1,21.6,40.0,19.219500000000004,10.315954984650501
Q5610,2025-06-03 04:00:00,29.8969,110.3406,1142,恩施土家族苗族自治州,五里,鹤峰县,884.9,21.0,64.0,28.42400000000002,15.908890475372257
Q5620,2025-06-03 04:00:00,29.8628,109.8564,1175,恩施土家族苗族自治州,堰塘,鹤峰县,880.9,21.0,77.0,33.13050000000001,19.140383853182247
Q5621,2025-06-03 04:00:00,30.0564,110.0675,1011.3,恩施土家族苗族自治州,云蒙,鹤峰县,897.3,19.7,86.0,37.99299999999998,19.727147874808228
Q5626,2025-06-03 04:00:00,30.1083,110.1294,1215.7,恩施土家族苗族自治州,龚家垭,鹤峰县,876.9,18.5,85.0,31.715499999999974,18.091205967605056
Q5628,2025-06-03 04:00:00,29.7681,110.5636,509,恩施土家族苗族自治州,马家,鹤峰县,949.4,22.5,77.0,38.606999999999964,20.979214143875218
Q5629,2025-06-03 04:00:00,29.8014,110.6133,673.7,恩施土家族苗族自治州,细杉,鹤峰县,932.9,22.0,78.0,35.44,20.614062396849558
Q5630,2025-06-03 04:00:00,29.7203,110.2667,912.3,恩施土家族苗族自治州,堰垭,鹤峰县,907.9,21.9,74.0,38.10349999999997,19.437876576279635
Q5632,2025-06-03 04:00:00,29.9206,110.4636,1194,恩施土家族苗族自治州,上六峰,鹤峰县,878.7,18.8,80.0,35.15824999999999,17.349852487091855
Q5633,2025-06-03 04:00:00,29.9917,110.4858,1137,恩施土家族苗族自治州,中坪,鹤峰县,882.3,18.9,70.0,20.5825,15.276320587381827
Q5634,2025-06-03 04:00:00,29.9133,110.2561,606.5,恩施土家族苗族自治州,水泉,鹤峰县,940.2,23.3,78.0,41.868500000000004,22.307821797706044
Q5706,2025-06-03 04:00:00,31.1572,110.4386,741,恩施土家族苗族自治州,溪丘湾,巴东县,926.3,21.6,80.0,35.98950000000007,20.631909969301002
Q5707,2025-06-03 04:00:00,30.6875,110.1708,1411,恩施土家族苗族自治州,大支坪,巴东县,857.3,20.8,65.0,32.121,15.959794641661366
Q5708,2025-06-03 04:00:00,30.8936,110.3064,1166,恩施土家族苗族自治州,朱砂土,巴东县,880.7,18.6,81.0,32.615499999999955,17.348213376961535
Q5709,2025-06-03 04:00:00,30.6925,110.2486,1570.6,恩施土家族苗族自治州,玉米塘,巴东县,839.8,19.1,52.0,21.655999999999995,11.490732449848045
Q5710,2025-06-03 04:00:00,31.2233,110.2003,942.7,恩施土家族苗族自治州,茅山岭,巴东县,903.6,20.0,97.0,40.96599999999999,22.668387097042498
Q5712,2025-06-03 04:00:00,30.9331,110.2219,1150.3,恩施土家族苗族自治州,税家,巴东县,884.2,18.5,86.0,37.813500000000005,18.304043684870997
Q5720,2025-06-03 04:00:00,31.1225,110.4797,735,恩施土家族苗族自治州,高家坡,巴东县,927.5,21.4,82.0,35.813500000000076,20.89014740575394
Q5730,2025-06-03 04:00:00,30.7125,110.4111,1234,恩施土家族苗族自治州,麻沙坪,巴东县,874.1,20.0,65.0,24.870500000000046,15.190156302141881
Q5732,2025-06-03 04:00:00,30.6672,110.2142,1261.9,恩施土家族苗族自治州,庙坪,巴东县,871.3,19.6,72.0,30.21849999999999,16.413451009270595
Q5736,2025-06-03 04:00:00,30.4069,110.1308,950,恩施土家族苗族自治州,倒卜龙,巴东县,903.6,20.6,78.0,37.11499999999999,18.91709619654088
Q5751,2025-06-03 04:00:00,30.8117,110.2419,1663,恩施土家族苗族自治州,绿葱坡滑雪场,巴东县,831.6,18.3,50.0,19.814000000000007,10.509210049575348
Q5802,2025-06-03 04:00:00,30.8097,109.8839,1364.3,恩施土家族苗族自治州,茅田,建始县,861.5,21.3,56.0,23.136500000000005,14.179201262364758
Q5804,2025-06-03 04:00:00,30.5989,110.0597,1239.1,恩施土家族苗族自治州,高坪,建始县,871.7,20.3,66.0,28.19900000000002,15.712940799914255
Q5819,2025-06-03 04:00:00,30.8222,109.9811,1731.3,恩施土家族苗族自治州,封竹,建始县,825.6,17.7,57.0,21.739999999999988,11.536638600087766
Q5823,2025-06-03 04:00:00,30.6128,110.0208,777.3,恩施土家族苗族自治州,石垭子,建始县,922.1,22.2,66.0,28.609000000000005,17.656747115027823
Q5824,2025-06-03 04:00:00,30.5825,109.9603,917,恩施土家族苗族自治州,落水洞,建始县,906.3,24.0,72.0,49.447499999999984,21.479430994690652
Q5827,2025-06-03 04:00:00,30.5347,109.9972,1227.8,恩施土家族苗族自治州,冷竹,建始县,874.5,21.7,52.0,25.98,13.493067037418164
Q5829,2025-06-03 04:00:00,30.3572,110.0744,754.5,恩施土家族苗族自治州,粟谷坝,建始县,923.3,22.1,78.0,46.675500000000014,20.74022543014233
Q5831,2025-06-03 04:00:00,30.2125,109.9622,1551,恩施土家族苗族自治州,竹园坝,建始县,843.2,20.1,47.0,21.544500000000003,11.051901385841957
Q5836,2025-06-03 04:00:00,30.6983,110.0806,896.7,恩施土家族苗族自治州,野三河景区,建始县,910.8,20.7,73.0,31.392499999999995,17.813972572416272
Q6080,2025-06-03 04:00:00,30.975,112.2028,108.5,荆门市,掇刀,掇刀区,995.2,27.1,54.0,39.718000000000046,19.369116911109256
Q6082,2025-06-03 04:00:00,30.9114,112.2447,85,荆门市,麻城,掇刀区,998.4,26.7,58.0,32.70599999999995,20.31988890608483
Q6083,2025-06-03 04:00:00,30.7958,112.2522,82,荆门市,樊桥,掇刀区,999.0,26.6,65.0,33.13550000000002,22.638428711638717
Q6084,2025-06-03 04:00:00,30.9525,112.1789,106,荆门市,凤凰,掇刀区,996.0,26.9,56.0,34.45450000000001,19.85164525283367
Q6085,2025-06-03 04:00:00,30.8675,112.0964,97.5,荆门市,龙泉,掇刀区,997.1,26.9,68.0,25.259000000000025,24.105569235583744
Q6086,2025-06-03 04:00:00,31.0422,112.1217,190,荆门市,仙女,掇刀区,986.5,25.1,74.0,38.69950000000003,23.57923337123549
Q6111,2025-06-03 04:00:00,30.5242,112.3883,31.2,荆门市,后港,沙洋县,1004.5,26.7,75.0,44.278999999999996,26.27571841304073
Q6113,2025-06-03 04:00:00,30.7592,112.46,65,荆门市,高阳,沙洋县,1000.6,27.8,61.0,40.92400000000005,22.796235222928953
Q6114,2025-06-03 04:00:00,30.7297,112.2397,67,荆门市,五里,沙洋县,1000.5,27.3,68.0,25.776000000000035,24.678855262946954
Q6115,2025-06-03 04:00:00,30.6244,112.1758,56.2,荆门市,十里,沙洋县,1001.6,28.0,61.0,46.09700000000007,23.06412020301482
Q6117,2025-06-03 04:00:00,30.5508,112.275,36.5,荆门市,拾回桥,沙洋县,1004.0,28.0,66.0,45.35499999999996,24.95462185899964
Q6118,2025-06-03 04:00:00,30.7172,112.3717,71,荆门市,曾集,沙洋县,999.9,27.7,60.0,37.33899999999999,22.291785583195285
Q6122,2025-06-03 04:00:00,30.8122,112.2886,104,荆门市,雷集,掇刀区,996.2,27.1,65.0,41.15100000000003,23.314677763372252
Q6125,2025-06-03 04:00:00,30.8186,112.4253,60.1,荆门市,双堰,沙洋县,1001.2,27.1,65.0,38.18049999999993,23.314677763372252
Q6128,2025-06-03 04:00:00,30.4275,112.3442,40,荆门市,港口,沙洋县,1003.7,28.4,66.0,47.03249999999999,25.543248427666725
Q6129,2025-06-03 04:00:00,30.8017,112.6122,40,荆门市,姚集,沙洋县,1003.4,26.5,67.0,34.154,23.197726148882793
Q6160,2025-06-03 04:00:00,31.2861,112.1533,98,荆门市,石桥驿,东宝区,996.9,28.2,58.0,32.580999999999996,22.187141079552422
Q6162,2025-06-03 04:00:00,31.3903,112.0286,129,荆门市,仙居,东宝区,993.2,27.3,56.0,31.685500000000005,20.323763157721018
Q6163,2025-06-03 04:00:00,31.1444,111.935,134,荆门市,马河,东宝区,992.6,28.1,55.0,35.309000000000005,20.917213379360746
Q6164,2025-06-03 04:00:00,31.2678,111.9847,231.2,荆门市,栗溪,东宝区,981.5,29.3,51.0,27.92099999999999,20.79578678323815
Q6167,2025-06-03 04:00:00,31.0697,111.925,129,荆门市,观音寺,东宝区,993.0,26.3,68.0,43.57400000000001,23.26747260734894
Q6168,2025-06-03 04:00:00,31.0633,112.2033,110,荆门市,东宝,东宝区,995.5,27.4,51.0,38.21200000000006,18.61801899835417
Q6169,2025-06-03 04:00:00,31.2031,112.1422,112.5,荆门市,岩垱,东宝区,995.2,27.5,64.0,40.08000000000002,23.50112118583619
Q6170,2025-06-03 04:00:00,31.3072,112.1028,121,荆门市,象河,东宝区,994.0,28.9,51.0,41.36799999999993,20.319684892690148
Q6171,2025-06-03 04:00:00,31.0814,112.1022,246.3,荆门市,安河,东宝区,980.1,27.3,68.0,47.729000000000035,24.678855262946954
Q6172,2025-06-03 04:00:00,31.12,112.1464,355.3,荆门市,圣境山,东宝区,968.0,25.2,73.0,52.887500000000024,23.399679298393988
Q6173,2025-06-03 04:00:00,31.1497,112.2619,70.8,荆门市,东宝八角,东宝区,999.4,27.1,59.0,33.07249999999997,21.16255366213789
Q6174,2025-06-03 04:00:00,31.1786,112.0386,179.5,荆门市,文丰,东宝区,987.0,28.8,56.0,34.58199999999999,22.182761283568365
Q6175,2025-06-03 04:00:00,31.135,111.9811,156.5,荆门市,琵琶洲,东宝区,989.8,26.7,58.0,34.64999999999997,20.31988890608483
Q6176,2025-06-03 04:00:00,31.2347,111.9575,270.2,荆门市,铁坪,东宝区,977.1,27.2,60.0,43.42449999999999,21.648024554980775
Q6210,2025-06-03 04:00:00,31.4994,112.5936,124.4,荆门市,长寿,钟祥市,993.7,28.1,67.0,43.818500000000014,25.480969025766726
Q6213,2025-06-03 04:00:00,31.4353,112.8739,207.8,荆门市,客店,钟祥市,984.2,28.8,55.0,36.628000000000014,21.786640546361784
Q6217,2025-06-03 04:00:00,31.5064,112.72,136.9,荆门市,张集,钟祥市,992.2,28.7,52.0,39.23250000000004,20.479052395523833
Q6218,2025-06-03 04:00:00,31.2917,112.6356,56,荆门市,洋梓,钟祥市,1002.5,28.0,67.0,43.65749999999992,25.332722190196602
Q6219,2025-06-03 04:00:00,30.9944,112.5881,40,荆门市,柴湖,钟祥市,1003.4,28.0,66.0,43.647,24.95462185899964
Q6220,2025-06-03 04:00:00,31.2944,112.4272,47.9,荆门市,磷矿,钟祥市,1002.6,27.1,64.0,42.001500000000014,22.95599041316652
Q6223,2025-06-03 04:00:00,31.1669,112.6503,53,荆门市,九里,钟祥市,1002.7,28.2,58.0,47.05750000000003,22.187141079552422
Q6224,2025-06-03 04:00:00,31.1594,112.5319,54.6,荆门市,文集,钟祥市,1002.6,27.2,65.0,39.12799999999998,23.452026601229175
Q6235,2025-06-03 04:00:00,31.4969,112.5197,56,荆门市,洪山寺,钟祥市,1000.8,28.0,60.0,45.31650000000001,22.68601987181785
Q6236,2025-06-03 04:00:00,31.2022,112.4103,93,荆门市,北山,钟祥市,997.6,27.8,65.0,47.71850000000001,24.29107031951446
Q6237,2025-06-03 04:00:00,31.0467,112.4686,43,荆门市,陈坡,钟祥市,1002.3,26.6,67.0,41.716999999999956,23.33499574891991
Q6260,2025-06-03 04:00:00,31.3961,112.4883,59,荆门市,钟祥杨集,钟祥市,1002.1,29.1,57.0,42.32449999999998,22.97494771944654
Q6263,2025-06-03 04:00:00,31.2106,112.6344,65,荆门市,明显陵,钟祥市,1000.9,26.7,72.0,49.251499999999986,25.224689676519105
Q6264,2025-06-03 04:00:00,31.1667,112.5667,65.8,荆门市,郢中,钟祥市,1000.8,26.9,62.0,46.52249999999997,21.978607244208703
Q6317,2025-06-03 04:00:00,31.1814,113.3008,77.2,荆门市,宋河,京山市,998.8,27.2,61.0,35.36549999999998,22.008824964230456
Q6319,2025-06-03 04:00:00,30.9697,113.2225,63,荆门市,永兴,京山市,999.9,28.2,61.0,41.071000000000005,23.334751825046514
Q6320,2025-06-03 04:00:00,30.8547,113.0992,49.6,荆门市,钱场,京山市,1002.1,29.0,61.0,41.48150000000006,24.445222407464456
Q6321,2025-06-03 04:00:00,30.8972,112.8411,34,荆门市,石龙,京山市,1003.1,27.3,61.0,40.61000000000005,22.138384868231824
Q6322,2025-06-03 04:00:00,30.7744,112.8278,33.9,荆门市,永漋,京山市,1003.8,27.8,57.0,39.635999999999996,21.301400126343445
Q6323,2025-06-03 04:00:00,31.2839,113.3547,73,荆门市,坪坝,京山市,998.7,28.4,60.0,37.44649999999994,23.221134934242475
Q6324,2025-06-03 04:00:00,30.8344,112.945,77,荆门市,屈家岭,市辖区,998.9,27.3,65.0,46.68800000000007,23.59008223664047
Q6333,2025-06-03 04:00:00,31.3436,113.1756,203.2,荆门市,三阳,京山市,984.4,27.8,61.0,39.26299999999998,22.796235222928953
Q6335,2025-06-03 04:00:00,31.2819,112.9369,174.2,荆门市,三台,京山市,987.2,29.1,56.0,43.26250000000007,22.57187846121064
Q6336,2025-06-03 04:00:00,31.2428,112.9794,208.9,荆门市,将军岭,京山市,983.9,28.8,57.0,44.40300000000004,22.578882020774937
Q6339,2025-06-03 04:00:00,30.9928,113.045,105,荆门市,空山洞,京山市,995.6,29.7,56.0,38.01899999999991,23.368032099789918
Q6343,2025-06-03 04:00:00,31.1531,113.2286,226.5,荆门市,四股泉,京山市,981.9,27.1,64.0,43.82199999999998,22.95599041316652
Q6344,2025-06-03 04:00:00,31.0558,113.4464,45,荆门市,马岭,京山市,1001.6,28.1,59.0,37.945999999999955,22.43846526149607
Q6349,2025-06-03 04:00:00,30.9269,113.0072,111,荆门市,中南山,京山市,995.2,27.4,66.0,32.90949999999997,24.093906939046573
Q6353,2025-06-03 04:00:00,31.1539,112.8736,115.4,荆门市,黄台,京山市,994.6,27.4,62.0,40.02350000000002,22.63367015486193
Q6358,2025-06-03 04:00:00,31.3367,113.0661,174,荆门市,绿林寨,京山市,988.5,28.8,59.0,44.27699999999998,23.371123495188094
Q6370,2025-06-03 04:00:00,30.9961,112.6831,38,荆门市,罗汉寺,市辖区,1003.5,29.0,58.0,42.90149999999996,23.242998354638335
Q6371,2025-06-03 04:00:00,30.9972,112.7556,57,荆门市,长滩办事处,市辖区,1001.7,27.8,61.0,45.02450000000001,22.796235222928953
Q6372,2025-06-03 04:00:00,30.9675,112.7822,89,荆门市,月宝山,市辖区,997.6,27.8,59.0,38.00600000000003,22.0488176746362
Q6373,2025-06-03 04:00:00,30.9711,112.8208,105,荆门市,牙谷山,市辖区,995.9,27.4,62.0,40.71400000000001,22.63367015486193
Q6374,2025-06-03 04:00:00,30.8964,112.7422,38.5,荆门市,刘台,市辖区,1003.7,27.8,58.0,35.298500000000004,21.67510890048982
Q6375,2025-06-03 04:00:00,30.8661,112.8697,73.3,荆门市,种业基地,市辖区,999.7,27.0,63.0,34.33999999999994,22.464862424609105
Q6376,2025-06-03 04:00:00,30.7656,112.8836,33.1,荆门市,蔡垱,市辖区,1003.8,27.9,56.0,35.15337499999999,21.050341118669735
Q6401,2025-06-03 04:00:00,29.9694,111.5644,100.3,荆州市,洈水,松滋市,997.6,28.7,54.0,39.88400000000004,21.266708256890137
Q6402,2025-06-03 04:00:00,30.1794,111.9433,38.4,荆州市,沙道观,松滋市,1003.5,28.4,58.0,41.286000000000016,22.447097103101058
Q6403,2025-06-03 04:00:00,30.0286,111.8453,52.1,荆州市,纸厂河,松滋市,1003.0,28.9,56.0,40.020000000000074,22.311810862561735
Q6404,2025-06-03 04:00:00,30.1169,111.85,48.2,荆州市,南海,松滋市,1003.7,28.5,58.0,36.01050000000005,22.578070024997665
Q6406,2025-06-03 04:00:00,30.03,111.37,136,荆州市,卸甲坪,松滋市,993.6,27.8,56.0,34.03250000000003,20.927691352197073
Q6407,2025-06-03 04:00:00,30.0261,111.6894,43,荆州市,北干渠,松滋市,1001.7,29.1,47.0,31.727500000000042,18.944255137087502
Q6408,2025-06-03 04:00:00,30.0728,111.6294,164,荆州市,北河,松滋市,989.3,27.4,53.0,23.781500000000037,19.348137390446492
Q6409,2025-06-03 04:00:00,30.2792,111.6517,122,荆州市,陈店,松滋市,993.4,28.2,53.0,34.31650000000001,20.27445650372894
Q6411,2025-06-03 04:00:00,30.2714,112.0189,50.1,荆州市,涴市,松滋市,1003.5,26.8,58.0,40.10549999999992,20.43995084173267
Q6412,2025-06-03 04:00:00,29.9758,111.7756,69.2,荆州市,杨林市,松滋市,1000.5,29.5,56.0,36.7285,23.099966354392507
Q6414,2025-06-03 04:00:00,30.18,111.8686,46.1,荆州市,八宝,松滋市,1003.6,28.0,59.0,41.05349999999999,22.30791954062089
Q6415,2025-06-03 04:00:00,29.9686,111.6961,76.2,荆州市,万家,松滋市,1000.9,29.3,53.0,36.06550000000006,21.611307833561217
Q6417,2025-06-03 04:00:00,30.0903,111.4008,626.8,荆州市,三堰淌,松滋市,938.7,25.5,46.0,25.06149999999999,15.010687345267188
Q6418,2025-06-03 04:00:00,30.0397,111.3681,220,荆州市,卸甲坪村,松滋市,982.4,29.4,46.0,24.76800000000002,18.865703351477617
Q6426,2025-06-03 04:00:00,30.1769,111.7736,69.5,荆州市,新江口,松滋市,1000.4,27.5,58.0,45.071999999999996,21.297891074664044
Q6494,2025-06-03 04:00:00,29.9206,112.0969,44,荆州市,南平,公安县,1003.8,27.6,60.0,37.43550000000003,22.161711429671374
Q6495,2025-06-03 04:00:00,29.99,112.0072,48,荆州市,狮子口,公安县,1003.3,28.5,61.0,35.29550000000001,23.7459012331872
Q6496,2025-06-03 04:00:00,30.0592,112.3197,30,荆州市,杨家厂,公安县,1004.2,28.6,57.0,39.035499999999985,22.31816330325095
Q6497,2025-06-03 04:00:00,29.8575,112.0914,40,荆州市,孟家溪,公安县,1004.4,27.6,59.0,25.671999999999965,21.792349572510187
Q6498,2025-06-03 04:00:00,29.9631,112.3392,40,荆州市,麻豪口,公安县,1004.2,28.6,54.0,36.745500000000035,21.143523129395643
Q6499,2025-06-03 04:00:00,29.99,112.1083,37,荆州市,夹竹园,公安县,1004.2,28.1,64.0,39.76600000000003,24.34003011416523
Q6500,2025-06-03 04:00:00,29.7447,112.0739,36.9,荆州市,甘厂,公安县,1004.4,27.5,62.0,33.27600000000001,22.766711148778807
