Station_Id_C,Datetime,Lat,Lon,Alti,City,Station_Name,Cnty,PRS,TEM,RHU,PWV,VAP
57544,2025-06-03 06:00:00,29.4583,109.4433,485.4,湘西土家族苗族自治州,龙山,龙山县,953.7,24.9,67,40.6,21.095450671745496
57554,2025-06-03 06:00:00,29.4011,110.1622,318.8,张家界市,桑植,桑植县,971.3,26.6,64,42.5,22.29014519299812
57558,2025-06-03 06:00:00,29.1183,110.4172,218.5,张家界市,张家界,永定区,982.6,28.0,53,43.6,20.039317553439105
57562,2025-06-03 06:00:00,29.5833,111.3633,119,常德市,石门,石门县,994.1,27.7,62,41.9,23.03484510263513
57564,2025-06-03 06:00:00,29.4317,111.0892,168.7,张家界市,慈利,慈利县,987.5,27.5,63,39.7,23.1339161673075
57565,2025-06-03 06:00:00,29.6669,111.7253,40.2,常德市,澧县,澧县,1003.2,28.5,63,41.7,24.524455371980228
57566,2025-06-03 06:00:00,29.4692,111.67,86,常德市,临澧,临澧县,997.3,27.5,60.0,36.00549109121278,22.032301111721427
57574,2025-06-03 06:00:00,29.3517,112.4317,40.3,益阳市,南县,南县,1002.7,28.2,55.0,33.33782022974306,21.039530334058334
57575,2025-06-03 06:00:00,29.525,112.5567,49.4,岳阳市,华容,华容县,1001.9,27.8,48,41.2,17.93802115902606
57577,2025-06-03 06:00:00,29.4103,112.205,42.2,常德市,安乡,安乡县,1003.5,28.1,60,42.8,22.818778232029903
57584,2025-06-03 06:00:00,29.3808,113.088,52.7,岳阳市,岳阳,岳阳楼区,1001.6,27.3,57,38.3,20.686687499823176
57585,2025-06-03 06:00:00,29.4814,113.4478,64,岳阳市,临湘,临湘市,1000.4,28.2,48,38.6,18.361771927905455
57587,2025-06-03 06:00:00,29.1914,113.1092,48.4,岳阳市,洞庭湖,岳阳县,1001.6,27.3,61.0,34.45808160534696,22.138384868231824
57640,2025-06-03 06:00:00,28.5364,109.4625,532.8,湘西土家族苗族自治州,花垣,花垣县,948.1,25.7,64.0,46.068746532364685,21.13409164604732
57642,2025-06-03 06:00:00,28.6808,109.6481,438.1,湘西土家族苗族自治州,保靖,保靖县,958.8,25.9,63.0,46.882535449157324,21.05219402271277
57643,2025-06-03 06:00:00,29.0083,109.8383,272.6,湘西土家族苗族自治州,永顺,永顺县,977.1,26.5,66,42.7,22.851491430242753
57646,2025-06-03 06:00:00,28.6222,109.9469,318,湘西土家族苗族自治州,古丈,古丈县,971.7,28.0,59,47,22.30791954062089
57649,2025-06-03 06:00:00,28.2381,109.6825,253.6,湘西土家族苗族自治州,吉首,吉首市,978.5,28.0,56,42.2,21.17361854703
57655,2025-06-03 06:00:00,28.4633,110.4031,151.6,怀化市,沅陵县,沅陵县,990.4,26.7,59,42.4,20.67023181825871
57657,2025-06-03 06:00:00,28.21,110.2286,216.4,湘西土家族苗族自治州,泸溪,泸溪县,982.7,27.0,64.0,42.2299455057144,22.821447542460042
57658,2025-06-03 06:00:00,28.0069,110.1928,155.3,怀化市,辰溪,辰溪县,989.9,26.5,69,47.2,23.890195586162875
57661,2025-06-03 06:00:00,28.9133,111.4797,51.1,常德市,桃源,桃源县,1001.9,29.3,56,44.5,22.834589409045815
57662,2025-06-03 06:00:00,29.1164,111.6767,151.4,常德市,常德,武陵区,990.4,27.3,62,46,22.501309210333982
57663,2025-06-03 06:00:00,28.9203,111.9583,36.2,常德市,汉寿,汉寿县,1003.4,28.9,56,42.5,22.311810862561735
57666,2025-06-03 06:00:00,28.5159,112.1366,139.4,益阳市,桃江,桃江县,991.5,28.4,50,39.8,19.350945778535397
57669,2025-06-03 06:00:00,28.3847,111.2203,129.8,益阳市,安化,安化县,984.9,28.7,51,49.2,20.08522446484068
57671,2025-06-03 06:00:00,28.84,112.3722,43.7,益阳市,沅江,沅江市,1002.6,28.7,55,40.4,21.660536187573285
57673,2025-06-03 06:00:00,28.7283,112.9253,63,岳阳市,湘阴,湘阴县,999.9,27.5,56.0,30.287497729564357,20.563481037606667
57674,2025-06-03 06:00:00,28.5722,112.3783,49.6,益阳市,赫山,赫山区,993.8,28.1,52,43.4,19.77627446775925
57678,2025-06-03 06:00:00,28.2514,112.5433,60.9,长沙市,宁乡,宁乡市,998.4,27.9,51,46.3,19.17084637593136
57679,2025-06-03 06:00:00,28.2117,113.1972,103.6,长沙市,长沙黄花,长沙县,995.1,27.5,61,50.2,22.399506130250117
57680,2025-06-03 06:00:00,28.8565,113.1071,82,岳阳市,汨罗,汨罗市,998.0,28.1,50,39.9,19.015648526691585
57682,2025-06-03 06:00:00,28.7117,113.5717,106.9,岳阳市,平江,平江县,994.5,29.0,48,43,19.235584845217932
57687,2025-06-03 06:00:00,28.1086,112.7864,119,长沙市,长沙,岳麓区,993.4,26.7,57.0,35.71985312713696,19.969545993910955
57688,2025-06-03 06:00:00,28.1561,113.6308,102.6,长沙市,浏阳,浏阳市,995.1,26.9,61,54.3,21.624113578979532
57740,2025-06-03 06:00:00,27.9528,109.5953,353,湘西土家族苗族自治州,凤凰,凤凰县,967.7,27.8,54,43.3,20.18027380390432
57743,2025-06-03 06:00:00,27.8586,109.8139,176.8,怀化市,麻阳国家基本观测站,麻阳苗族自治县,985.0,27.2,63,43.9,22.730425782729817
57744,2025-06-03 06:00:00,27.3682,109.1635,353,怀化市,新晃,新晃侗族自治县,967.8,27.1,57,45.2,20.445178961726434
57745,2025-06-03 06:00:00,27.4547,109.6811,272.2,怀化市,芷江,芷江侗族自治县,976.6,26.2,64.0,42.018121795386534,21.769690827426196
57749,2025-06-03 06:00:00,27.6069,110.0306,286.9,怀化市,怀化,鹤城区,974.6,27.2,59.0,48.884528219261384,21.287224145731095
57752,2025-06-03 06:00:00,27.9125,110.6008,207.4,怀化市,溆浦,溆浦县,983.8,27.0,53,43.6,18.89901124609972
57754,2025-06-03 06:00:00,27.2117,109.8353,252,怀化市,洪江,洪江市,978.6,26.4,60.0,43.693880498448735,20.651787961572953
57758,2025-06-03 06:00:00,27.0253,110.6067,342.2,邵阳市,洞口,洞口县,968.6,25.9,61,46,20.38387040294411
57760,2025-06-03 06:00:00,27.6964,111.4367,249.2,娄底市,冷水江,冷水江市,978.5,27.4,58.0,38.93690831986811,21.17343337067729
57761,2025-06-03 06:00:00,27.7467,111.2939,215.4,娄底市,新化,新化县,982.8,28.3,51,48.7,19.62338290702425
57762,2025-06-03 06:00:00,27.6961,111.7033,167.2,娄底市,涟源,涟源市,978.5,26.9,58,50.1,20.560632583292012
57763,2025-06-03 06:00:00,27.6911,112.0019,155.5,娄底市,娄底,娄底市,983.5,27.9,50,48.9,18.79494742738369
57765,2025-06-03 06:00:00,27.325,110.4072,1386.6,怀化市,雪峰山,洪江市,856.9,19.7,82.0,33.549441943499076,18.80960611318924
57766,2025-06-03 06:00:00,27.185,111.4536,311,邵阳市,邵阳,大祥区,971.9,26.8,50.0,26.29441768891663,17.62064727735575
57767,2025-06-03 06:00:00,27.1133,111.0325,310.8,邵阳市,隆回,隆回县,972.0,26.5,52,45.4,18.004205369282168
57768,2025-06-03 06:00:00,27.3411,111.4464,294.1,邵阳市,新邵,新邵县,973.5,27.3,50,44.8,18.14621710510805
57769,2025-06-03 06:00:00,27.2375,111.7361,253.9,邵阳市,邵东,邵东市,972.5,26.7,50,47.7,17.517145608693824
57771,2025-06-03 06:00:00,27.8867,112.5925,127.6,湘潭市,韶山,韶山市,992.6,28.0,57.0,40.58638955375806,21.55171887822696
57772,2025-06-03 06:00:00,27.751,112.5059,86.9,湘潭市,湘乡,湘乡市,997.2,27.6,46,50.2,16.990645429414723
57773,2025-06-03 06:00:00,27.8756,112.8275,63.8,湘潭市,湘潭观测站,雨湖区,999.5,27.6,53.0,33.30843343129032,19.57617842954305
57774,2025-06-03 06:00:00,27.4486,112.1733,103.1,娄底市,双峰,双峰县,989.3,26.7,53,52.8,18.56817434521545
57776,2025-06-03 06:00:00,27.2961,112.6936,1265.9,衡阳市,南岳,南岳区,869.9,17.3,90.0,48.05842191709883,17.76129414956534
57777,2025-06-03 06:00:00,27.2581,112.8372,159.1,衡阳市,衡山,衡山县,988.5,27.3,60.0,46.11573008432201,21.77546052612966
57778,2025-06-03 06:00:00,27.0525,112.9847,112.4,衡阳市,衡东,衡东县,994.3,24.8,84,54.5,26.29047392682159
57779,2025-06-03 06:00:00,27.0556,113.3528,115.2,株洲市,攸县,攸县,993.8,23.9,78,52.2,23.12983363107571
57780,2025-06-03 06:00:00,27.8689,113.1736,74.6,株洲市,株洲,荷塘区,997.9,27.1,54.0,32.973111622032505,19.369116911109256
57781,2025-06-03 06:00:00,27.6406,113.5069,75.9,株洲市,醴陵,醴陵市,998.6,25.9,62,53.7,20.718032212828437
57841,2025-06-03 06:00:00,26.5619,109.6736,322.5,怀化市,靖州,靖州苗族侗族自治县,970.6,26.5,61,47.8,21.120317837042546
57842,2025-06-03 06:00:00,26.8767,109.7208,287.8,怀化市,会同,会同县,974.9,27.3,50,48.4,18.14621710510805
57845,2025-06-03 06:00:00,26.1589,109.7778,400.2,怀化市,通道,通道侗族自治县,961.4,27.6,51,47.2,18.83745471522067
57846,2025-06-03 06:00:00,26.5867,110.1419,382.7,邵阳市,绥宁,绥宁县,963.5,27.4,47,44.6,17.15778221416953
57851,2025-06-03 06:00:00,26.4418,110.8528,348.4,邵阳市,新宁,新宁县,967.7,26.5,64,48.7,22.159021992962668
57853,2025-06-03 06:00:00,26.7386,110.6371,340.1,邵阳市,武冈,武冈市,968.7,26.3,54,47.5,18.47711059995357
57857,2025-06-03 06:00:00,26.3726,110.311,479.1,邵阳市,城步,城步苗族自治县,953.0,26.9,46,45.7,16.306708600541942
57860,2025-06-03 06:00:00,27.0022,111.2884,288.5,邵阳市,邵阳县,邵阳县,966.7,25.7,59,49.9,19.482990736199874
57865,2025-06-03 06:00:00,26.4956,111.6161,192.8,永州市,冷水滩,冷水滩区,984.9,27.0,54.0,34.025741925008795,19.255596363950662
57866,2025-06-03 06:00:00,26.226,111.6167,173.4,永州市,永州,零陵区,987.3,26.3,62,52.9,21.214460318465207
57867,2025-06-03 06:00:00,26.4025,111.2892,174.9,永州市,东安,东安县,987.2,26.9,58,51.8,20.560632583292012
57868,2025-06-03 06:00:00,26.5494,111.8622,163.3,永州市,祁阳,祁阳市,988.0,26.8,53.0,35.07544511896324,18.677886113997097
57870,2025-06-03 06:00:00,26.7633,112.0825,218.9,衡阳市,祁东,祁东县,981.6,27.8,54,51.9,20.18027380390432
57871,2025-06-03 06:00:00,26.9742,112.3669,90.8,衡阳市,衡阳县,衡阳县,995.9,28.0,53.0,37.20951101200096,20.039317553439105
57872,2025-06-03 06:00:00,26.9775,112.5942,122.1,衡阳市,衡阳,石鼓区,992.8,26.4,58,55.5,19.96339502952052
57874,2025-06-03 06:00:00,26.4092,112.3939,119,衡阳市,常宁,常宁市,993.7,25.1,66,55.6,21.030127060831653
57875,2025-06-03 06:00:00,26.755,112.6914,137,衡阳市,衡南,衡南县,990.9,26.8,63.0,42.900432186449635,22.202015569468248
57876,2025-06-03 06:00:00,26.4278,112.8292,138,衡阳市,耒阳,耒阳市,991.4,25.5,67,54.3,21.863392437671774
57881,2025-06-03 06:00:00,26.7139,113.2586,104.8,郴州市,安仁,安仁县,985.0,24.1,70,57,21.00867841404586
57882,2025-06-03 06:00:00,26.7892,113.545,133.2,株洲市,茶陵,茶陵县,991.0,25.2,72.0,34.11246924479541,23.079135746361196
57886,2025-06-03 06:00:00,26.4778,113.7922,273.2,株洲市,炎陵,炎陵县,976.0,24.8,54,52.7,16.90101895295674
57887,2025-06-03 06:00:00,26.1192,113.1144,169.4,郴州市,永兴,永兴县,987.3,24.7,71,55.8,22.08923453753536
57889,2025-06-03 06:00:00,26.0797,113.9447,834.1,郴州市,桂东,桂东县,913.3,22.6,70.0,33.574244800310765,19.188298520473378
57962,2025-06-03 06:00:00,25.9617,111.6544,206.7,永州市,双牌,双牌县,983.4,25.5,64,53.1,20.88443456732826
57965,2025-06-03 06:00:00,25.5339,111.5958,192.7,永州市,道县,道县,984.4,26.1,61,53.3,20.626816540771575
57966,2025-06-03 06:00:00,25.5947,111.9594,243.1,永州市,宁远,宁远县,978.5,25.9,60,53.5,20.049708593059776
57969,2025-06-03 06:00:00,25.2758,111.3106,259.4,永州市,江永,江永县,975.3,26.6,65.0,42.517067923440166,22.638428711638717
57971,2025-06-03 06:00:00,25.9117,112.2067,227.4,永州市,新田,新田县,981.1,26.2,62,52.8,21.089387989069124
57972,2025-06-03 06:00:00,25.7356,112.9772,368.6,郴州市,郴州,北湖区,964.6,23.6,71.0,32.895004499041896,20.676994361808816
57973,2025-06-03 06:00:00,25.7494,112.7247,329.8,郴州市,桂阳,桂阳县,969.3,23.7,70,52.8,20.509040410575494
57974,2025-06-03 06:00:00,25.5814,112.3653,214.5,郴州市,嘉禾,嘉禾县,981.8,26.0,61.0,42.44626454209966,20.505028740487035
57975,2025-06-03 06:00:00,25.4006,112.1678,345.9,永州市,蓝山,蓝山县,967.0,25.5,66.0,43.697044924679474,21.53707314755727
57976,2025-06-03 06:00:00,25.4058,112.9406,225.2,郴州市,宜章,宜章县,979.9,25.1,67,56.3,21.34876534963213
57978,2025-06-03 06:00:00,25.2731,112.5461,295.7,郴州市,临武,临武县,972.5,24.3,71,51.8,21.566219835014017
57981,2025-06-03 06:00:00,25.9744,113.2169,142.2,郴州市,资兴,资兴市,990.1,25.7,74,55.8,24.436293465742214
57985,2025-06-03 06:00:00,25.5558,113.6881,648.2,郴州市,汝城,汝城县,933.3,22.9,81,53,22.611603432315402
59063,2025-06-03 06:00:00,25.1819,111.5703,265.7,永州市,江华,江华瑶族自治县,975.4,26.2,61.0,33.767710232022125,20.74923656989059
CDAX,2025-06-03 06:00:00,29.41,112.2047,15.95,常德市,深柳镇,安乡县,1010.8072,24.7878,999999,45.569,
CDHP,2025-06-03 06:00:00,29.9381,110.7792,224.54,常德市,东山峰管理区,石门县,986.8083,23.4338,999999,39.4212,
CDHS,2025-06-03 06:00:00,28.92,111.9583,15.82,常德市,龙阳街道,汉寿县,1010.8035,24.8412,999999,44.2867,
CDLL,2025-06-03 06:00:00,29.4619,111.7386,37.82,常德市,烽火乡,临澧县,1008.1517,24.6398,999999,45.8298,
CDLX,2025-06-03 06:00:00,29.6564,111.7517,31.69,常德市,澧阳街道,澧县,1010.2132,24.7279,999999,42.7506,
CDSM,2025-06-03 06:00:00,29.5833,111.3631,97.51,常德市,楚江街道,石门县,1001.2498,24.2554,999999,43.7402,
CDSQ,2025-06-03 06:00:00,29.1164,111.6764,130.04,常德市,柳叶湖街道,柳叶湖旅游度假区,997.5891,24.1082,999999,46.1481,
CDTY,2025-06-03 06:00:00,28.9133,111.4797,29.45,常德市,漳江街道,桃源县,1009.1526,24.7534,999999,43.6095,
CSDY,2025-06-03 06:00:00,28.0314,113.6667,135.48,长沙市,大瑶镇,浏阳市,997.7181,24.2326,999999,54.786,
CSHH,2025-06-03 06:00:00,28.2114,113.1969,88.32,长沙市,黄花镇,长沙县,1002.9027,24.4936,999999,52.8097,
CSKC,2025-06-03 06:00:00,28.1825,112.9964,66.33,长沙市,左家塘街道,雨花区,1005.3099,24.6266,999999,52.036,
CSLY,2025-06-03 06:00:00,28.1561,113.6306,89.16,长沙市,淮川街道,浏阳市,1003.0144,24.5057,999999,53.5315,
CSNX,2025-06-03 06:00:00,28.1425,112.2319,94.42,长沙市,横市镇,宁乡市,1001.8194,24.4426,999999,50.8443,
CSXZ,2025-06-03 06:00:00,28.1014,111.9017,432.31,长沙市,巷子口镇,宁乡市,963.5786,22.3474,999999,43.5511,
CSYH,2025-06-03 06:00:00,28.2939,113.8503,120.74,长沙市,永和镇,浏阳市,999.5014,24.3008,999999,54.2593,
CZAR,2025-06-03 06:00:00,26.7136,113.2586,91.8,郴州市,永乐江镇,安仁县,1002.5876,24.6394,999999,54.4119,
CZBL,2025-06-03 06:00:00,26.3425,113.2789,185.29,郴州市,柏林镇,永兴县,991.9686,24.1022,999999,54.3248,
CZGY,2025-06-03 06:00:00,25.7494,112.7244,316.5,郴州市,鹿峰街道,桂阳县,976.9546,23.3399,999999,53.2135,
CZJH,2025-06-03 06:00:00,25.5519,112.3736,203.17,郴州市,珠泉镇,嘉禾县,989.3632,24.0431,999999,55.3966,
CZLT,2025-06-03 06:00:00,26.0797,112.4703,270.37,郴州市,莲塘镇,桂阳县,982.004,23.5836,999999,53.1731,
CZLW,2025-06-03 06:00:00,25.2731,112.5461,282.88,郴州市,武水镇,临武县,980.7395,23.6001,999999,54.1215,
CZRC,2025-06-03 06:00:00,25.5144,113.6819,639.65,郴州市,卢阳镇,汝城县,941.6824,21.3813,999999,52.3383,
CZYX,2025-06-03 06:00:00,26.1189,113.1144,156.86,郴州市,便江街道,永兴县,995.1582,24.3003,999999,54.9478,
CZYZ,2025-06-03 06:00:00,25.4058,112.9406,213.64,郴州市,玉溪镇,宜章县,988.7339,24.0259,999999,56.4282,
CZZX,2025-06-03 06:00:00,25.9744,113.2167,130.28,郴州市,唐洞街道,资兴市,998.2896,24.4865,999999,56.1622,
GQZX,2025-06-03 06:00:00,28.4664,113.3325,63.76,长沙市,高桥镇,长沙县,1005.7678,24.6203,999999,48.9798,
HHCX,2025-06-03 06:00:00,28.0069,110.1928,133.26,怀化市,辰阳镇,辰溪县,997.0012,24.1964,999999,49.0012,
HHGZ,2025-06-03 06:00:00,28.5353,110.9139,219.4,怀化市,官庄镇,沅陵县,987.3428,23.6135,999999,43.2293,
HHHJ,2025-06-03 06:00:00,27.1053,109.9964,181.65,怀化市,桂花园乡,洪江区,980.9815,23.4187,999999,52.0249,
HHHT,2025-06-03 06:00:00,26.8767,109.7206,265.29,怀化市,林城镇,会同县,981.8229,23.4884,999999,49.4105,
HHJZ,2025-06-03 06:00:00,26.5617,109.6733,299.9,怀化市,渠阳镇,靖州苗族侗族自治县,977.9176,23.3066,999999,49.4476,
HHSA,2025-06-03 06:00:00,28.1744,110.7831,239.99,怀化市,深子湖镇,溆浦县,989.7689,23.7884,999999,49.5754,
HHSQ,2025-06-03 06:00:00,27.5461,109.9483,229.59,怀化市,城中街道,鹤城区,985.9574,23.6438,999999,47.7697,
HHTD,2025-06-03 06:00:00,26.1589,109.7778,378.48,怀化市,双江镇,通道侗族自治县,969.1128,22.8609,999999,48.463,
HHXH,2025-06-03 06:00:00,27.3681,109.1633,328.57,怀化市,晃州镇,新晃侗族自治县,974.5402,23.0341,999999,47.9264,
HHXP,2025-06-03 06:00:00,27.9122,110.6006,186.58,怀化市,卢峰镇,溆浦县,991.0171,23.8811,999999,44.9986,
HHZF,2025-06-03 06:00:00,27.5883,110.2794,172.54,怀化市,铜湾镇,中方县,992.5403,23.999,999999,49.4803,
HNCL,2025-06-03 06:00:00,26.7883,113.5608,114.74,株洲市,洣江街道,茶陵县,1000.0949,24.4962,999999,55.0608,
HNHJ,2025-06-03 06:00:00,27.1164,109.7269,201.81,怀化市,江市镇,洪江市,989.0075,23.857,999999,51.4235,
HNHY,2025-06-03 06:00:00,27.1492,112.3297,116.16,衡阳市,三湖镇,衡阳县,999.3918,24.419,999999,51.8358,
HNJH,2025-06-03 06:00:00,25.1503,111.6225,271.71,永州市,涔天河镇,江华瑶族自治县,981.6952,23.666,999999,50.1812,
HNLH,2025-06-03 06:00:00,27.3533,110.9406,331.55,邵阳市,六都寨镇,隆回县,974.7095,23.045,999999,44.1135,
HNQY,2025-06-03 06:00:00,26.7692,111.8764,129.49,永州市,文富市镇,祁阳市,997.7666,24.372,999999,51.2576,
HNRC,2025-06-03 06:00:00,25.5433,113.3447,499.17,郴州市,文明瑶族乡,汝城县,956.9482,22.2442,999999,51.1266,
HNTJ,2025-06-03 06:00:00,28.4706,111.7678,84.25,益阳市,马迹塘镇,桃江县,1002.8981,24.4652,999999,44.4174,
HNTY,2025-06-03 06:00:00,29.1786,111.2881,64.02,常德市,九溪镇,桃源县,1005.127,24.5082,999999,46.5149,
HNYL,2025-06-03 06:00:00,28.8117,110.6264,163.36,怀化市,大合坪乡,沅陵县,993.666,23.9283,999999,47.2627,
HNYY,2025-06-03 06:00:00,29.1117,113.4997,129.4,岳阳市,公田镇,岳阳县,998.2843,24.1463,999999,36.0624,
HYCN,2025-06-03 06:00:00,26.4089,112.3939,103.58,衡阳市,泉峰街道,常宁市,1000.9048,24.5814,999999,55.8024,
HYGS,2025-06-03 06:00:00,26.7161,112.8797,77.57,衡阳市,冠市镇,衡南县,1004.0528,24.7184,999999,53.6529,
HYHD,2025-06-03 06:00:00,27.0911,112.9464,58.69,衡阳市,洣水镇,衡东县,1001.7228,24.5558,999999,53.4934,
HYLY,2025-06-03 06:00:00,26.4278,112.8289,123.95,衡阳市,五里牌街道,耒阳市,998.7226,24.4609,999999,53.0076,
HYQD,2025-06-03 06:00:00,26.7636,112.0822,205.35,衡阳市,永昌街道,祁东县,989.1693,23.9038,999999,50.0743,
HYSQ,2025-06-03 06:00:00,26.8892,112.5958,92.51,衡阳市,联合街道,蒸湘区,1000.5544,24.5007,999999,55.3352,
HYXQ,2025-06-03 06:00:00,27.3694,112.5258,87.23,衡阳市,新桥镇,衡山县,1002.745,24.5766,999999,53.2917,
LDLT,2025-06-03 06:00:00,27.9633,111.11,238.56,娄底市,琅塘镇,新化县,985.2116,23.5582,999999,42.4313,
LDLY,2025-06-03 06:00:00,27.6958,111.7031,148.45,娄底市,石马山街道,涟源市,995.5497,24.1512,999999,48.4503,
LDSF,2025-06-03 06:00:00,27.4483,112.1733,85.76,娄底市,金开街道,双峰县,1002.8314,24.5727,999999,50.4893,
LDSQ,2025-06-03 06:00:00,27.6908,112.0017,190.38,娄底市,万宝镇,娄星区,990.816,23.8939,999999,50.192,
LDXH,2025-06-03 06:00:00,27.7464,111.2939,195.82,娄底市,上梅街道,新化县,990.0908,23.8484,999999,49.024,
P1000,2025-06-03 06:00:00,29.5819,109.5853,523,湘西土家族苗族自治州,石牌,龙山县,945.1,23.7,74.0,44.55357858366035,21.6809855768941
P1001,2025-06-03 06:00:00,29.4103,109.5969,803.2,湘西土家族苗族自治州,茨岩塘,龙山县,919.2,24.0,56.0,29.927397047849237,16.70622410698162
P1003,2025-06-03 06:00:00,29.3381,109.4894,848,湘西土家族苗族自治州,茅坪,龙山县,912.0,23.3,57.0,28.823246207929724,16.301869775246725
P1006,2025-06-03 06:00:00,29.2897,109.4136,1224,湘西土家族苗族自治州,可立坡,龙山县,874.1,20.5,58.0,23.5403157499047,13.98001974458524
P1009,2025-06-03 06:00:00,28.8125,109.3497,330.2,湘西土家族苗族自治州,树木,龙山县,968.9,25.8,87.0,57.50539568112121,28.90017169084258
P1016,2025-06-03 06:00:00,28.2761,109.6769,243.7,湘西土家族苗族自治州,红枫林场,吉首市,977.4,27.0,67.0,42.79362530395322,23.891202896012857
P1018,2025-06-03 06:00:00,29.1372,109.3714,791.6,湘西土家族苗族自治州,喳啦坪,龙山县,917.2,22.0,86.0,42.88052918098996,22.728325206782845
P1021,2025-06-03 06:00:00,29.0394,109.3542,338,湘西土家族苗族自治州,咱果,龙山县,967.9,25.1,72.0,43.89414299946991,22.941956793634528
P1060,2025-06-03 06:00:00,29.1431,109.6892,372,湘西土家族苗族自治州,两岔,永顺县,963.6,26.8,67.0,41.873752938721374,23.611667351656706
P1062,2025-06-03 06:00:00,29.0975,109.7117,307.2,湘西土家族苗族自治州,首车,永顺县,968.4,26.4,66.0,36.50274537336417,22.71696675773025
P1063,2025-06-03 06:00:00,28.9867,109.6683,434.2,湘西土家族苗族自治州,西歧,永顺县,959.0,25.3,71.0,39.4240766740667,22.894573184460004
P1066,2025-06-03 06:00:00,28.8458,110.1953,845.2,湘西土家族苗族自治州,三合,永顺县,912.6,23.8,70.0,39.02485798820311,20.632964073162828
P1069,2025-06-03 06:00:00,29.0336,110.2889,352.2,湘西土家族苗族自治州,永茂,永顺县,960.8,27.5,56.0,36.75830907491266,20.563481037606667
P1070,2025-06-03 06:00:00,29.0189,110.1378,543.6,湘西土家族苗族自治州,五里,永顺县,946.5,26.6,56.0,37.73190036060465,19.50387704387336
P1073,2025-06-03 06:00:00,28.8172,110.1172,218.7,湘西土家族苗族自治州,长官,永顺县,979.2,27.7,60.0,43.58897746275056,22.291785583195285
P1074,2025-06-03 06:00:00,28.8608,109.9961,615.3,湘西土家族苗族自治州,马鞍,永顺县,945.0,25.0,70.0,38.39355490723729,22.17200605331099
P1075,2025-06-03 06:00:00,29.2,109.8333,561.1,湘西土家族苗族自治州,李家,永顺县,941.9,25.6,65.0,36.96394487935146,21.337203316688118
P1076,2025-06-03 06:00:00,29.2864,109.8842,447.4,湘西土家族苗族自治州,毛坝,永顺县,954.9,26.4,60.0,39.92703473223298,20.651787961572953
P1077,2025-06-03 06:00:00,29.2017,109.9564,405.1,湘西土家族苗族自治州,隆发,永顺县,959.6,25.9,63.0,37.080828743934475,21.05219402271277
P1083,2025-06-03 06:00:00,29.1953,109.7719,750.7,湘西土家族苗族自治州,岩门,永顺县,923.1,25.6,85.0,48.876637044845666,27.902496644899845
P1084,2025-06-03 06:00:00,29.0697,110.2394,416,湘西土家族苗族自治州,青坪,永顺县,959.7,27.9,61.0,40.727473462429145,22.9298358614081
P1086,2025-06-03 06:00:00,29.1339,110.1864,401.2,湘西土家族苗族自治州,柯溪,永顺县,961.1,27.6,67.0,47.8770848353178,24.747244429799704
P1089,2025-06-03 06:00:00,29.0811,109.9828,625.8,湘西土家族苗族自治州,天堂,永顺县,936.5,24.1,72.0,35.56295611244131,21.608926368732888
P1091,2025-06-03 06:00:00,28.7372,109.965,486.3,湘西土家族苗族自治州,新区,永顺县,950.7,26.4,65.0,43.104980940878924,22.372770291704036
P1093,2025-06-03 06:00:00,28.8628,109.7828,399.7,湘西土家族苗族自治州,西那司,永顺县,960.9,27.1,67.0,45.754688422363614,24.032052463783703
P1095,2025-06-03 06:00:00,29.2839,110.0114,435.2,湘西土家族苗族自治州,砂坝,永顺县,955.5,26.1,66.0,41.803875901194814,22.317539208047936
P1096,2025-06-03 06:00:00,28.9219,110.3042,576.2,湘西土家族苗族自治州,朗溪,永顺县,940.7,26.1,52.0,34.08387730115678,17.58351573967413
P1097,2025-06-03 06:00:00,28.8928,109.6961,441.7,湘西土家族苗族自治州,宝石,永顺县,953.9,25.4,74.0,42.68767301132466,24.004416630909127
P1098,2025-06-03 06:00:00,28.8408,109.2558,1225,湘西土家族苗族自治州,八面山景区,龙山县,872.9,18.7,90.0,41.324586733140805,19.396854766952963
P1099,2025-06-03 06:00:00,28.2106,109.5614,268.4,湘西土家族苗族自治州,黄石洞水库,吉首市,971.9,29.1,86.0,53.4187406139016,34.663956208287765
P1100,2025-06-03 06:00:00,28.4428,109.4178,544.4,湘西土家族苗族自治州,三塘,花垣县,947.3,27.0,56.0,42.7710470778451,19.96876659965254
P1101,2025-06-03 06:00:00,28.5158,109.5869,675.8,湘西土家族苗族自治州,排力,保靖县,929.7,25.9,69.0,45.2444878241751,23.057164882018743
P1103,2025-06-03 06:00:00,28.5381,109.7606,363,湘西土家族苗族自治州,葫芦,保靖县,965.5,27.9,53.0,39.21605033659992,19.92264427302671
P1104,2025-06-03 06:00:00,28.1497,109.3761,837.6,湘西土家族苗族自治州,两林,凤凰县,913.2,24.2,43.0,19.982513182559924,12.983076491564779
P1113,2025-06-03 06:00:00,28.61,109.3547,325.4,湘西土家族苗族自治州,毛沟,保靖县,968.9,27.1,63.0,41.711607558994665,22.597303062960798
P1127,2025-06-03 06:00:00,28.6269,109.5519,214.7,湘西土家族苗族自治州,复兴,保靖县,980.2,28.0,62.0,46.76192581376981,23.44222053421178
P1152,2025-06-03 06:00:00,28.5181,109.2814,301.4,湘西土家族苗族自治州,曲乐,花垣县,969.9,27.2,60.0,38.97060638842737,21.648024554980775
P1154,2025-06-03 06:00:00,28.4247,109.5,742.3,湘西土家族苗族自治州,排达鲁,花垣县,923.2,23.7,100.0,67.50358686253156,29.298629157965
P1172,2025-06-03 06:00:00,28.4964,109.3892,520.6,湘西土家族苗族自治州,祥和,花垣县,947.4,27.0,61.0,40.95279181674418,21.751692188907228
P1173,2025-06-03 06:00:00,28.5092,109.4736,478.5,湘西土家族苗族自治州,兄弟河水库,花垣县,952.5,27.4,66.0,45.993531944903914,24.093906939046573
P1203,2025-06-03 06:00:00,28.6939,109.8253,382.8,湘西土家族苗族自治州,米多,古丈县,961.9,26.6,66.0,43.55556148842968,22.986712230279313
P1208,2025-06-03 06:00:00,28.4803,109.8911,271,湘西土家族苗族自治州,中寨,古丈县,973.8,28.2,58.0,37.87619931434875,22.187141079552422
P1231,2025-06-03 06:00:00,28.3511,109.9481,345.4,湘西土家族苗族自治州,大坪,吉首市,965.7,25.8,82.0,45.308580519178776,27.239242283322884
P1232,2025-06-03 06:00:00,28.3381,109.5619,622.2,湘西土家族苗族自治州,排兄,吉首市,935.0,24.8,67.0,43.571881718363464,20.96978277496484
P1233,2025-06-03 06:00:00,28.2128,109.695,265.6,湘西土家族苗族自治州,周家寨,吉首市,974.6,29.4,58.0,40.98613153758467,23.787191182297857
P1236,2025-06-03 06:00:00,28.2122,109.8067,176.6,湘西土家族苗族自治州,河溪,吉首市,985.0,27.9,63.0,45.10806667633799,23.681633758503448
P1240,2025-06-03 06:00:00,28.3172,109.6519,388,湘西土家族苗族自治州,寨阳炮点,吉首市,961.4,27.1,66.0,42.462641676168545,23.673365113577976
P1241,2025-06-03 06:00:00,28.3233,109.5911,212.6,湘西土家族苗族自治州,矮寨,吉首市,980.4,28.3,61.0,42.36642557507156,23.471105045656458
P1246,2025-06-03 06:00:00,28.2561,109.6425,176.2,湘西土家族苗族自治州,八月湖水库,吉首市,983.0,28.4,60.0,39.31874002209454,23.221134934242475
P1248,2025-06-03 06:00:00,28.2953,109.7417,275.3,湘西土家族苗族自治州,镇溪,吉首市,975.5,27.5,60.0,41.60375971253552,22.032301111721427
P1291,2025-06-03 06:00:00,28.2233,110.0886,290.9,湘西土家族苗族自治州,大长坡,泸溪县,972.0,27.3,62.0,42.46923883415993,22.501309210333982
P1295,2025-06-03 06:00:00,28.0111,109.9969,235.1,湘西土家族苗族自治州,公羊,泸溪县,978.4,28.1,65.0,41.92876154418469,24.720343084699063
P1298,2025-06-03 06:00:00,28.1747,109.9475,213.8,湘西土家族苗族自治州,白羊溪,泸溪县,980.2,28.7,61.0,46.33001238995995,24.02350377167219
P1300,2025-06-03 06:00:00,28.1306,109.7322,140.2,湘西土家族苗族自治州,水卡,泸溪县,983.6,28.8,58.0,39.89927632559119,22.975002757981514
P1302,2025-06-03 06:00:00,28.11,109.89,383.2,湘西土家族苗族自治州,永兴场,泸溪县,962.5,26.9,57.0,35.57167782619006,20.20613891806284
P1303,2025-06-03 06:00:00,28.1264,109.8864,345,湘西土家族苗族自治州,小章,泸溪县,965.6,28.6,54.0,44.08438043737354,21.143523129395643
P1304,2025-06-03 06:00:00,28.2622,109.9231,150,湘西土家族苗族自治州,潭溪,泸溪县,990.8,29.6,63.0,44.848862991666444,26.137869407867413
P1306,2025-06-03 06:00:00,28.2403,110.0172,130,湘西土家族苗族自治州,甘溪,泸溪县,991.9,28.7,62.0,44.14602469244051,24.41733170235534
P1307,2025-06-03 06:00:00,28.3397,110.0339,230.1,湘西土家族苗族自治州,梁家潭,泸溪县,980.2,26.9,64.0,44.04468953299404,22.68759457466705
P1321,2025-06-03 06:00:00,28.0744,110.0911,139,湘西土家族苗族自治州,罗家,泸溪县,990.4,27.3,61.0,42.81550257935197,22.138384868231824
P1333,2025-06-03 06:00:00,27.9553,109.9908,172.6,湘西土家族苗族自治州,石榴坪,泸溪县,986.8,27.4,74.0,48.819527578375826,27.014380507415854
P1345,2025-06-03 06:00:00,28.0725,109.3836,799.3,湘西土家族苗族自治州,腊尔山,凤凰县,916.8,26.2,38.0,21.672954932743117,12.925753928784303
P1346,2025-06-03 06:00:00,28.1683,109.6061,226,湘西土家族苗族自治州,拉务,凤凰县,979.0,28.5,88.0,55.4921393932919,34.256382106893014
P1347,2025-06-03 06:00:00,28.0433,109.4572,605.5,湘西土家族苗族自治州,山江,凤凰县,937.8,26.9,54.0,39.61265791707416,19.142657922375324
P1348,2025-06-03 06:00:00,28.095,109.6017,337.4,湘西土家族苗族自治州,吉信,凤凰县,967.8,29.7,84.0,60.69968589709958,35.05204814968487
P1349,2025-06-03 06:00:00,27.9136,109.3144,673.9,湘西土家族苗族自治州,龙塘河水库,凤凰县,930.1,25.8,45.0,22.708640131395804,14.948364667677195
P1357,2025-06-03 06:00:00,27.9906,109.5111,378.5,湘西土家族苗族自治州,长潭岗水库,凤凰县,962.6,28.7,53.0,35.23373874920059,20.872880326206985
P1358,2025-06-03 06:00:00,28.0781,109.7528,401.4,湘西土家族苗族自治州,雷公洞,凤凰县,959.8,29.1,84.0,61.11944248058987,33.85781769181596
P1359,2025-06-03 06:00:00,27.8781,109.4486,427.3,湘西土家族苗族自治州,新场中学,凤凰县,959.4,27.2,51.0,32.89761838529592,18.40082087173366
P1367,2025-06-03 06:00:00,27.8942,109.5522,398.9,湘西土家族苗族自治州,林峰,凤凰县,960.8,28.5,83.0,62.36988609592351,32.309996759910455
P1368,2025-06-03 06:00:00,27.9197,109.6119,322,湘西土家族苗族自治州,古城,凤凰县,967.9,28.8,55.0,42.83713451232065,21.786640546361784
P1370,2025-06-03 06:00:00,28.2753,109.7925,162.3,湘西土家族苗族自治州,马鞍,吉首市,986.7,27.9,61.0,38.851111114292486,22.9298358614081
P1371,2025-06-03 06:00:00,28.1964,109.9825,359.9,湘西土家族苗族自治州,马入田,泸溪县,965.0,28.1,53.0,38.58130880384471,20.15658743829308
P1372,2025-06-03 06:00:00,28.755,109.85,433.1,湘西土家族苗族自治州,红石林,古丈县,958.0,27.0,63.0,43.79454184987143,22.464862424609105
P1373,2025-06-03 06:00:00,28.4178,109.9347,236,湘西土家族苗族自治州,坪坝学校,古丈县,980.4,27.2,72.0,57.45854451754822,25.977629465976932
P1374,2025-06-03 06:00:00,28.1769,109.4631,766.4,湘西土家族苗族自治州,大坪,凤凰县,920.4,24.8,83.0,47.55871832915647,25.97749209435943
P1375,2025-06-03 06:00:00,28.0228,109.5153,444,湘西土家族苗族自治州,建塘,凤凰县,955.2,27.5,50.0,34.29133521018331,18.360250926434524
P1376,2025-06-03 06:00:00,28.4506,109.8275,339.8,湘西土家族苗族自治州,团结,吉首市,967.4,28.0,61.0,38.732379423450226,23.06412020301482
P1383,2025-06-03 06:00:00,28.7953,110.2147,765.7,湘西土家族苗族自治州,竹坪,永顺县,920.8,24.8,60.0,35.424768835975485,18.77890994772971
P1385,2025-06-03 06:00:00,28.4478,109.7886,222.1,湘西土家族苗族自治州,冷寨河茶园,保靖县,980.2,27.5,60.0,44.86974956825251,22.032301111721427
P1386,2025-06-03 06:00:00,28.7764,109.7872,444.3,湘西土家族苗族自治州,友和,永顺县,955.7,26.1,64.0,41.57034688076564,21.64125014113739
P1387,2025-06-03 06:00:00,29.1019,109.9569,411.8,湘西土家族苗族自治州,颗砂,永顺县,959.1,26.3,68.0,39.903768568278224,23.26747260734894
P1390,2025-06-03 06:00:00,29.5056,109.4525,526,湘西土家族苗族自治州,白泥,龙山县,947.4,24.4,72.0,48.917070212622605,22.00152319328112
P1393,2025-06-03 06:00:00,29.5736,109.7031,817.3,湘西土家族苗族自治州,乌鸦,龙山县,917.6,25.0,52.0,31.496802822292796,16.470633068173882
P1395,2025-06-03 06:00:00,29.1778,109.6242,590,湘西土家族苗族自治州,马蹄,龙山县,941.5,25.6,65.0,36.96394487935146,21.337203316688118
P1397,2025-06-03 06:00:00,28.9228,109.4531,327,湘西土家族苗族自治州,金星,龙山县,967.8,26.1,69.0,44.13813385393821,23.33197280841375
P1400,2025-06-03 06:00:00,28.3761,109.6114,780.8,湘西土家族苗族自治州,排料,花垣县,921.4,23.7,63.0,36.073744579171446,18.45813636951795
P1414,2025-06-03 06:00:00,28.9036,110.0658,714.9,湘西土家族苗族自治州,花桥,永顺县,926.8,25.1,71.0,38.51771639831095,22.62331850483405
P1415,2025-06-03 06:00:00,28.4339,109.7911,219,湘西土家族苗族自治州,隘口,吉首市,980.0,28.7,57.0,43.45357755828416,22.448192048939585
P1416,2025-06-03 06:00:00,29.4122,109.9217,352.6,湘西土家族苗族自治州,万民,永顺县,964.1,25.8,67.0,42.47752654248853,22.256454060763822
P1418,2025-06-03 06:00:00,27.8297,109.6186,448.7,湘西土家族苗族自治州,水打田,凤凰县,954.3,25.9,62.0,41.337630072245574,20.718032212828437
P1421,2025-06-03 06:00:00,27.9817,109.3531,650.8,湘西土家族苗族自治州,麻冲,凤凰县,932.3,25.0,40.0,19.162118587393618,12.669717744749141
P1422,2025-06-03 06:00:00,28.1561,109.7278,172.8,湘西土家族苗族自治州,大兴,吉首市,985.5,29.0,51.0,37.4930119466339,20.437808898044054
P1423,2025-06-03 06:00:00,28.3494,109.7561,174.4,湘西土家族苗族自治州,峒河,吉首市,985.3,27.7,65.0,40.676424955235284,24.149434381794897
P1424,2025-06-03 06:00:00,28.3158,109.8158,272.3,湘西土家族苗族自治州,深坳,吉首市,974.6,27.6,60.0,36.94793325976327,22.161711429671374
P1425,2025-06-03 06:00:00,28.3147,109.6806,262.5,湘西土家族苗族自治州,曙光,吉首市,975.6,27.6,62.0,39.68373727994761,22.900435143993754
P1438,2025-06-03 06:00:00,28.2097,109.6703,261.4,湘西土家族苗族自治州,高新区,吉首市,974.7,29.2,58.0,37.71409156375764,23.51372003687133
P1439,2025-06-03 06:00:00,28.2308,109.5711,667.8,湘西土家族苗族自治州,十八湾,吉首市,931.3,26.0,60.0,42.3436867593218,20.1688807283479
P1440,2025-06-03 06:00:00,28.2758,109.8289,166.4,湘西土家族苗族自治州,司马,吉首市,985.2,28.9,63.0,46.90066923508561,25.10078722038195
P1441,2025-06-03 06:00:00,28.3139,109.7672,227,湘西土家族苗族自治州,望江坳,吉首市,978.7,28.1,58.0,41.98289475505612,22.058152290962237
P1442,2025-06-03 06:00:00,28.1961,109.8253,365.1,湘西土家族苗族自治州,楠木,吉首市,964.2,27.1,64.0,45.43039656461272,22.95599041316652
P1443,2025-06-03 06:00:00,28.3708,109.8458,446.9,湘西土家族苗族自治州,檀木,吉首市,954.3,26.1,71.0,42.69440681311487,24.008261875324294
P1444,2025-06-03 06:00:00,28.3614,109.6964,195.1,湘西土家族苗族自治州,龙舞,吉首市,982.0,27.8,66.0,46.99184545154224,24.664779093660833
P1446,2025-06-03 06:00:00,28.8114,109.7364,295.3,湘西土家族苗族自治州,柏杨,永顺县,975.5,26.9,67.0,41.20349305658504,23.75107557035457
P1450,2025-06-03 06:00:00,29.1842,109.8922,440,湘西土家族苗族自治州,廻龙,永顺县,955.6,26.6,62.0,40.18894926866777,21.59357815571693
P1451,2025-06-03 06:00:00,28.9425,110.0286,559.4,湘西土家族苗族自治州,铜瓦,永顺县,942.8,25.5,64.0,36.5254392518491,20.88443456732826
P1452,2025-06-03 06:00:00,29.3308,109.8131,454.2,湘西土家族苗族自治州,西库,永顺县,954.4,26.9,55.0,37.27626700938066,19.497151587604495
P1461,2025-06-03 06:00:00,28.7444,109.8122,359.8,湘西土家族苗族自治州,坐苦坝,古丈县,963.9,27.3,59.0,38.53546937926632,21.4125361840275
P1462,2025-06-03 06:00:00,28.5697,109.8733,687.3,湘西土家族苗族自治州,翁草,古丈县,928.6,25.4,77.0,44.81339077222191,24.977568656486525
P1463,2025-06-03 06:00:00,28.0042,109.8947,202.1,湘西土家族苗族自治州,晒洲田,泸溪县,982.0,28.3,60.0,38.191011753705965,23.086332831793236
P1472,2025-06-03 06:00:00,27.9958,109.8042,279.5,湘西土家族苗族自治州,踏虎,泸溪县,974.0,28.1,61.0,42.5659774453581,23.199091202563736
P1473,2025-06-03 06:00:00,28.1917,110.1078,325.8,湘西土家族苗族自治州,顺江田,泸溪县,968.6,27.7,58.0,44.51950013541282,21.548726063755442
P1479,2025-06-03 06:00:00,28.5933,109.8417,636.5,湘西土家族苗族自治州,排茹,古丈县,933.6,26.8,58.0,39.49739933839151,20.43995084173267
P1480,2025-06-03 06:00:00,29.1408,110.0103,392.3,湘西土家族苗族自治州,车坪,永顺县,960.7,26.3,70.0,44.221631310109636,23.95181003697684
P1484,2025-06-03 06:00:00,29.4811,109.4144,510,湘西土家族苗族自治州,华塘,龙山县,948.2,25.1,69.0,48.48337908283363,21.98604192723309
P1485,2025-06-03 06:00:00,28.9583,109.3989,254.1,湘西土家族苗族自治州,贾市,龙山县,976.7,26.0,75.0,49.66887676877464,25.211100910434872
P1486,2025-06-03 06:00:00,29.33,109.9081,442.7,湘西土家族苗族自治州,团结,永顺县,953.9,25.7,72.0,42.28815667176612,23.775853101803236
P1487,2025-06-03 06:00:00,29.2878,109.8228,539.5,湘西土家族苗族自治州,农林,永顺县,944.2,26.3,59.0,37.96442539748483,20.18795417402334
P1488,2025-06-03 06:00:00,28.9267,110.2083,345.3,湘西土家族苗族自治州,官坝,永顺县,967.7,27.4,57.0,37.841565543996424,20.80837417463113
P1489,2025-06-03 06:00:00,28.8511,110.3261,326.9,湘西土家族苗族自治州,楠木,永顺县,969.7,28.0,53.0,33.84067711206678,20.039317553439105
P1490,2025-06-03 06:00:00,29.2603,109.73,392.5,湘西土家族苗族自治州,新场,永顺县,960.2,26.8,66.0,40.03691424043777,23.259254406109594
P1501,2025-06-03 06:00:00,29.5308,110.0994,318.6,张家界市,凉水口,桑植县,971.9,26.6,73.0,49.19348313221799,25.424696860763483
P1503,2025-06-03 06:00:00,29.5092,110.2944,334.5,张家界市,芙蓉桥,桑植县,969.6,26.2,67.0,41.40106691635332,22.790145084961797
P1504,2025-06-03 06:00:00,29.7025,110.5811,1067.1,张家界市,人潮溪镇白石,桑植县,892.1,22.1,55.0,19.602518329403573,14.624517931510619
P1505,2025-06-03 06:00:00,29.67,109.8344,1053,张家界市,八大公山,桑植县,893.2,22.2,62.0,26.16040259509975,16.58664122926856
P1506,2025-06-03 06:00:00,29.6097,110.4733,538.8,张家界市,官地坪,桑植县,944.6,26.2,64.0,42.326147654953914,21.769690827426196
P1508,2025-06-03 06:00:00,29.4389,110.2358,290.4,张家界市,瑞塔铺,桑植县,974.4,26.9,73.0,49.116209152799726,25.878037561729602
P1509,2025-06-03 06:00:00,29.4633,110.4847,376,张家界市,走马坪,桑植县,963.3,27.3,55.0,39.94860127917657,19.960838815618857
P1510,2025-06-03 06:00:00,29.6764,110.1533,394,张家界市,龙潭坪,桑植县,960.1,27.1,65.0,40.36756451369856,23.314677763372252
P1511,2025-06-03 06:00:00,29.6558,110.0108,503.9,张家界市,桑植坪,桑植县,951.2,25.5,66.0,40.56141245476423,21.53707314755727
P1512,2025-06-03 06:00:00,29.7036,109.9156,438.1,张家界市,五道水,桑植县,961.3,26.1,71.0,42.38214136842802,24.008261875324294
P1513,2025-06-03 06:00:00,29.3911,110.0075,489.3,张家界市,廖家村,桑植县,953.6,24.9,76.0,48.792592572567266,23.92916792615907
P1514,2025-06-03 06:00:00,29.4925,109.9892,307.4,张家界市,陈家河,桑植县,970.2,26.1,77.0,49.79597526312841,26.037129076055926
P1515,2025-06-03 06:00:00,29.5467,109.8644,377.4,张家界市,河口,桑植县,964.9,26.6,67.0,43.86495389285086,23.33499574891991
P1516,2025-06-03 06:00:00,29.4869,110.1578,458.6,张家界市,洪家关,桑植县,956.0,25.4,83.0,61.71928939684277,26.92387270764132
P1517,2025-06-03 06:00:00,29.4761,110.2389,298,张家界市,刘家坪,桑植县,973.9,23.3,82.0,42.379796526871175,23.451812659126865
P1518,2025-06-03 06:00:00,29.6175,110.6047,271,张家界市,人潮溪,桑植县,979.2,27.0,72.0,42.991021846580594,25.67412848526755
P1521,2025-06-03 06:00:00,29.3569,110.0775,311.6,张家界市,利福塔,桑植县,972.4,27.1,77.0,54.133893537751604,27.618925965840972
P1522,2025-06-03 06:00:00,29.5875,110.0053,564.7,张家界市,沙塔坪,桑植县,943.8,24.9,77.0,49.98916639051166,24.244025398871692
P1523,2025-06-03 06:00:00,29.5469,110.3881,455,张家界市,马合口,桑植县,957.1,26.1,69.0,39.22862527493532,23.33197280841375
P1524,2025-06-03 06:00:00,29.4897,110.3567,490.6,张家界市,麦地坪,桑植县,952.7,26.9,66.0,41.02981111794435,23.396581905125394
P1526,2025-06-03 06:00:00,29.6494,110.0861,485.5,张家界市,苦竹坪,桑植县,953.9,26.2,63.0,42.494688059046446,21.42953940824766
P1527,2025-06-03 06:00:00,29.4667,109.8192,616.8,张家界市,上河溪,桑植县,940.4,25.7,78.0,59.84604618788727,25.757174193620173
P1528,2025-06-03 06:00:00,29.4292,110.3028,346.7,张家界市,空壳树,桑植县,968.5,26.5,66.0,43.89238281854422,22.851491430242753
P1529,2025-06-03 06:00:00,29.6306,110.3592,241.2,张家界市,淋溪河,桑植县,980.3,27.0,85.0,54.462621206600716,30.309735017329743
P1530,2025-06-03 06:00:00,29.4875,110.5503,375.6,张家界市,竹叶坪,桑植县,967.1,27.1,64.0,40.92412733590513,22.95599041316652
P1531,2025-06-03 06:00:00,29.6497,109.8639,644.8,张家界市,细砂坪,桑植县,936.2,25.6,51.0,27.26885577424347,16.741497986939905
P1532,2025-06-03 06:00:00,29.5192,110.1553,475,张家界市,桥自弯,桑植县,954.3,25.8,70.0,38.856918209826965,23.253011705275632
P1533,2025-06-03 06:00:00,29.3258,109.9839,385.8,张家界市,上洞街,桑植县,963.8,26.3,83.0,57.503956915457785,28.40000332955826
P1534,2025-06-03 06:00:00,29.77,110.0656,1327,张家界市,天平山,桑植县,866.5,19.0,77.0,33.543193359973664,16.909248424540223
P1537,2025-06-03 06:00:00,29.3897,110.1606,367.6,张家界市,澧源,桑植县,966.5,26.3,79.0,41.46800815167906,27.03132847030244
P1538,2025-06-03 06:00:00,29.5481,110.4925,475.3,张家界市,分水岭,桑植县,953.7,27.0,66.0,40.5634490579728,23.53461777816192
P1540,2025-06-03 06:00:00,29.6375,110.275,795.2,张家界市,天星山林场,桑植县,920.6,24.9,57.0,29.199897597109103,17.9468759446193
P1542,2025-06-03 06:00:00,29.4267,110.1075,286.6,张家界市,洪家关乡南岔,桑植县,975.0,27.0,76.0,54.299534473317316,27.1004689566713
P1543,2025-06-03 06:00:00,29.465,109.91,626.7,张家界市,夹石河,桑植县,941.3,25.7,80.0,60.97212955731284,26.417614557559155
P1544,2025-06-03 06:00:00,29.7122,110.1894,786.9,张家界市,赶坪,桑植县,921.3,23.2,74.0,41.040379344189624,21.036243306314823
P1545,2025-06-03 06:00:00,29.5228,110.6036,838.8,张家界市,竹叶坪乡鸡公垭,桑植县,917.3,23.7,75.0,42.84529914818041,21.973971868473747
P1546,2025-06-03 06:00:00,29.7336,109.8025,681,张家界市,五道水镇连家湾,桑植县,932.8,24.0,75.0,47.489747472862476,22.374407286136094
P1547,2025-06-03 06:00:00,29.7419,110.0153,1127.8,张家界市,四门岩林场,桑植县,886.6,21.7,62.0,21.09521913620295,16.087887621537043
P1549,2025-06-03 06:00:00,29.5375,109.8092,631.2,张家界市,河口乡塘坊,桑植县,938.2,24.2,68.0,39.55275834788202,20.53137677735826
P1601,2025-06-03 06:00:00,29.3428,110.5597,450.3,张家界市,武陵源,武陵源区,957.0,27.5,63.0,40.57599225289392,23.1339161673075
P1602,2025-06-03 06:00:00,29.2456,110.5181,332.9,张家界市,协合,武陵源区,971.1,27.0,67.0,40.99618318552874,23.891202896012857
P1603,2025-06-03 06:00:00,29.3553,110.5294,375.4,张家界市,军地坪,武陵源区,966.6,27.2,64.0,40.4746921038068,23.091226191979494
P1604,2025-06-03 06:00:00,29.4078,110.4433,547,张家界市,天子山,武陵源区,947.8,25.2,50.0,25.274839672525008,16.027177601639718
P1605,2025-06-03 06:00:00,29.3589,110.3836,359.4,张家界市,中湖,武陵源区,962.0,26.1,70.0,42.272698775167676,23.67011734186902
P1606,2025-06-03 06:00:00,29.3664,110.5828,264.5,张家界市,索溪峪,武陵源区,975.1,27.9,56.0,36.539206282396435,21.050341118669735
P1607,2025-06-03 06:00:00,29.3031,110.4344,652.9,张家界市,锣鼓塔,武陵源区,935.3,24.7,91.0,37.51901191694956,28.311554125573494
P1610,2025-06-03 06:00:00,29.3897,110.4583,1087,张家界市,武陵源景区,武陵源区,888.2,21.2,70.0,33.439256752381,17.61553571085538
P1702,2025-06-03 06:00:00,29.5033,110.7636,152.1,张家界市,江垭,慈利县,988.1,27.8,54.0,29.980607229661945,20.18027380390432
P1703,2025-06-03 06:00:00,29.2647,110.725,156.6,张家界市,阳和,慈利县,987.3,27.8,69.0,43.85832744454088,25.78590541609996
P1708,2025-06-03 06:00:00,29.3925,110.9825,170.4,张家界市,岩泊渡,慈利县,987.7,28.0,55.0,37.07487710765035,20.795518215833035
P1709,2025-06-03 06:00:00,29.4267,110.6156,352.4,张家界市,三官寺,慈利县,965.6,27.2,60.0,41.97622800715408,21.648024554980775
P1717,2025-06-03 06:00:00,29.1594,110.8261,840.7,张家界市,洞溪,慈利县,913.3,21.9,70.0,37.053472753561124,18.387180545129382
P1718,2025-06-03 06:00:00,29.4986,111.3256,102.8,张家界市,广福桥,慈利县,994.1,28.6,45.0,26.54241733750716,17.6196026078297
P1722,2025-06-03 06:00:00,29.5528,111.0339,179.4,张家界市,东岳观,慈利县,986.3,27.1,68.0,52.66626798494702,24.390739813989434
P1731,2025-06-03 06:00:00,29.4453,110.9283,589.6,张家界市,高峰,慈利县,942.2,24.8,66.0,36.15004027220964,20.65680094250268
P1733,2025-06-03 06:00:00,29.2819,110.9356,595.3,张家界市,赵家垭水库,慈利县,940.3,24.6,44.0,20.57978404596239,13.607434289704424
P1734,2025-06-03 06:00:00,29.6422,110.9561,395.1,张家界市,国太桥,慈利县,983.8,27.9,59.0,40.71125616569601,22.178037964312754
P1746,2025-06-03 06:00:00,29.4006,110.6997,614.9,张家界市,大峡谷,慈利县,939.2,25.2,82.0,47.76634088206335,26.284571266689134
P1801,2025-06-03 06:00:00,29.0119,110.4953,498.1,张家界市,天门山,永定区,949.2,27.2,61.0,44.99491724460674,22.008824964230456
P1802,2025-06-03 06:00:00,29.2275,110.6203,292,张家界市,合作桥,永定区,975.0,26.5,75.0,41.69759826267991,25.967603898003127
P1803,2025-06-03 06:00:00,29.0169,110.7228,372.2,张家界市,沅古坪,永定区,965.9,27.5,43.0,24.770728307079562,15.789815796733688
P1804,2025-06-03 06:00:00,29.2819,110.3253,386.9,张家界市,教字垭,永定区,945.0,26.6,70.0,43.91914742765341,24.379846304841692
P1805,2025-06-03 06:00:00,29.1869,110.3919,219.4,张家界市,尹家溪,永定区,979.9,28.2,62.0,40.29861423582904,23.71728874021121
P1806,2025-06-03 06:00:00,29.1486,110.5622,190.4,张家界市,阳湖坪,永定区,986.4,28.9,58.0,47.293019669551605,23.108661250510362
P1807,2025-06-03 06:00:00,29.165,110.2031,187.1,张家界市,茅岩河,永定区,982.9,28.1,65.0,48.50211324657933,24.720343084699063
P1808,2025-06-03 06:00:00,29.0464,110.8164,383.1,张家界市,王家坪,永定区,964.4,26.7,61.0,38.38643226214565,21.370917642606464
P1809,2025-06-03 06:00:00,29.1167,110.3794,214,张家界市,枫香岗,永定区,983.3,28.0,55.0,38.479423270993465,20.795518215833035
P1810,2025-06-03 06:00:00,29.1853,110.1164,336.1,张家界市,罗塔坪,永定区,966.0,27.5,63.0,43.97405621194609,23.1339161673075
P1811,2025-06-03 06:00:00,29.2661,110.2558,369.4,张家界市,罗水,永定区,966.1,27.0,64.0,43.96510786567326,22.821447542460042
P1812,2025-06-03 06:00:00,29.0867,110.3375,162,张家界市,后坪,永定区,986.5,29.0,51.0,36.70172714235798,20.437808898044054
P1813,2025-06-03 06:00:00,29.1603,110.4053,173.8,张家界市,大庸桥,永定区,987.3,28.2,62.0,40.48873909089843,23.71728874021121
P1814,2025-06-03 06:00:00,29.3397,110.3097,504.2,张家界市,桥头,永定区,949.5,25.9,71.0,42.01424421086372,23.725488501787407
P1815,2025-06-03 06:00:00,28.9797,110.6728,392,张家界市,和平岗,永定区,971.8,28.7,57.0,42.58890992211146,22.448192048939585
P1816,2025-06-03 06:00:00,29.0183,110.6217,602.7,张家界市,谢家垭,永定区,938.3,25.3,61.0,34.854409868837706,19.669985412000848
P1817,2025-06-03 06:00:00,29.1556,110.3086,407.4,张家界市,三家馆,永定区,960.1,26.6,69.0,41.9473734522227,24.031562786201096
P1818,2025-06-03 06:00:00,28.9306,110.4356,348.6,张家界市,四都坪,永定区,962.1,28.2,59.0,42.15892836801479,22.56967799471712
P1820,2025-06-03 06:00:00,29.2656,110.15,376.2,张家界市,青安,永定区,962.7,27.3,72.0,47.5252230524486,26.130552631355595
P1821,2025-06-03 06:00:00,29.0967,110.4478,203.4,张家界市,南庄坪,永定区,984.2,28.1,68.0,50.3107026798004,25.861281996300562
P1822,2025-06-03 06:00:00,29.1864,110.5069,252.8,张家界市,新桥,永定区,978.7,27.9,79.0,55.48024018335231,29.696016935266226
P1824,2025-06-03 06:00:00,29.1114,110.5189,253.3,张家界市,西溪坪,永定区,978.7,28.3,65.0,43.06651100219403,25.010193901109343
P1826,2025-06-03 06:00:00,28.9906,110.8103,220.9,张家界市,马头溪,永定区,983.2,27.9,57.0,40.84702521241625,21.426240067217403
P1851,2025-06-03 06:00:00,29.3461,110.3644,468,张家界市,小溪峪水库,永定区,956.4,25.0,81.0,60.93871607753499,25.65617843311701
P1852,2025-06-03 06:00:00,29.0808,110.4783,255,张家界市,官黎坪,永定区,976.4,27.6,59.0,42.93775160965587,21.792349572510187
P1856,2025-06-03 06:00:00,29.1397,110.4892,186.8,张家界市,崇文,永定区,984.3,28.5,59.0,42.7485661073314,22.967347094394178
P1857,2025-06-03 06:00:00,29.2292,110.4403,248,张家界市,沙堤,永定区,976.6,26.9,67.0,40.545169693154385,23.75107557035457
P1858,2025-06-03 06:00:00,28.9697,110.4528,892.5,张家界市,姚家界,永定区,909.3,25.2,62.0,34.83466747839083,19.87370022603325
P1904,2025-06-03 06:00:00,29.9367,110.7842,285,常德市,壶瓶山,石门县,979.0,25.8,73.0,49.67938036316611,24.24956934978745
P1909,2025-06-03 06:00:00,29.8836,110.5408,1123,常德市,南北,石门县,886.6,21.1,61.0,24.617090130317674,15.256668512236727
P1910,2025-06-03 06:00:00,29.9258,110.6756,1469,常德市,东山峰,石门县,848.1,19.6,60.0,24.67082673318771,13.677875841058826
P1913,2025-06-03 06:00:00,29.7033,112.0272,38,常德市,青龙窖,澧县,1003.7,28.5,47.0,29.979879743481128,18.29602226163604
P1914,2025-06-03 06:00:00,29.8247,111.5922,99,常德市,金罗,澧县,995.8,29.2,65.0,43.02150768456698,26.351582799942012
P1920,2025-06-03 06:00:00,29.9772,111.0706,274,常德市,太平,石门县,975.7,28.8,50.0,29.487251122204494,19.806036860328895
P1931,2025-06-03 06:00:00,29.7106,111.5417,76,常德市,官亭水库,临澧县,998.5,27.9,59.0,37.93825505577352,22.178037964312754
P1933,2025-06-03 06:00:00,29.6758,111.6553,26.1,常德市,城头山,澧县,1002.7,28.8,76.0,50.52294459644804,30.105176027699923
P1940,2025-06-03 06:00:00,29.6808,111.1444,717.7,常德市,白云山林场,石门县,928.3,23.8,65.0,36.62532780474072,19.15918092507977
P1950,2025-06-03 06:00:00,29.5639,111.6178,55,常德市,停弦渡,临澧县,999.3,28.1,66.0,43.00473851191062,25.100656055232893
P1953,2025-06-03 06:00:00,29.5764,112.105,30,常德市,水管站,安乡县,1004.1,27.8,61.0,24.475878485465095,22.796235222928953
P1960,2025-06-03 06:00:00,29.5481,111.6556,70,常德市,水阁,临澧县,997.2,28.1,61.0,36.147229230272785,23.199091202563736
P1968,2025-06-03 06:00:00,29.5453,112.1906,41,常德市,安全,安乡县,1003.8,28.5,56.0,29.610814333004768,21.79951588620465
P1973,2025-06-03 06:00:00,29.4153,111.3825,100.9,常德市,蒙泉水库,石门县,995.9,29.0,56.0,36.01123595893503,22.44151565275426
P1979,2025-06-03 06:00:00,29.4189,111.9708,48.8,常德市,毛里湖,津市市,1003.5,29.1,50.0,24.11010173497813,20.153462911795213
P1981,2025-06-03 06:00:00,29.3769,111.5444,83,常德市,文家店,临澧县,997.9,28.6,54.0,34.748010021716226,21.143523129395643
P1985,2025-06-03 06:00:00,29.3478,111.7061,89,常德市,四新岗,临澧县,997.3,29.3,56.0,41.434399735101415,22.834589409045815
P1993,2025-06-03 06:00:00,29.28,112.1528,31,常德市,下渔口,安乡县,1004.0,28.7,61.0,36.485237599098674,24.02350377167219
P1999,2025-06-03 06:00:00,29.2581,111.5381,83.6,常德市,王家垱水库,桃源县,996.0,28.6,56.0,44.065436817519185,21.92661657863252
P2002,2025-06-03 06:00:00,29.1975,111.1814,98.5,常德市,黄石水库,桃源县,994.6,27.8,63.0,40.78476024393752,23.543652771221705
P2005,2025-06-03 06:00:00,29.1881,111.6328,20.4,常德市,蔡家岗,鼎城区,1002.9,29.7,55.0,42.49161112041336,22.95074581229367
P2025,2025-06-03 06:00:00,29.0611,110.9786,173.8,常德市,牛车河,桃源县,983.9,28.1,59.0,39.64025650542623,22.43846526149607
P2027,2025-06-03 06:00:00,29.0508,111.9961,27,常德市,罐头嘴,汉寿县,1003.9,28.1,66.0,55.60832004558062,25.100656055232893
P2028,2025-06-03 06:00:00,29.0361,111.6239,36,常德市,农科院,武陵区,1003.4,28.5,59.0,42.78746755871387,22.967347094394178
P2029,2025-06-03 06:00:00,29.0325,111.7306,29,常德市,东江,武陵区,1003.8,28.8,59.0,42.5388700272996,23.371123495188094
P2030,2025-06-03 06:00:00,29.0528,111.6778,51,常德市,文理学院,武陵区,1003.6,29.6,53.0,46.179827566525674,21.989001247888456
P2042,2025-06-03 06:00:00,28.9864,111.7983,28,常德市,观音寺电排,武陵区,1003.8,28.2,58.0,37.21170258269175,22.187141079552422
P2043,2025-06-03 06:00:00,28.8669,111.475,48.7,常德市,新桥电排,桃源县,1002.4,28.7,49.0,32.4674505190603,19.29756860347438
P2044,2025-06-03 06:00:00,28.9611,111.7544,50,常德市,伍家嘴,武陵区,1003.3,28.6,60.0,41.521163410804235,23.492803477106268
P2047,2025-06-03 06:00:00,28.945,110.9653,371.5,常德市,观音寺,桃源县,964.0,26.7,62.0,37.30078629580963,21.72126055478034
P2049,2025-06-03 06:00:00,28.91,111.7369,40,常德市,市二中,武陵区,1001.1,29.4,56.0,42.52414707896285,22.966943210494488
P2054,2025-06-03 06:00:00,28.8933,111.8183,55,常德市,聂家桥,汉寿县,1003.6,29.3,54.0,37.93204717952424,22.019068358722752
P2074,2025-06-03 06:00:00,28.7228,111.7731,86,常德市,江东市水库,汉寿县,997.2,32.0,44.0,30.429368138141758,20.94054627844253
P2075,2025-06-03 06:00:00,28.6942,112.1417,95,常德市,军山铺,汉寿县,996.6,28.1,53.0,31.402388416688936,20.15658743829308
P2076,2025-06-03 06:00:00,28.7069,111.5464,120,常德市,花岩溪,鼎城区,992.8,29.6,44.0,22.416195141097806,18.2550199039074
P2083,2025-06-03 06:00:00,28.6486,111.3175,56.6,常德市,沙坪,桃源县,999.2,30.2,48.0,33.04493680415389,20.614380861694514
P2089,2025-06-03 06:00:00,29.8928,111.0164,418,常德市,里山河水库,石门县,958.4,26.6,74.0,43.592029191505965,25.772980379404075
P2090,2025-06-03 06:00:00,29.8706,111.8003,100,常德市,盐井,澧县,996.5,29.5,50.0,34.632142743657454,20.62496995927902
P2091,2025-06-03 06:00:00,29.2086,111.9756,30,常德市,南湖,武陵区,1003.8,28.1,61.0,30.285225817857018,23.199091202563736
P2092,2025-06-03 06:00:00,29.0175,112.0069,38,常德市,洲口,汉寿县,1003.6,29.9,61.0,45.87282892500223,25.74941760296734
P2093,2025-06-03 06:00:00,28.7522,111.33,58,常德市,剪市,桃源县,1001.3,29.5,53.0,36.30169817178226,21.862468156835764
P2106,2025-06-03 06:00:00,29.1533,112.1192,31,常德市,十美堂,鼎城区,1004.0,29.2,52.0,30.462570780076693,21.08126623995361
P2107,2025-06-03 06:00:00,29.7494,110.8531,213.4,常德市,南岳寺,石门县,983.4,27.0,72.0,39.58950071222815,25.67412848526755
P2122,2025-06-03 06:00:00,29.8147,111.1167,583,常德市,大同山林场,石门县,940.6,24.5,66.0,37.1570506875276,20.289288476197722
P2127,2025-06-03 06:00:00,29.8519,111.3928,228,常德市,芦茅,澧县,981.9,28.7,55.0,36.90550804548195,21.660536187573285
P2128,2025-06-03 06:00:00,29.7669,111.5272,83,常德市,王家厂水库,澧县,997.8,30.1,47.0,34.4480019044151,20.06927023016124
P2130,2025-06-03 06:00:00,29.3072,111.765,56,常德市,鳌山小学,临澧县,999.5,28.9,55.0,47.44224832890095,21.913385668587416
P2135,2025-06-03 06:00:00,29.0197,111.5692,36,常德市,木塘垸,桃源县,1003.3,29.3,55.0,43.535312336291305,22.42682888388428
P2137,2025-06-03 06:00:00,28.7575,111.2289,73.4,常德市,凌津滩,桃源县,999.2,28.8,50.0,31.71826489862178,19.806036860328895
P2139,2025-06-03 06:00:00,28.7408,112.1842,73,常德市,赤港湾水库,汉寿县,998.8,29.5,51.0,31.88329287018705,21.0374693584646
P2140,2025-06-03 06:00:00,28.6681,111.9919,60,常德市,斋家冲水库,汉寿县,999.8,29.2,47.0,38.99793737280258,19.054221409188838
P2147,2025-06-03 06:00:00,28.85,111.65,56.3,常德市,草坪,鼎城区,1002.5,29.1,52.0,27.832997737046853,20.95960142826702
P2198,2025-06-03 06:00:00,28.6514,111.2442,114.3,常德市,杨溪桥,桃源县,995.1,29.5,54.0,48.332913123979864,22.274967556021345
P2203,2025-06-03 06:00:00,29.5131,111.7992,50,常德市,庹家峪水库,津市市,998.2,28.3,37.0,16.175901993195897,14.236571912939162
P2600,2025-06-03 06:00:00,29.4164,112.3169,34,益阳市,红堰湖,南县,1004.0,28.7,69.0,42.454869578889664,27.174127217137393
P2604,2025-06-03 06:00:00,29.2914,112.2467,35.5,益阳市,同跃,南县,1003.9,28.6,64.0,40.85072570297555,25.05899037558002
P2607,2025-06-03 06:00:00,29.2764,112.3436,32,益阳市,同湖,南县,1004.1,29.0,61.0,39.07888119009741,24.445222407464456
P2608,2025-06-03 06:00:00,29.1864,112.3614,34,益阳市,咸嘉垸,南县,1003.5,28.8,37.0,16.465054712345662,14.656467276643381
P2609,2025-06-03 06:00:00,29.1058,112.3444,26.8,益阳市,同春,南县,1004.1,28.7,54.0,35.95209727192671,21.266708256890137
P2614,2025-06-03 06:00:00,29.2403,112.4053,30,益阳市,青树嘴,南县,1004.0,29.0,53.0,28.196826272360727,21.239291599928134
P2615,2025-06-03 06:00:00,29.3075,112.2731,31,益阳市,六百弓,南县,1004.2,28.6,60.0,29.21065741519551,23.492803477106268
P2617,2025-06-03 06:00:00,29.295,112.5342,35,益阳市,大木桥,南县,1003.9,28.3,61.0,39.11875594607668,23.471105045656458
P2619,2025-06-03 06:00:00,29.2919,112.6567,31,益阳市,华东,南县,1004.2,28.8,60.0,40.14128708394781,23.76724423239467
P2631,2025-06-03 06:00:00,29.3522,112.4061,32.5,益阳市,一中,南县,1003.9,29.1,28.0,15.761655691041119,11.28593923060532
P2650,2025-06-03 06:00:00,29.1853,112.6258,33.9,益阳市,河坝,大通湖区,1004.1,29.5,54.0,45.90743256621049,22.274967556021345
P2652,2025-06-03 06:00:00,29.2256,112.5492,36,益阳市,沙堡州,大通湖区,1004.3,27.9,57.0,39.075964068356775,21.426240067217403
P2653,2025-06-03 06:00:00,29.1128,112.6697,33,益阳市,金盆,大通湖区,1004.3,28.9,56.0,37.609893476260105,22.311810862561735
P2654,2025-06-03 06:00:00,29.1294,112.4258,31,益阳市,千山红,大通湖区,1004.3,28.7,60.0,44.89575807816107,23.629675840989037
P2660,2025-06-03 06:00:00,29.0058,112.4864,34,益阳市,新村,沅江市,1004.2,28.8,54.0,38.33439454637914,21.390519809155208
P2667,2025-06-03 06:00:00,28.8325,112.3867,32,益阳市,城区水管站,沅江市,1004.0,28.7,46.0,19.41448017855946,18.116084811424933
P2673,2025-06-03 06:00:00,29.0719,112.4425,31,益阳市,乐安,沅江市,1004.4,28.3,47.0,19.35283909495277,18.08429405157137
P2674,2025-06-03 06:00:00,29.0364,112.2967,35,益阳市,南嘴,沅江市,1000.5,32.0,54.0,31.47618937468914,25.699761341724923
P2677,2025-06-03 06:00:00,29.0789,112.6986,42.9,益阳市,石东港,沅江市,1003.8,28.6,55.0,28.63387499885779,21.53506985401408
P2680,2025-06-03 06:00:00,28.9883,112.8406,30,益阳市,漉湖芦苇场,沅江市,1004.0,27.7,59.0,43.267162837796505,21.920255823475365
P2682,2025-06-03 06:00:00,28.9406,112.5828,32,益阳市,双洲,沅江市,1004.1,29.4,41.0,17.823744001550416,16.815083421969174
P2684,2025-06-03 06:00:00,29.1172,112.5633,41,益阳市,四季红,沅江市,1004.3,29.8,49.0,35.12226942102567,20.565195385568188
P2686,2025-06-03 06:00:00,28.7569,112.3478,46,益阳市,三眼塘,沅江市,1003.4,28.8,57.0,35.14187316108679,22.578882020774937
P2687,2025-06-03 06:00:00,28.9481,112.3022,62,益阳市,新湾,沅江市,998.0,28.8,51.0,38.38704898633884,20.20215759753547
P2720,2025-06-03 06:00:00,28.6861,112.2436,45,益阳市,新塘,资阳区,999.5,29.6,34.0,14.230712088561233,14.106151743928447
P2721,2025-06-03 06:00:00,28.6033,112.2003,64.7,益阳市,新桥河,资阳区,1001.6,30.0,54.0,33.65767070220583,22.926107391458345
P2725,2025-06-03 06:00:00,28.6278,112.3161,49.2,益阳市,长春,资阳区,1002.2,29.2,51.0,34.36482714671614,20.675857273800652
P2726,2025-06-03 06:00:00,28.7667,112.4547,55,益阳市,张家塞,资阳区,1003.3,28.1,61.0,34.964204248155404,23.199091202563736
P2729,2025-06-03 06:00:00,28.8019,112.5844,38.9,益阳市,茈湖口,资阳区,1003.4,28.7,11.0,9.852550278474062,4.332107237514657
P2730,2025-06-03 06:00:00,28.6058,112.3467,31.5,益阳市,体育公园,资阳区,1003.7,28.7,49.0,34.480684113914634,19.29756860347438
P2731,2025-06-03 06:00:00,28.6103,112.1164,70,益阳市,蓼园,资阳区,999.3,29.3,55.0,33.46663100249469,22.42682888388428
P2760,2025-06-03 06:00:00,28.5892,112.2936,36,益阳市,会龙山,赫山区,1002.7,29.1,53.0,30.81607599973074,21.362670686502927
P2761,2025-06-03 06:00:00,28.4789,112.2547,73,益阳市,自搭桥,赫山区,998.6,29.4,49.0,31.680602473742674,20.096075309182677
P2764,2025-06-03 06:00:00,28.4839,112.5231,58,益阳市,新安山,赫山区,1003.5,29.6,56.0,45.38374419415161,23.233661695882144
P2768,2025-06-03 06:00:00,28.5881,112.4486,36,益阳市,兰溪,赫山区,1003.7,28.6,1.0,5.624654472781142,0.3915467246184378
P2769,2025-06-03 06:00:00,28.5042,112.395,46,益阳市,龙岭工业园,赫山区,1002.3,29.6,46.0,33.69502043155664,19.08479353590319
P2771,2025-06-03 06:00:00,28.3992,112.2811,53.1,益阳市,泥江口,赫山区,998.8,30.8,64.0,41.48673208942527,28.447416874947155
P2773,2025-06-03 06:00:00,28.4111,112.4353,55.7,益阳市,鱼形山水库,赫山区,1000.3,28.3,54.0,31.265854569889925,20.777699548613917
P2774,2025-06-03 06:00:00,28.3506,112.4547,58,益阳市,朱公塘水库,赫山区,997.9,29.2,57.0,42.599482021007404,23.108311070718376
P2775,2025-06-03 06:00:00,28.6003,112.3694,46,益阳市,团洲,赫山区,1003.5,28.4,48.0,35.62959117967844,18.57690794739398
P2776,2025-06-03 06:00:00,28.4928,112.4283,44,益阳市,金山,赫山区,1001.2,28.8,47.0,27.608819417938534,18.617674648709162
P2777,2025-06-03 06:00:00,28.5083,112.4903,43,益阳市,笔架山,赫山区,1003.8,28.9,51.0,35.935961654437676,20.319684892690148
P2778,2025-06-03 06:00:00,28.3297,112.4097,80,益阳市,岳家桥,赫山区,997.8,28.6,32.0,20.619069259304812,12.52949518779001
P2780,2025-06-03 06:00:00,28.6306,112.5744,42,益阳市,八字哨,赫山区,1003.1,28.9,51.0,42.14060355248466,20.319684892690148
P2781,2025-06-03 06:00:00,28.4825,112.5644,39.7,益阳市,新和电排,赫山区,1003.7,28.1,60.0,42.29383994345468,22.818778232029903
P2782,2025-06-03 06:00:00,28.4753,112.5931,30,益阳市,红洲垸电排,赫山区,1003.2,28.3,51.0,37.720522987582335,19.62338290702425
P2784,2025-06-03 06:00:00,28.5456,112.6806,40,益阳市,流水口,赫山区,1003.4,28.2,56.0,28.20448751217194,21.422067249223034
P2789,2025-06-03 06:00:00,28.5414,112.4306,31,益阳市,大丰电排,赫山区,1003.4,28.6,65.0,40.83305259784981,25.45053710019846
P2820,2025-06-03 06:00:00,28.5617,112.3283,114.6,益阳市,市政府,赫山区,996.4,29.5,43.0,33.759725838995344,17.737474164979957
P2821,2025-06-03 06:00:00,28.5269,112.2589,56,益阳市,谢林港,赫山区,1001.9,28.8,56.0,25.3036448615481,22.182761283568365
P2823,2025-06-03 06:00:00,28.4403,112.4719,49,益阳市,管委会,赫山区,998.8,28.4,47.0,39.117630020916046,18.189889031823274
P2840,2025-06-03 06:00:00,28.6144,111.7447,112,益阳市,碧螺水库,桃江县,994.1,28.6,47.0,24.857845297171533,18.402696057066578
P2841,2025-06-03 06:00:00,28.5358,111.72,90.4,益阳市,武潭,桃江县,997.3,28.9,57.0,37.89002391857517,22.710236056536047
P2842,2025-06-03 06:00:00,28.4442,111.6533,55,益阳市,百乐,桃江县,999.0,28.9,58.0,42.2761074483759,23.108661250510362
P2843,2025-06-03 06:00:00,28.5608,111.8267,80.2,益阳市,鲊埠,桃江县,998.7,29.1,47.0,32.916037006665235,18.944255137087502
P2845,2025-06-03 06:00:00,28.435,111.7794,80.1,益阳市,沂溪河电站,桃江县,998.6,28.5,52.0,31.856494018325993,20.2424076086186
P2847,2025-06-03 06:00:00,28.4878,111.8461,68,益阳市,大栗港,桃江县,996.1,28.9,51.0,35.076779428945656,20.319684892690148
P2848,2025-06-03 06:00:00,28.4094,111.8381,92,益阳市,泗里河,桃江县,995.2,27.9,43.0,29.411890945561566,16.16365478754997
P2849,2025-06-03 06:00:00,28.5997,111.9967,82.7,益阳市,修山,桃江县,997.9,29.2,49.0,31.91792122961491,19.865039341494747
P2850,2025-06-03 06:00:00,28.5514,111.9658,33,益阳市,沾溪,桃江县,1001.3,29.6,45.0,28.91143354890536,18.669906719905292
P2851,2025-06-03 06:00:00,28.4717,111.9447,52.4,益阳市,鸬鹚渡,桃江县,999.3,28.9,52.0,32.29331843150382,20.718110086664467
P2852,2025-06-03 06:00:00,28.455,111.9333,124,益阳市,何家村,桃江县,996.0,29.3,48.0,34.41243728902948,19.572505207753554
P2853,2025-06-03 06:00:00,28.5383,112.0503,44,益阳市,水口山,桃江县,1000.4,29.3,49.0,36.371149327286645,19.980265732915086
P2854,2025-06-03 06:00:00,28.3933,112.04,175,益阳市,罗溪,桃江县,985.3,28.3,71.0,55.34188720966585,27.318827184288665
P2855,2025-06-03 06:00:00,28.3203,112.0681,146,益阳市,松木塘,桃江县,990.8,28.4,53.0,29.454447817979844,20.51200252524752
P2857,2025-06-03 06:00:00,28.5158,112.1367,51.5,益阳市,曹家仑,桃江县,1001.9,29.3,52.0,25.117381747818087,21.203547308399685
P2858,2025-06-03 06:00:00,28.4433,111.9942,76,益阳市,高桥,桃江县,996.5,29.1,49.0,29.345903906105917,19.75039365355931
P2859,2025-06-03 06:00:00,28.3208,112.0717,105,益阳市,桃花江水库,桃江县,994.9,28.6,49.0,38.28801983703468,19.185789506303454
P2860,2025-06-03 06:00:00,28.5742,112.2017,64,益阳市,花果山,桃江县,1002.7,29.4,52.0,18.81094162924733,21.326447266887737
P2861,2025-06-03 06:00:00,28.4258,112.1567,71,益阳市,石牛江,桃江县,1000.8,29.3,43.0,31.813022192113372,17.533702581945892
P2862,2025-06-03 06:00:00,28.4056,112.1633,41,益阳市,牛田,桃江县,1000.0,29.4,48.0,39.22537581014325,19.68595132328099
P2863,2025-06-03 06:00:00,28.2972,112.1433,176,益阳市,李家湾,桃江县,987.6,27.6,53.0,36.625401918696355,19.57617842954305
P2864,2025-06-03 06:00:00,28.2928,112.2267,114,益阳市,灰山港,桃江县,992.4,28.1,53.0,29.456417775643537,20.15658743829308
P2901,2025-06-03 06:00:00,28.2914,111.2853,271.2,益阳市,文溪,安化县,974.6,27.5,46.0,27.329210963537196,16.89143085231976
P2903,2025-06-03 06:00:00,28.4906,111.4861,143.3,益阳市,冷市,安化县,990.4,28.7,63.0,37.36154966134816,24.811159633038493
P2904,2025-06-03 06:00:00,28.3453,111.1011,195.9,益阳市,柘溪,安化县,984.5,28.6,63.0,46.268554759415665,24.667443650961584
P2905,2025-06-03 06:00:00,28.0603,111.7581,362,益阳市,清塘铺,安化县,966.8,27.7,58.0,43.29260294384191,21.548726063755442
P2907,2025-06-03 06:00:00,28.3919,111.4953,75.7,益阳市,小淹,安化县,997.3,29.9,50.0,44.42454125220457,21.106080002432247
P2908,2025-06-03 06:00:00,28.4631,111.3892,108.5,益阳市,龙塘,安化县,991.9,28.9,55.0,45.560811774803916,21.913385668587416
P2909,2025-06-03 06:00:00,28.2458,111.7108,158.9,益阳市,仙溪,安化县,990.9,28.5,46.0,30.610713283203935,17.90674519223953
P2910,2025-06-03 06:00:00,28.0986,111.5753,198.8,益阳市,乐安,安化县,982.7,28.2,52.0,38.807225498051274,19.891919588564242
P2911,2025-06-03 06:00:00,28.2603,111.7928,220.5,益阳市,九渡水,安化县,981.3,27.9,33.0,16.321491175867024,12.404665302073235
P2915,2025-06-03 06:00:00,28.0372,111.0864,221.9,益阳市,平口水厂,安化县,983.1,28.9,51.0,39.09971775027814,20.319684892690148
P2919,2025-06-03 06:00:00,28.3197,111.2906,148,益阳市,田庄,安化县,987.8,28.8,53.0,39.534468409400525,20.994399071948628
P2921,2025-06-03 06:00:00,28.2475,110.8294,272.4,益阳市,奎溪,安化县,976.0,28.3,41.0,32.63293365950586,15.775660768392044
P2925,2025-06-03 06:00:00,28.4467,111.2144,129.6,益阳市,红岩水库,安化县,990.2,28.4,56.0,43.83714563784758,21.673059271959648
P2926,2025-06-03 06:00:00,28.3411,111.6094,113.7,益阳市,滔溪,安化县,992.6,29.0,50.0,36.746597852096414,20.037067547102016
P2927,2025-06-03 06:00:00,28.1361,111.6633,188.7,益阳市,梅城,安化县,985.4,28.2,49.0,36.15411090093566,18.74430884307015
P2930,2025-06-03 06:00:00,28.0419,111.8275,307.3,益阳市,高明,安化县,972.2,27.6,43.0,16.26800959132127,15.88255985793115
P2931,2025-06-03 06:00:00,28.5319,111.6106,101.9,益阳市,羊角塘,安化县,996.0,29.0,55.0,37.60737133613854,22.040774301812217
P2936,2025-06-03 06:00:00,28.3739,111.4203,66.2,益阳市,红泥,安化县,997.6,29.0,59.0,48.34062022523357,23.643739705580376
P2954,2025-06-03 06:00:00,28.4353,111.2819,138,益阳市,马渡,安化县,990.1,28.8,69.0,58.21237930554358,27.332330867253873
P2956,2025-06-03 06:00:00,28.3475,111.4978,119.6,益阳市,大双,安化县,992.2,28.7,48.0,38.823090425717105,18.90374067279123
P3101,2025-06-03 06:00:00,28.4764,113.7175,320,岳阳市,白水水库,平江县,972.2,26.3,70.0,44.68925354831631,23.95181003697684
P3102,2025-06-03 06:00:00,28.7497,113.7131,142.9,岳阳市,童市,平江县,990.5,29.9,48.0,33.27081858909467,20.261836802334958
P3104,2025-06-03 06:00:00,28.6447,113.2828,77.1,岳阳市,向家,平江县,998.0,28.5,51.0,25.859897697436374,19.853130539222086
P3105,2025-06-03 06:00:00,28.9081,113.5981,148,岳阳市,大洲,平江县,989.8,29.7,49.0,39.789469933479985,20.447028087316177
P3106,2025-06-03 06:00:00,28.8419,113.6083,106.8,岳阳市,梅仙,平江县,994.0,29.3,51.0,36.57427088712141,20.79578678323815
P3109,2025-06-03 06:00:00,28.8483,113.9397,160,岳阳市,云洞水库,平江县,987.0,29.5,37.0,22.989080195753345,15.262477769866475
P3111,2025-06-03 06:00:00,28.7019,113.9439,130,岳阳市,长寿,平江县,992.2,28.6,42.0,29.33826170540398,16.444962433974386
P3112,2025-06-03 06:00:00,28.8733,113.5142,110,岳阳市,余坪,平江县,992.6,29.3,47.0,28.7730326188802,19.164744682592023
P3113,2025-06-03 06:00:00,29.0058,113.6906,183.8,岳阳市,板江,平江县,986.6,28.8,55.0,38.186607989693236,21.786640546361784
P3114,2025-06-03 06:00:00,29.0697,113.7783,177.6,岳阳市,上塔市,平江县,987.1,27.9,58.0,38.63473736823327,21.802139015765075
P3117,2025-06-03 06:00:00,28.9219,113.7825,384.5,岳阳市,大江洞水库,平江县,963.5,27.0,56.0,38.42065704749967,19.96876659965254
P3118,2025-06-03 06:00:00,28.9008,113.8356,274.8,岳阳市,虹桥正东,平江县,974.3,27.7,68.0,43.93981961069404,25.264023660954663
P3119,2025-06-03 06:00:00,28.9722,113.9222,360.2,岳阳市,石牛寨姜源,平江县,963.9,27.4,69.0,42.4192771579383,25.189084527185052
P3120,2025-06-03 06:00:00,28.5925,113.7253,100.8,岳阳市,三市,平江县,995.3,29.8,66.0,49.33695138793624,27.700059090765315
P3124,2025-06-03 06:00:00,28.5569,113.5975,130,岳阳市,秋湖水库,平江县,991.7,29.2,54.0,35.780897629044254,21.89208417225952
P3125,2025-06-03 06:00:00,28.6319,113.565,173.4,岳阳市,三阳,平江县,987.3,29.1,50.0,39.01666434926645,20.153462911795213
P3200,2025-06-03 06:00:00,28.8292,113.1581,32.8,岳阳市,罗江,汨罗市,1001.9,28.7,47.0,31.475822214887472,18.50991274210808
P3201,2025-06-03 06:00:00,28.5517,113.0753,638.8,岳阳市,玉池,汨罗市,934.4,23.2,62.0,24.124496581092803,17.6249606079935
P3204,2025-06-03 06:00:00,28.6881,113.1281,400,岳阳市,神鼎山,汨罗市,965.5,28.1,62.0,42.55557511883165,23.579404173097565
P3350,2025-06-03 06:00:00,29.3639,113.5269,71.1,岳阳市,忠防水库,临湘市,999.3,28.8,52.0,35.294364775191134,20.59827833474205
P3354,2025-06-03 06:00:00,29.5292,113.4131,286.7,岳阳市,荆竹山,临湘市,974.7,27.0,59.0,40.826633894323365,21.03852195320535
P3411,2025-06-03 06:00:00,29.4556,112.6736,24.7,岳阳市,钱粮湖,君山区,1003.2,28.9,56.0,41.221754202210896,22.311810862561735
P3413,2025-06-03 06:00:00,29.4875,112.7797,16.8,岳阳市,采桑湖,君山区,1004.5,28.3,56.0,38.1177202598877,21.547243976340358
P3510,2025-06-03 06:00:00,28.6403,113.8283,110,岳阳市,老丁源水库,平江县,993.8,28.8,52.0,37.53553326658719,20.59827833474205
P3511,2025-06-03 06:00:00,28.7119,113.4317,75.6,岳阳市,瓮江,平江县,998.0,29.3,37.0,28.84926798196321,15.087139430976697
P3512,2025-06-03 06:00:00,28.7497,113.2425,32,岳阳市,伍市,平江县,1000.9,27.5,54.0,30.94728538059887,19.829071000549288
P3513,2025-06-03 06:00:00,28.8106,114.0467,132.1,岳阳市,龙门,平江县,990.9,29.3,43.0,24.125639262148756,17.533702581945892
P3514,2025-06-03 06:00:00,28.8783,113.3742,115,岳阳市,兰家洞水库,汨罗市,994.4,29.2,51.0,36.27177627429231,20.675857273800652
P3518,2025-06-03 06:00:00,28.7714,113.0139,43.1,岳阳市,汨罗镇,汨罗市,1000.8,28.7,68.0,44.097828057616745,26.780299286454248
P3520,2025-06-03 06:00:00,28.9992,112.9692,32.8,岳阳市,磊石山,汨罗市,1002.9,28.0,61.0,40.66025228238473,23.06412020301482
P3521,2025-06-03 06:00:00,29.7411,113.4411,53,岳阳市,谷花,临湘市,1003.8,26.7,69.0,40.72191407356765,24.173660939997472
P3523,2025-06-03 06:00:00,29.2331,113.3939,96.7,岳阳市,白羊田,临湘市,995.8,28.2,51.0,35.44038407389791,19.509382673399543
P3525,2025-06-03 06:00:00,29.3758,112.7408,38.6,岳阳市,良心堡,君山区,1004.0,29.3,51.0,30.398701152645362,20.79578678323815
P3526,2025-06-03 06:00:00,28.9444,113.7353,183.1,岳阳市,南江,平江县,986.4,28.3,52.0,38.68843643890358,20.008155120887473
P3528,2025-06-03 06:00:00,29.6497,113.6189,16.2,岳阳市,定湖,临湘市,1003.2,27.6,79.0,49.730678811262024,29.179586715733976
P3529,2025-06-03 06:00:00,28.7086,112.7744,37,岳阳市,杨林寨,湘阴县,1003.2,28.5,53.0,35.284409795835465,20.63168467801511
P3531,2025-06-03 06:00:00,29.5717,112.5108,11,岳阳市,涛湖,华容县,1003.8,28.4,48.0,31.077476629374,18.57690794739398
P3532,2025-06-03 06:00:00,29.6311,112.7356,37,岳阳市,东山水库,华容县,1001.5,27.9,30.0,13.79670639228666,11.276968456430213
P3534,2025-06-03 06:00:00,29.6011,112.8114,54.1,岳阳市,幸福水库,君山区,1000.6,27.7,54.0,39.21528625258437,20.06260702487576
P3536,2025-06-03 06:00:00,29.2639,113.5058,773.4,岳阳市,大云山,岳阳县,921.8,22.7,74.0,40.80503318627711,20.408359604677962
P3537,2025-06-03 06:00:00,29.0186,113.4906,131.3,岳阳市,张谷英,岳阳县,992.9,28.9,46.0,25.057081504734374,18.327558922818568
P3538,2025-06-03 06:00:00,29.4492,113.0503,33.7,岳阳市,展陈馆,君山区,1003.9,28.0,32.0,16.07679641770447,12.099210598302856
P3541,2025-06-03 06:00:00,29.0133,113.4411,122.7,岳阳市,岳坊水库,岳阳县,992.6,29.7,44.0,23.5062012699193,18.360596649834935
P3544,2025-06-03 06:00:00,29.2258,113.0858,28.4,岳阳市,麻塘,岳阳县,1004.0,29.6,34.0,31.067369536758015,14.106151743928447
P3547,2025-06-03 06:00:00,29.1339,113.0161,32.5,岳阳市,中洲,岳阳县,1003.1,28.3,52.0,18.645493821973258,20.008155120887473
P3552,2025-06-03 06:00:00,29.7919,113.52,12.4,岳阳市,黄盖,临湘市,1004.2,28.4,51.0,35.55135478519045,19.737964694106104
P3553,2025-06-03 06:00:00,29.565,113.6956,51.5,岳阳市,晓阳,临湘市,999.3,27.8,62.0,39.34574039048658,23.16994399707533
P3554,2025-06-03 06:00:00,29.3889,113.6328,534.8,岳阳市,壁山,临湘市,945.4,25.3,71.0,42.88074603880405,22.894573184460004
P3558,2025-06-03 06:00:00,29.6639,113.3461,13.4,岳阳市,儒溪,临湘市,1003.4,27.0,64.0,40.34035710315945,22.821447542460042
P3559,2025-06-03 06:00:00,29.3117,113.4417,98.1,岳阳市,金盆,临湘市,995.3,28.7,51.0,32.50962389455773,20.08522446484068
P3562,2025-06-03 06:00:00,29.4708,112.4956,35,岳阳市,业谟小学,华容县,1004.0,29.6,51.0,36.75011422759471,21.159227615892664
P3565,2025-06-03 06:00:00,29.395,112.805,16.6,岳阳市,团华小学,华容县,1003.9,28.3,57.0,36.37495735779487,21.932016190203576
P3566,2025-06-03 06:00:00,29.7261,112.8489,43,岳阳市,小墨山,华容县,1003.1,28.6,56.0,41.45818645064356,21.92661657863252
P3568,2025-06-03 06:00:00,29.4917,112.4131,20,岳阳市,太仙,华容县,1004.0,29.4,31.0,17.011671932612632,12.713843562952304
P3570,2025-06-03 06:00:00,29.535,112.5558,14.6,岳阳市,华容河大堤,华容县,1003.5,28.8,49.0,26.42795198038911,19.40991612312232
P3572,2025-06-03 06:00:00,29.6033,112.4639,32,岳阳市,富强,华容县,1004.4,28.4,37.0,22.822014104088538,14.319699876116193
P3580,2025-06-03 06:00:00,28.7297,112.7042,27,岳阳市,湘滨,湘阴县,1003.3,27.7,61.0,32.93386347691148,22.663315342915208
P3587,2025-06-03 06:00:00,28.6281,112.5892,18,岳阳市,西林港,湘阴县,1004.1,28.4,23.0,17.58058609532792,8.901435058126284
P3588,2025-06-03 06:00:00,28.7647,112.9869,68,岳阳市,赛美水库,湘阴县,1000.5,28.6,60.0,39.80906696817608,23.492803477106268
P3589,2025-06-03 06:00:00,28.63,112.8128,29,岳阳市,城西水管会,湘阴县,1004.0,28.5,61.0,41.76467522217282,23.7459012331872
P3592,2025-06-03 06:00:00,29.4889,113.1922,30.9,岳阳市,象骨港,云溪区,1004.1,28.1,52.0,23.773665782370163,19.77627446775925
P3593,2025-06-03 06:00:00,29.5444,113.2581,50.8,岳阳市,丁山,云溪区,1002.5,28.2,60.0,42.184514260079084,22.952214909881818
P3594,2025-06-03 06:00:00,29.5942,113.3344,5.7,岳阳市,钢铁,云溪区,1003.5,28.1,56.0,32.95036862319122,21.29752634989458
P3595,2025-06-03 06:00:00,29.5531,113.3572,40,岳阳市,长岭街道,云溪区,1003.5,28.1,60.0,38.05047908843724,22.818778232029903
P3596,2025-06-03 06:00:00,29.4825,113.2631,54.4,岳阳市,洗马塘,云溪区,1002.5,28.2,53.0,36.06701279836661,20.27445650372894
P3599,2025-06-03 06:00:00,29.31,113.3339,73.2,岳阳市,兰桥水库,岳阳楼区,998.6,28.9,76.0,54.072582943869484,30.280314742048066
P3603,2025-06-03 06:00:00,29.4553,113.2167,62.3,岳阳市,滨湖,云溪区,998.7,29.1,48.0,22.078681455456422,19.347324395323405
P3604,2025-06-03 06:00:00,28.9742,112.92,27.8,岳阳市,凤凰乡磊石,市辖区,1004.5,27.7,50.0,28.92691826817828,18.576487985996074
P3605,2025-06-03 06:00:00,28.8606,112.9194,19.2,岳阳市,屈子诗园,市辖区,1003.8,27.7,57.0,36.293107403696375,21.177196304035522
P3614,2025-06-03 06:00:00,29.4533,113.3578,127.2,岳阳市,清溪水库,云溪区,994.8,28.2,50.0,30.220469929482014,19.126845758234847
P3615,2025-06-03 06:00:00,29.235,113.1386,95.4,岳阳市,东风水库,岳阳县,996.4,28.5,59.0,35.14557193947977,22.967347094394178
P3620,2025-06-03 06:00:00,29.1897,113.5236,90,岳阳市,铁山水库,岳阳县,996.5,28.2,44.0,29.050039962862297,16.831624267246667
P3621,2025-06-03 06:00:00,29.2997,113.1031,134,岳阳市,风雨山,岳阳楼区,991.6,27.2,60.0,40.13387603179187,21.648024554980775
P3622,2025-06-03 06:00:00,29.5075,113.6161,99.3,岳阳市,羊楼司,临湘市,996.2,29.0,55.0,39.83521301827042,22.040774301812217
P3630,2025-06-03 06:00:00,29.4447,113.3122,60.1,岳阳市,建设,云溪区,1000.5,28.4,56.0,30.26301301127369,21.673059271959648
P3631,2025-06-03 06:00:00,29.4083,113.3064,134.5,岳阳市,伍家洞水库,岳阳楼区,992.0,27.8,54.0,37.926472935124906,20.18027380390432
P3633,2025-06-03 06:00:00,28.5319,113.0111,58.8,岳阳市,桥坪水库,汨罗市,999.5,28.5,64.0,39.2315094176298,24.913732441376737
P3636,2025-06-03 06:00:00,28.5908,113.835,130.5,岳阳市,沱龙峡,平江县,991.9,28.8,58.0,41.168436030969154,22.975002757981514
P3637,2025-06-03 06:00:00,28.9742,113.8178,1160,岳阳市,幕阜山,平江县,880.6,20.5,81.0,41.936594594276315,19.52382067778284
P3640,2025-06-03 06:00:00,28.6933,113.0358,60.6,岳阳市,白水苗圃,汨罗市,997.8,29.7,59.0,47.86690054874921,24.619890962278664
P3641,2025-06-03 06:00:00,29.6411,113.4997,21,岳阳市,源潭,临湘市,1004.0,28.6,52.0,30.783517128789498,20.360429680158767
P3643,2025-06-03 06:00:00,29.3719,113.4747,103.6,岳阳市,桃矿,临湘市,995.3,28.4,51.0,36.80047733146015,19.737964694106104
P3650,2025-06-03 06:00:00,28.7758,113.6053,80.6,岳阳市,团山,平江县,995.9,28.9,50.0,35.48595226402099,19.921259698715833
P3659,2025-06-03 06:00:00,29.3592,112.5042,14,岳阳市,八一水厂,华容县,1004.1,29.5,58.0,39.96050835639943,23.924965152763665
P3660,2025-06-03 06:00:00,29.4222,112.6369,14.4,岳阳市,砂山,华容县,1003.8,29.8,21.0,15.43898559952647,8.813655165243508
P3661,2025-06-03 06:00:00,29.2167,112.705,29.3,岳阳市,隆庆莲场,华容县,1004.3,29.4,60.0,40.56304795055672,24.607439154101233
P3663,2025-06-03 06:00:00,29.5189,112.4686,6.6,岳阳市,蔡田湖,华容县,1004.1,29.1,46.0,31.6213392659032,18.541185878851596
P3664,2025-06-03 06:00:00,28.5367,112.9592,60,岳阳市,燎原,湘阴县,998.1,27.9,61.0,45.991417575719076,22.9298358614081
P3665,2025-06-03 06:00:00,28.8464,113.0339,40,岳阳市,河市乡,市辖区,1003.7,29.1,45.0,32.34491053974948,18.13811662061569
P3666,2025-06-03 06:00:00,28.7961,113.0722,46.7,岳阳市,归义,汨罗市,1001.5,28.8,41.0,28.67102192343809,16.240950225469692
P3676,2025-06-03 06:00:00,29.5422,113.3636,32.9,岳阳市,长炼,云溪区,1002.8,28.4,58.0,35.447514078320665,22.447097103101058
P3692,2025-06-03 06:00:00,29.5169,113.3128,57.6,岳阳市,江湖,云溪区,1002.4,28.8,55.0,26.957983178394546,21.786640546361784
P3694,2025-06-03 06:00:00,29.4369,113.1664,16.6,岳阳市,芭蕉湖,岳阳楼区,1003.9,28.5,56.0,33.3237622524745,21.79951588620465
P3703,2025-06-03 06:00:00,28.8864,110.8531,214,怀化市,七甲坪,沅陵县,983.3,28.2,51.0,37.709452224079165,19.509382673399543
P3705,2025-06-03 06:00:00,28.76,110.4319,204,怀化市,曹家,沅陵县,984.1,29.3,54.0,41.926359274305895,22.019068358722752
P3709,2025-06-03 06:00:00,28.6936,110.7453,165,怀化市,陈家滩,沅陵县,988.6,28.0,57.0,35.468644877679345,21.55171887822696
P3718,2025-06-03 06:00:00,28.5253,110.9103,336,怀化市,官庄,沅陵县,969.5,27.4,51.0,27.312413579902216,18.61801899835417
P3720,2025-06-03 06:00:00,28.5236,110.7211,163,怀化市,楠木铺,沅陵县,989.3,28.9,60.0,41.70419008811235,23.905511638458997
P3722,2025-06-03 06:00:00,28.425,110.7939,413,怀化市,杜家坪,沅陵县,962.3,28.0,45.0,30.168327578366576,17.01451490386339
P3728,2025-06-03 06:00:00,28.3294,110.5158,276,怀化市,张家滩,沅陵县,976.2,27.0,62.0,42.69551863160083,22.108277306758165
P3729,2025-06-03 06:00:00,28.2933,110.3239,164,怀化市,麻溪铺,沅陵县,989.1,28.2,66.0,44.38548203087058,25.24743640087
P3733,2025-06-03 06:00:00,28.2306,110.2917,179,怀化市,筲箕湾,沅陵县,988.7,27.4,61.0,41.474234037674286,22.268610958815774
P3734,2025-06-03 06:00:00,28.1694,110.2081,172.5,怀化市,田头坪,辰溪县,988.0,28.7,55.0,40.2113710636341,21.660536187573285
P3739,2025-06-03 06:00:00,26.3494,109.7725,382.8,怀化市,下寨,通道侗族自治县,964.8,28.7,45.0,38.67438549328263,17.722256880741778
P3749,2025-06-03 06:00:00,27.9703,110.2892,149,怀化市,倒洑,辰溪县,990.8,28.8,75.0,55.637727077564,29.70905529049334
P3750,2025-06-03 06:00:00,27.9644,110.1589,131.5,怀化市,潭湾敬老院,辰溪县,992.6,27.9,74.0,43.64634824522463,27.81652219252786
P3751,2025-06-03 06:00:00,27.9511,110.8358,323.8,怀化市,三江,溆浦县,971.5,26.5,68.0,44.04872386186671,23.543960867522838
P3759,2025-06-03 06:00:00,27.8892,109.8911,162.9,怀化市,兰里,麻阳苗族自治县,989.0,26.7,72.0,51.097560621715644,25.224689676519105
P3761,2025-06-03 06:00:00,27.8553,109.9197,233.6,怀化市,和平溪,麻阳苗族自治县,979.9,26.8,68.0,43.27680107443922,23.964080297203825
P3763,2025-06-03 06:00:00,27.8783,109.695,179.8,怀化市,岩门镇黄土溪,麻阳苗族自治县,983.9,27.8,70.0,49.35249508561216,26.159614190246337
P3778,2025-06-03 06:00:00,27.7256,110.4086,121,怀化市,黄溪口,辰溪县,989.9,27.8,65.0,47.72564986010454,24.29107031951446
P3781,2025-06-03 06:00:00,27.6931,110.6811,528.9,怀化市,两丫坪,溆浦县,948.9,26.6,47.0,27.26766948541904,16.369325376107994
P3782,2025-06-03 06:00:00,27.7019,109.6039,265.2,怀化市,锦和,麻阳苗族自治县,976.4,26.6,63.0,40.867376017079806,21.941861674357526
P3783,2025-06-03 06:00:00,27.6689,110.1556,325,怀化市,花桥,中方县,968.1,26.5,64.0,40.00345732433042,22.159021992962668
P3784,2025-06-03 06:00:00,27.6725,109.7108,314,怀化市,江口圩,麻阳苗族自治县,975.1,26.7,65.0,46.13786121953562,22.77228929130197
P3790,2025-06-03 06:00:00,27.6664,109.8514,230,怀化市,贺家田,鹤城区,981.2,28.0,72.0,52.13078177365853,27.223223846181426
P3796,2025-06-03 06:00:00,27.6089,110.0964,246,怀化市,泸阳,中方县,979.4,28.2,55.0,45.504716149025064,21.039530334058334
P3798,2025-06-03 06:00:00,27.6269,110.6014,265.2,怀化市,北斗溪,溆浦县,976.1,28.7,50.0,34.84031708717746,19.691396534157533
P3800,2025-06-03 06:00:00,27.5886,110.28,186,怀化市,铜湾,中方县,986.9,29.5,58.0,46.00346691763252,23.924965152763665
P3803,2025-06-03 06:00:00,27.9714,110.3422,173.5,怀化市,桃田坳,辰溪县,987.9,27.6,67.0,45.196526483262275,24.747244429799704
P3811,2025-06-03 06:00:00,27.7506,110.1411,213,怀化市,肖家溪,辰溪县,986.1,26.4,67.0,40.9542334664849,23.061163223756463
P3820,2025-06-03 06:00:00,27.1161,109.9783,536.5,怀化市,高坡街,洪江市,946.3,25.5,70.0,36.60522986117142,22.84235030801528
P3823,2025-06-03 06:00:00,26.5053,109.5308,450,怀化市,靖州县排牙山,靖州苗族侗族自治县,956.8,26.0,60.0,32.618903184902486,20.1688807283479
P3825,2025-06-03 06:00:00,27.5183,110.1769,259.7,怀化市,新建敬老院,中方县,980.8,28.0,65.0,46.682204459455164,24.576521527802676
P3827,2025-06-03 06:00:00,27.5089,109.4536,370,怀化市,芷江县大树坳,芷江侗族自治县,966.0,27.7,54.0,33.12931405896675,20.06260702487576
P3833,2025-06-03 06:00:00,27.4483,109.7589,263,怀化市,岩桥,芷江侗族自治县,977.4,28.0,65.0,40.9605266850307,24.576521527802676
P3846,2025-06-03 06:00:00,27.4039,109.2453,444,怀化市,波州,新晃侗族自治县,955.3,26.2,62.0,35.97333653256049,21.089387989069124
P3849,2025-06-03 06:00:00,27.3447,109.9131,240,怀化市,牌楼,中方县,980.4,28.1,60.0,40.68493560487105,22.818778232029903
P3853,2025-06-03 06:00:00,27.3089,109.4775,466,怀化市,梨溪口水库,芷江侗族自治县,955.8,26.1,61.0,33.31785911367211,20.626816540771575
P3857,2025-06-03 06:00:00,27.325,109.0644,341,怀化市,鱼市,新晃侗族自治县,969.4,27.3,45.0,28.08706405264999,16.331595394597247
P3860,2025-06-03 06:00:00,27.1392,109.9714,172.1,怀化市,横岩,洪江市,984.5,28.3,58.0,46.36403640743408,22.316788404066795
P3870,2025-06-03 06:00:00,27.2317,109.2867,473,怀化市,降溪,新晃侗族自治县,953.7,26.2,54.0,29.165223531728678,18.368176635640854
P3871,2025-06-03 06:00:00,27.1842,109.1325,437,怀化市,扶罗,新晃侗族自治县,959.4,25.8,57.0,31.270128501438062,18.934595245724445
P3883,2025-06-03 06:00:00,27.1044,108.9556,501,怀化市,凉伞,新晃侗族自治县,951.9,26.4,58.0,34.90681970983231,19.96339502952052
P3896,2025-06-03 06:00:00,26.7839,109.8633,344.7,怀化市,木寨,会同县,968.3,26.8,59.0,27.848393524862928,20.792363787279786
P3897,2025-06-03 06:00:00,26.7228,109.5947,306,怀化市,会同县地灵,会同县,971.8,27.1,54.0,34.0077121814245,19.369116911109256
P3899,2025-06-03 06:00:00,26.7006,109.4481,394,怀化市,大堡子,靖州苗族侗族自治县,962.7,27.2,53.0,29.410562983383834,19.12242169023302
P3901,2025-06-03 06:00:00,26.6728,109.6456,346.4,怀化市,坳上,靖州苗族侗族自治县,967.5,28.7,52.0,36.77636409548879,20.479052395523833
P3904,2025-06-03 06:00:00,26.65,109.385,617.2,怀化市,三锹,靖州苗族侗族自治县,939.1,24.5,56.0,31.974040780520482,17.215153858592007
P3909,2025-06-03 06:00:00,26.4108,109.4269,398.3,怀化市,藕团,靖州苗族侗族自治县,963.5,28.1,53.0,27.873761954914304,20.15658743829308
P3914,2025-06-03 06:00:00,26.2025,109.5192,359,怀化市,播阳,通道侗族自治县,966.9,27.5,48.0,42.755891583058585,17.62584088937714
P3917,2025-06-03 06:00:00,26.08,109.5481,455.3,怀化市,独坡,通道侗族自治县,955.8,27.0,52.0,36.11957818247493,18.542426128248785
P3918,2025-06-03 06:00:00,26.0089,109.7683,512,怀化市,陇城,通道侗族自治县,949.4,27.1,51.0,34.73848937564437,18.293054860492074
P4001,2025-06-03 06:00:00,28.8097,111.0122,73,怀化市,五强溪,沅陵县,998.2,29.0,63.0,47.03611933857048,25.24670510934854
P4014,2025-06-03 06:00:00,28.5272,110.2183,136,怀化市,高竹坪,沅陵县,992.5,28.1,65.0,51.9851626202052,24.720343084699063
P4019,2025-06-03 06:00:00,27.4256,109.3614,331,怀化市,新店坪镇上坪,芷江侗族自治县,970.0,28.2,53.0,34.281800815442836,20.27445650372894
P4021,2025-06-03 06:00:00,28.1625,110.6406,348.4,怀化市,低庄镇大渭溪,溆浦县,967.6,28.3,62.0,44.242033610823526,23.85587725951968
P4023,2025-06-03 06:00:00,26.325,109.4625,397,怀化市,靖州县新厂,靖州苗族侗族自治县,963.1,28.4,44.0,31.34383499219068,17.02883228511115
P4030,2025-06-03 06:00:00,28.6453,110.3453,320,怀化市,高砌头,沅陵县,970.3,26.9,65.0,43.29496516732024,23.042088239896223
P4038,2025-06-03 06:00:00,27.7356,110.5281,566.3,怀化市,统溪河,溆浦县,943.7,24.8,72.0,41.32329376105557,22.53469193727565
P4042,2025-06-03 06:00:00,27.4094,109.8139,369,怀化市,水宽,芷江侗族自治县,966.1,26.4,64.0,41.16369289400398,22.028573825677817
P4043,2025-06-03 06:00:00,28.0339,110.4381,488,怀化市,谭家场,辰溪县,950.1,26.8,65.0,39.3099365475421,22.90684146056248
P4050,2025-06-03 06:00:00,27.425,110.6067,541,怀化市,大华,溆浦县,946.5,26.6,56.0,35.377892792916995,19.50387704387336
P4051,2025-06-03 06:00:00,26.9703,109.7375,334,怀化市,坪村,会同县,969.3,26.7,61.0,33.90816812355453,21.370917642606464
P4055,2025-06-03 06:00:00,27.6414,110.3222,210,怀化市,铜鼎,中方县,985.3,30.0,53.0,46.02078286819105,22.50154984717208
P4056,2025-06-03 06:00:00,27.5292,110.3503,255,怀化市,接龙,中方县,975.8,27.9,61.0,38.09219585144534,22.9298358614081
P4057,2025-06-03 06:00:00,27.3539,109.8394,343,怀化市,桐木,中方县,968.9,26.5,63.0,41.16906724554935,21.812787274322627
P4059,2025-06-03 06:00:00,27.1203,109.6225,244,怀化市,洪江市托口,洪江市,978.1,25.5,87.0,54.094482011528996,28.389778239961856
P4061,2025-06-03 06:00:00,27.1197,109.6967,204,怀化市,江市,洪江市,983.7,27.0,70.0,49.631061777764934,24.960958249565667
P4063,2025-06-03 06:00:00,28.3528,110.3003,134,怀化市,盘古,沅陵县,991.9,27.1,70.0,46.53800251210733,25.10811451440088
P4068,2025-06-03 06:00:00,27.0119,109.8433,400,怀化市,大溪水库,会同县,962.9,27.6,56.0,29.905552402698696,20.68426400102662
P4069,2025-06-03 06:00:00,28.8036,110.6261,150,怀化市,大合坪,沅陵县,990.1,28.5,57.0,47.613867370288716,22.188792955601155
P4070,2025-06-03 06:00:00,28.5286,110.6353,320,怀化市,长界,沅陵县,971.8,26.6,59.0,38.030486865432245,20.548727599795143
P4079,2025-06-03 06:00:00,27.8842,110.7317,535.2,怀化市,桥江镇新田,溆浦县,948.3,25.4,69.0,41.0850147680929,22.38249658828013
P4080,2025-06-03 06:00:00,27.8681,110.0928,163,怀化市,红敏,辰溪县,989.2,27.0,67.0,42.79362530395322,23.891202896012857
P4092,2025-06-03 06:00:00,26.7067,109.7314,294.7,怀化市,靖州县甘棠,靖州苗族侗族自治县,973.7,28.1,55.0,40.34991854056317,20.917213379360746
P4093,2025-06-03 06:00:00,26.3322,109.335,482,怀化市,平茶,靖州苗族侗族自治县,953.7,26.3,49.0,34.54850181019733,16.766267025883792
P4094,2025-06-03 06:00:00,26.4539,109.895,381.9,怀化市,联团,通道侗族自治县,959.4,26.9,51.0,33.72535066028395,18.079176926687804
P4095,2025-06-03 06:00:00,26.2911,109.9364,433.1,怀化市,石岩,通道侗族自治县,957.1,28.3,46.0,36.07439875317838,17.69952183770815
P4116,2025-06-03 06:00:00,27.8944,109.6364,220.1,怀化市,石羊哨,麻阳苗族自治县,982.6,27.5,63.0,39.59990006220904,23.1339161673075
P4121,2025-06-03 06:00:00,28.0506,110.7606,247.6,怀化市,祖师殿,溆浦县,979.3,27.8,60.0,44.67691274323745,22.422526448782573
P4122,2025-06-03 06:00:00,27.9525,110.7689,290.3,怀化市,油洋,溆浦县,974.8,27.2,61.0,40.55510651031422,22.008824964230456
P4123,2025-06-03 06:00:00,27.8836,110.3986,146.1,怀化市,大江口,溆浦县,990.6,27.7,63.0,49.295363983777605,23.406374862355054
P4126,2025-06-03 06:00:00,27.8461,110.6906,225.2,怀化市,陶金坪,溆浦县,980.8,26.2,64.0,41.23939842797749,21.769690827426196
P4131,2025-06-03 06:00:00,27.4036,110.5142,510,怀化市,龙潭镇横板桥,溆浦县,949.7,28.1,42.0,25.218802517557926,15.973144762420931
P4143,2025-06-03 06:00:00,27.315,110.1617,225,怀化市,洪江市安江,洪江市,980.8,27.8,58.0,39.06875000231457,21.67510890048982
P4144,2025-06-03 06:00:00,27.1914,110.1669,326,怀化市,洪江市熟坪,洪江市,971.1,26.7,71.0,42.05269442542521,24.87434676434523
P4149,2025-06-03 06:00:00,27.2317,109.7297,281,怀化市,岩垅,洪江市,975.2,26.5,57.0,39.45810906125172,19.735378962482375
P4155,2025-06-03 06:00:00,26.9625,110.0258,221.6,怀化市,会同县高椅,会同县,981.3,27.0,65.0,45.50671472670094,23.178032660310983
P4156,2025-06-03 06:00:00,26.9819,109.7731,340.4,怀化市,堡子,会同县,970.8,26.5,72.0,49.124202877440695,24.928899742083004
P4167,2025-06-03 06:00:00,26.3656,109.6619,349.9,怀化市,县溪镇江口,通道侗族自治县,964.2,27.4,61.0,39.358314470807414,22.268610958815774
P4175,2025-06-03 06:00:00,26.085,109.8053,407.3,怀化市,长安堡,通道侗族自治县,959.1,28.8,62.0,49.72290346700317,24.559485706807827
P4198,2025-06-03 06:00:00,28.6917,110.5306,158,怀化市,落坪,沅陵县,989.4,28.5,61.0,44.57258013361652,23.7459012331872
P4200,2025-06-03 06:00:00,27.4572,109.9464,236,怀化市,中方站,中方县,979.8,27.8,57.0,40.213926655780874,21.301400126343445
P4201,2025-06-03 06:00:00,27.8675,110.0128,207.8,怀化市,黄桑乡军田,麻阳苗族自治县,978.1,26.5,64.0,42.36901831164389,22.159021992962668
P4205,2025-06-03 06:00:00,26.6747,109.3367,635,怀化市,塘款,靖州苗族侗族自治县,936.7,24.1,68.0,36.206946228053496,20.408430459358843
P4404,2025-06-03 06:00:00,27.8869,111.5178,442,娄底市,华新,新化县,957.0,28.3,54.0,33.671927048972215,20.777699548613917
P4416,2025-06-03 06:00:00,27.6861,111.2781,211,娄底市,科头,新化县,980.8,27.8,54.0,36.2054365903646,20.18027380390432
P4420,2025-06-03 06:00:00,28.08,111.3736,243,娄底市,龙溪,新化县,977.0,28.1,48.0,27.693976236609597,18.255022585623923
P4432,2025-06-03 06:00:00,28.0161,111.2794,156.6,娄底市,何家坪,新化县,985.0,28.9,48.0,38.30393458275463,19.1244093107672
P4435,2025-06-03 06:00:00,27.7942,111.0617,504,娄底市,古台山林场,新化县,947.5,25.0,43.0,25.126570286730804,13.619946575605324
P4440,2025-06-03 06:00:00,27.6244,111.1006,274,娄底市,半山水库,新化县,975.9,27.3,47.0,31.61292118011964,17.05744407880157
P4446,2025-06-03 06:00:00,27.8789,111.3722,279.4,娄底市,水竹,新化县,974.8,29.2,40.0,26.13404185511471,16.216358646118163
P4481,2025-06-03 06:00:00,27.7511,110.8889,851.1,娄底市,大桥,新化县,913.0,25.5,42.0,22.75658216795793,13.705410184809171
P4512,2025-06-03 06:00:00,27.5672,111.3708,289,娄底市,连岩,冷水江市,972.9,27.6,58.0,42.6213060310395,21.422987715348995
P4515,2025-06-03 06:00:00,27.7794,111.4869,677,娄底市,谭家,冷水江市,929.9,23.6,55.0,19.26008969200616,16.017389998584296
P4516,2025-06-03 06:00:00,27.6011,111.4764,178,娄底市,杨源,冷水江市,984.5,28.2,54.0,43.94413952180733,20.656993418893638
P4517,2025-06-03 06:00:00,27.6461,111.5622,338,娄底市,大冲,冷水江市,969.5,26.3,55.0,42.78169820335434,18.819279314767524
P4561,2025-06-03 06:00:00,27.5222,111.7556,693,娄底市,龙山林场,涟源市,929.8,24.2,55.0,25.87780622976486,16.60626062874565
P4562,2025-06-03 06:00:00,27.85,111.7756,141,娄底市,迎宾,涟源市,988.1,28.7,45.0,36.38119149338866,17.722256880741778
P4563,2025-06-03 06:00:00,27.8811,111.6511,613.5,娄底市,古塘,涟源市,939.6,26.0,49.0,21.653420873091022,16.471252594817454
P4564,2025-06-03 06:00:00,27.72,111.6253,185,娄底市,芙蓉,涟源市,987.1,28.2,55.0,41.71687580318199,21.039530334058334
P4565,2025-06-03 06:00:00,27.8219,111.6697,350,娄底市,安平,涟源市,965.3,27.9,51.0,50.19876897790608,19.17084637593136
P4567,2025-06-03 06:00:00,27.9064,111.8492,181,娄底市,七星中学,涟源市,985.9,28.8,55.0,38.60422090913561,21.786640546361784
P4568,2025-06-03 06:00:00,27.7781,111.8789,97,娄底市,渡头塘,涟源市,993.3,28.5,51.0,45.16080353585601,19.853130539222086
P4569,2025-06-03 06:00:00,27.4906,111.9294,298.7,娄底市,坝塘,涟源市,969.2,26.4,48.0,18.674781356028976,16.52143036925836
P4570,2025-06-03 06:00:00,27.7767,111.7514,166,娄底市,龙塘,涟源市,986.2,28.3,50.0,37.78724104836397,19.238610693161032
P4571,2025-06-03 06:00:00,27.55,111.6817,185.6,娄底市,孙家桥,涟源市,984.7,28.3,48.0,39.44756176114758,18.46906626543459
P4572,2025-06-03 06:00:00,27.6306,111.9314,148,娄底市,水洞底,娄星区,991.6,29.2,50.0,43.8191599176327,20.2704483076477
P4573,2025-06-03 06:00:00,27.5897,111.9006,146.8,娄底市,荷塘,涟源市,988.4,28.3,47.0,44.45296613568853,18.08429405157137
P4574,2025-06-03 06:00:00,27.575,111.8128,148.8,娄底市,茶亭子,涟源市,987.4,28.5,51.0,30.319116934161276,19.853130539222086
P4575,2025-06-03 06:00:00,27.6592,111.8269,185,娄底市,斗笠山,涟源市,984.4,28.2,49.0,36.451540822825585,18.74430884307015
P4576,2025-06-03 06:00:00,27.6225,111.6239,281.2,娄底市,谢家,涟源市,980.4,26.4,72.0,48.74120432471273,24.782145553887545
P4577,2025-06-03 06:00:00,27.7153,111.7697,108,娄底市,湖泉,涟源市,992.1,29.0,51.0,33.68229104662015,20.437808898044054
P4578,2025-06-03 06:00:00,27.5856,111.7683,208.3,娄底市,茅塘,涟源市,981.4,27.8,47.0,42.43652681900242,17.564312384879685
P4580,2025-06-03 06:00:00,27.8442,111.8475,134.6,娄底市,桥头河,涟源市,991.5,29.6,46.0,37.32697246878161,19.08479353590319
P4582,2025-06-03 06:00:00,27.6583,111.7725,146.5,娄底市,青树,涟源市,988.2,28.7,51.0,39.371304378261605,20.08522446484068
P4583,2025-06-03 06:00:00,27.9822,111.6572,488,娄底市,漆树,涟源市,950.2,26.1,50.0,29.494259429263376,16.90722667276359
P4594,2025-06-03 06:00:00,27.6264,111.6889,199,娄底市,杨岭水库,涟源市,981.9,27.6,56.0,41.781801907460206,20.68426400102662
P4601,2025-06-03 06:00:00,27.7633,111.9192,165,娄底市,石井,娄星区,988.6,28.5,48.0,42.4580355784551,18.685299331032553
P4602,2025-06-03 06:00:00,27.7783,111.9608,117,娄底市,黄泥塘,娄星区,991.9,29.1,43.0,34.29179245975805,17.331978104143882
P4611,2025-06-03 06:00:00,27.7747,112.0722,77,娄底市,春园中学,娄星区,994.0,28.1,51.0,43.48999259355218,19.395961497225418
P4614,2025-06-03 06:00:00,27.8078,112.0092,146,娄底市,花溪谷,娄星区,991.1,28.6,55.0,46.78750783047034,21.53506985401408
P4615,2025-06-03 06:00:00,27.6531,111.995,154,娄底市,军分区仓库,娄星区,990.2,32.7,37.0,34.96493260790651,18.32006138096306
P4618,2025-06-03 06:00:00,27.9219,111.9692,272,娄底市,双江水库,娄星区,978.0,27.2,48.0,28.629459920274307,17.31841964398462
P4627,2025-06-03 06:00:00,27.7464,112.0158,112.5,娄底市,乐坪,娄星区,992.0,28.8,48.0,38.86978164829247,19.01379538591574
P4639,2025-06-03 06:00:00,27.7286,112.0014,151.5,娄底市,市气象局,娄星区,989.6,28.9,42.0,30.176709501086457,16.7338581469213
P4651,2025-06-03 06:00:00,27.4397,112.1436,83.5,娄底市,金开街道,双峰县,995.9,28.0,51.0,32.276719120332956,19.283116891045175
P4657,2025-06-03 06:00:00,27.5836,112.0908,106,娄底市,洪福,娄星区,992.8,28.5,61.0,49.31032479091832,23.7459012331872
P4660,2025-06-03 06:00:00,27.6347,112.2511,68.4,娄底市,水府庙,双峰县,998.9,27.1,22.0,21.712490048996063,7.891121704525992
P4661,2025-06-03 06:00:00,27.4411,111.9703,128.9,娄底市,甘棠,双峰县,990.9,27.5,53.0,32.828298545170924,19.461865982020594
P4662,2025-06-03 06:00:00,27.6261,112.2436,74.9,娄底市,杏子铺,双峰县,998.4,28.5,52.0,30.320798258795538,20.2424076086186
P4663,2025-06-03 06:00:00,27.5339,112.2253,56.5,娄底市,黄马洲,双峰县,998.7,28.0,56.0,35.81296115325334,21.17361854703
P4666,2025-06-03 06:00:00,27.3297,112.1042,106.8,娄底市,锁石,双峰县,993.9,29.6,52.0,40.83354762831353,21.574114431890564
P4667,2025-06-03 06:00:00,27.4825,112.1942,67,娄底市,茅坪,双峰县,997.4,28.3,45.0,35.71964450920031,17.31474962384493
P4668,2025-06-03 06:00:00,27.3981,111.9872,116.2,娄底市,三塘铺,双峰县,992.6,27.0,48.0,33.44618065675306,17.11608565684503
P4669,2025-06-03 06:00:00,27.4258,112.1083,83.5,娄底市,岳家,双峰县,994.6,27.5,48.0,32.878094239325065,17.62584088937714
P4670,2025-06-03 06:00:00,27.4661,112.4281,115.2,娄底市,井字,双峰县,991.5,27.6,51.0,34.42975506032651,18.83745471522067
P4671,2025-06-03 06:00:00,27.5189,112.1044,84.1,娄底市,走马街,双峰县,995.2,28.3,51.0,39.48678639230165,19.62338290702425
P4672,2025-06-03 06:00:00,27.3789,112.0317,106.2,娄底市,青树坪,双峰县,993.1,28.3,50.0,40.35575921807322,19.238610693161032
P4674,2025-06-03 06:00:00,27.3983,112.4289,118.2,娄底市,双鱼,双峰县,991.0,28.3,48.0,39.87001541301752,18.46906626543459
P4675,2025-06-03 06:00:00,27.5603,112.0128,88.5,娄底市,洪山殿,双峰县,995.0,27.9,49.0,27.255260494183357,18.419048478836014
P4676,2025-06-03 06:00:00,27.2908,112.0944,109.5,娄底市,花门,双峰县,993.2,27.6,52.0,41.63053616921207,19.20681657238186
P4677,2025-06-03 06:00:00,27.38,112.2297,116.2,娄底市,石牛,双峰县,990.1,28.2,54.0,34.99146247654329,20.656993418893638
P4678,2025-06-03 06:00:00,27.4853,112.2675,123.2,娄底市,民实,双峰县,990.0,27.0,50.0,34.97078259437235,17.829255892546907
P4801,2025-06-03 06:00:00,28.0036,112.4569,123,湘潭市,金石,湘乡市,994.0,27.7,54.0,30.393471917707465,20.06260702487576
P4802,2025-06-03 06:00:00,27.9392,113.0025,36,湘潭市,昭山,岳塘区,1002.0,28.3,56.0,38.082909143912104,21.547243976340358
P4804,2025-06-03 06:00:00,27.9589,112.4703,106.6,湘潭市,石屏,韶山市,994.3,26.9,50.0,35.50116057198701,17.724683261458633
P4806,2025-06-03 06:00:00,27.935,112.3047,72,湘潭市,金薮,湘乡市,987.1,26.3,55.0,31.463709409911072,18.819279314767524
P4807,2025-06-03 06:00:00,28.02,112.4997,111.3,湘潭市,云源,韶山市,992.6,27.3,53.0,37.690405330354274,19.234990131414534
P4815,2025-06-03 06:00:00,27.9203,112.4253,134.6,湘潭市,新联,韶山市,989.5,27.0,60.0,45.202579330460786,21.395107071056287
P4816,2025-06-03 06:00:00,27.8856,112.9744,60,湘潭市,荷塘,岳塘区,999.3,28.5,52.0,32.0587855059972,20.2424076086186
P4818,2025-06-03 06:00:00,27.9178,112.5942,72.4,湘潭市,银田,韶山市,996.8,27.5,53.0,37.63075027932442,19.461865982020594
P4821,2025-06-03 06:00:00,27.89,112.5347,69.9,湘潭市,高铁南站,韶山市,996.7,27.9,51.0,35.58817269308397,19.17084637593136
P4829,2025-06-03 06:00:00,27.8378,112.5158,120,湘潭市,龙洞,湘乡市,997.2,27.8,64.0,49.04985586574906,23.91736154536808
P4831,2025-06-03 06:00:00,27.8344,112.9397,68,湘潭市,锦源广场,岳塘区,999.3,28.4,51.0,32.334061360884895,19.737964694106104
P4834,2025-06-03 06:00:00,27.7967,112.5972,75,湘潭市,韶灌科研所,湘乡市,999.3,27.5,52.0,34.08018599237633,19.094660963491904
P4835,2025-06-03 06:00:00,27.7922,112.9525,78,湘潭市,易俗河,湘潭县,1000.8,27.3,45.0,25.3657846899779,16.331595394597247
P4839,2025-06-03 06:00:00,27.7614,112.4711,90,湘潭市,泉塘,湘乡市,998.3,27.7,49.0,37.39082745819685,18.20495822627615
P4841,2025-06-03 06:00:00,27.7161,112.3417,57,湘潭市,潭市,湘乡市,998.6,28.8,52.0,34.60123049170748,20.59827833474205
P4843,2025-06-03 06:00:00,27.6639,112.4522,75.4,湘潭市,洙津渡,湘乡市,999.5,28.7,51.0,28.475087974084094,20.08522446484068
P4844,2025-06-03 06:00:00,27.6903,112.1053,99.7,湘潭市,毛田,湘乡市,995.6,29.6,49.0,44.26671492788136,20.329453983896876
P4845,2025-06-03 06:00:00,27.6383,112.5831,259.8,湘潭市,梅桥,湘乡市,977.1,25.6,58.0,33.303941353244966,19.03935065181401
P4846,2025-06-03 06:00:00,27.6442,112.3406,82,湘潭市,洋潭电站,湘乡市,997.8,28.3,51.0,31.451242824123536,19.62338290702425
P4847,2025-06-03 06:00:00,27.6442,112.6283,93.5,湘潭市,上石坝水库,湘潭县,994.3,28.5,52.0,31.610671479930744,20.2424076086186
P4848,2025-06-03 06:00:00,27.6269,112.3814,104,湘潭市,栗山,湘乡市,997.2,27.7,55.0,31.91103685940614,20.43413678459568
P4850,2025-06-03 06:00:00,27.6158,112.71,65.1,湘潭市,锦石,湘潭县,998.6,28.0,61.0,38.0305893021219,23.06412020301482
P4851,2025-06-03 06:00:00,27.5836,112.6533,98.7,湘潭市,严冲水库,湘潭县,996.3,28.7,53.0,35.522912954919555,20.872880326206985
P4852,2025-06-03 06:00:00,27.5608,112.9153,68.2,湘潭市,中路铺水库,湘潭县,999.0,26.7,58.0,40.716455888811616,20.31988890608483
P4854,2025-06-03 06:00:00,27.5328,112.3353,140,湘潭市,中沙,湘乡市,991.1,27.3,54.0,33.76107247823688,19.597914473516695
P4855,2025-06-03 06:00:00,27.5292,112.5147,76.4,湘潭市,石鼓,湘潭县,995.9,28.2,53.0,29.332464465895608,20.27445650372894
P4858,2025-06-03 06:00:00,27.4975,112.8272,99,湘潭市,印子山水库,湘潭县,994.1,27.1,58.0,43.34295959926476,20.803866311932158
P4860,2025-06-03 06:00:00,27.4747,112.7319,84.2,湘潭市,龙口,湘潭县,995.8,28.7,53.0,35.04106323189151,20.872880326206985
P4862,2025-06-03 06:00:00,27.3747,112.825,76.9,湘潭市,茶恩寺,湘潭县,997.6,26.7,58.0,39.498875395544644,20.31988890608483
P4863,2025-06-03 06:00:00,27.7808,112.7739,63,湘潭市,杨嘉桥,湘潭县,1000.5,29.4,55.0,42.26366952790565,22.5568192245928
P4864,2025-06-03 06:00:00,27.8578,112.8989,30,湘潭市,白石公园,雨湖区,1002.5,28.4,53.0,36.50285186767783,20.51200252524752
P4865,2025-06-03 06:00:00,27.9172,112.9608,38,湘潭市,九华,雨湖区,1002.3,28.0,56.0,34.95440930127705,21.17361854703
P4868,2025-06-03 06:00:00,27.8489,112.3881,102.6,湘潭市,白田,湘乡市,996.2,27.3,56.0,41.23070782683824,20.323763157721018
P4870,2025-06-03 06:00:00,27.8144,112.3172,90.2,湘潭市,褒忠山,湘乡市,996.0,28.7,48.0,40.18960610234679,18.90374067279123
P4873,2025-06-03 06:00:00,27.7042,112.9678,74.1,湘潭市,梅林桥,湘潭县,996.3,27.2,59.0,41.14420861987145,21.287224145731095
P4877,2025-06-03 06:00:00,27.6872,112.2133,132,湘潭市,水府旅游区,湘乡市,996.0,28.7,33.0,22.56870437730999,12.996321712543972
P4879,2025-06-03 06:00:00,27.7286,112.725,40.5,湘潭市,石潭,湘潭县,1001.2,28.7,54.0,34.56939826879075,21.266708256890137
P4881,2025-06-03 06:00:00,27.8331,113.0089,25,湘潭市,马家河,岳塘区,1002.2,28.5,53.0,38.62311214813487,20.63168467801511
P4885,2025-06-03 06:00:00,27.7089,112.5983,132.5,湘潭市,奇才,湘潭县,992.2,26.9,54.0,37.05995056587981,19.142657922375324
P4890,2025-06-03 06:00:00,27.6028,112.3539,98,湘潭市,虞唐,湘乡市,992.8,26.7,55.0,38.4222285739747,19.268860169563204
P4919,2025-06-03 06:00:00,27.8208,112.225,228.9,湘潭市,农之源,湘乡市,981.1,27.3,50.0,37.12791460651792,18.14621710510805
P5101,2025-06-03 06:00:00,28.1106,113.0253,72,长沙市,省植物园,雨花区,996.9,27.4,53.0,36.25000642020941,19.348137390446492
P5103,2025-06-03 06:00:00,28.0467,113.0011,83,长沙市,西湖小学,天心区,996.7,29.7,45.0,35.67939933869691,18.77788293733118
P5104,2025-06-03 06:00:00,28.3772,113.44,91,长沙市,中洲,浏阳市,996.5,27.7,59.0,34.31115265595638,21.920255823475365
P5106,2025-06-03 06:00:00,28.5328,113.2044,119,长沙市,福临,长沙县,993.6,28.8,53.0,27.534597223913774,20.994399071948628
P5107,2025-06-03 06:00:00,28.4536,113.0375,73,长沙市,北山镇福高,长沙县,998.7,28.5,51.0,24.70368839178708,19.853130539222086
P5108,2025-06-03 06:00:00,28.5322,113.3683,78,长沙市,金井,长沙县,997.4,29.9,43.0,27.53096731789184,18.151228802091733
P5110,2025-06-03 06:00:00,28.2892,113.1817,58,长沙市,银龙,长沙县,1000.5,27.8,55.0,33.25822035814031,20.553982578050697
P5111,2025-06-03 06:00:00,28.5892,113.3836,140,长沙市,白石洞水库,长沙县,990.5,28.6,43.0,29.22313295264152,16.836509158592825
P5112,2025-06-03 06:00:00,28.5469,113.2,113,长沙市,西冲水库,长沙县,994.1,28.3,46.0,29.15767994790971,17.69952183770815
P5114,2025-06-03 06:00:00,28.4783,112.8044,45,长沙市,铜官,望城区,1001.3,28.5,55.0,36.13956347026985,21.410238816808135
P5115,2025-06-03 06:00:00,28.5142,112.7536,24,长沙市,苏蓼垸,望城区,1003.1,27.3,66.0,43.29500929295003,23.953006578742627
P5116,2025-06-03 06:00:00,28.2419,112.7236,71,长沙市,光明,望城区,999.3,29.0,58.0,40.85236256996011,23.242998354638335
P5118,2025-06-03 06:00:00,28.485,113.3806,96,长沙市,桐仁桥水库,长沙县,995.0,28.3,51.0,28.11019155450094,19.62338290702425
P5121,2025-06-03 06:00:00,28.3467,112.8169,55,长沙市,和园公园,望城区,1001.6,27.8,58.0,41.10696214813137,21.67510890048982
P5123,2025-06-03 06:00:00,28.6153,113.2478,64,长沙市,枫林市,长沙县,999.4,27.8,62.0,39.890614602119946,23.16994399707533
P5124,2025-06-03 06:00:00,28.4675,113.0103,392,长沙市,黑麋峰水电站,望城区,961.5,25.2,62.0,41.90659350926781,19.87370022603325
P5126,2025-06-03 06:00:00,28.2311,113.0644,71,长沙市,金科公园,长沙县,999.9,28.1,52.0,28.56442616297969,19.77627446775925
P5132,2025-06-03 06:00:00,28.2947,112.7897,194,长沙市,英雄岭,望城区,986.1,26.9,67.0,40.72403559799545,23.75107557035457
P5137,2025-06-03 06:00:00,28.4061,112.7758,97,长沙市,廖家坪,望城区,996.1,27.0,73.0,40.057513971692146,26.030713603118485
P5140,2025-06-03 06:00:00,27.9883,112.9792,31,长沙市,兴马洲,天心区,1002.9,28.3,49.0,31.492305512421012,18.853838479297814
P5142,2025-06-03 06:00:00,28.2556,113.1589,47.5,长沙市,长龙,长沙县,999.9,27.9,55.0,36.72143001674612,20.67444217012206
P5143,2025-06-03 06:00:00,28.0861,113.1761,23,长沙市,黄兴镇林塘,长沙县,1001.4,26.9,63.0,39.99900998994886,22.333100909437878
P5150,2025-06-03 06:00:00,28.3217,112.8728,53,长沙市,大泽湖,望城区,1001.4,27.4,61.0,42.319842319398994,22.268610958815774
P5151,2025-06-03 06:00:00,28.3128,112.8869,55,长沙市,永通车管所,望城区,1001.8,28.1,57.0,43.95975084935495,21.677839320428408
P5156,2025-06-03 06:00:00,28.3111,112.9056,40,长沙市,四医院,望城区,1002.1,28.5,55.0,29.998144010269794,21.410238816808135
P5157,2025-06-03 06:00:00,28.4072,114.1969,531,长沙市,东麓园,浏阳市,949.2,27.9,61.0,35.02429507393768,22.9298358614081
P5161,2025-06-03 06:00:00,28.4922,112.7303,28,长沙市,乔口,望城区,1003.9,27.0,60.0,32.4155766627595,21.395107071056287
P5162,2025-06-03 06:00:00,28.3003,112.92,44,长沙市,新奥佳园,望城区,1002.5,28.4,52.0,34.62583742111124,20.124983609676814
P5163,2025-06-03 06:00:00,28.2825,112.9075,61,长沙市,金峰园,望城区,1000.8,27.6,54.0,31.403589981090587,19.94554028670424
P5164,2025-06-03 06:00:00,28.2931,112.8494,54,长沙市,李家祠堂,望城区,1002.0,27.7,58.0,43.25621407995693,21.548726063755442
P5165,2025-06-03 06:00:00,28.5281,113.3594,78,长沙市,石壁湖,长沙县,999.2,29.2,47.0,28.96777177927353,19.054221409188838
P5175,2025-06-03 06:00:00,28.4675,113.3308,61.1,长沙市,锦绣,长沙县,998.5,28.7,47.0,34.67453297149486,18.50991274210808
P5187,2025-06-03 06:00:00,28.49,113.1111,53,长沙市,新桥,长沙县,1000.8,29.3,52.0,36.43500960205836,21.203547308399685
P5188,2025-06-03 06:00:00,28.4061,112.9925,85,长沙市,北山水库,长沙县,996.4,27.3,54.0,37.7366481772612,19.597914473516695
P5189,2025-06-03 06:00:00,28.4369,112.9975,64,长沙市,洞阳,望城区,999.6,28.7,55.0,30.41147083961926,21.660536187573285
P5190,2025-06-03 06:00:00,28.2758,112.9675,32,长沙市,江湾,开福区,1002.6,28.4,56.0,32.35002848320551,21.673059271959648
P5195,2025-06-03 06:00:00,28.4267,112.9922,120,长沙市,黑麋峰,望城区,992.2,27.9,58.0,41.423718527835,21.802139015765075
P5199,2025-06-03 06:00:00,27.975,113.7275,125,长沙市,大瑶,浏阳市,992.3,24.5,69.0,36.297774554246566,21.211528861479433
P5201,2025-06-03 06:00:00,28.4103,113.22,52,长沙市,明月,长沙县,1000.9,28.1,58.0,41.25518181161956,22.058152290962237
P5206,2025-06-03 06:00:00,28.3222,113.3075,66,长沙市,红旗水库,长沙县,999.1,28.2,56.0,36.393698635297035,21.422067249223034
P5215,2025-06-03 06:00:00,28.4372,113.6556,268,长沙市,周洛,浏阳市,975.7,25.4,65.0,41.10457354180045,21.084960554176938
P5218,2025-06-03 06:00:00,28.2203,112.9436,49,长沙市,咸嘉湖,岳麓区,1001.8,28.0,55.0,43.22542937310972,20.795518215833035
P5221,2025-06-03 06:00:00,28.4306,113.5953,145,长沙市,石牛,浏阳市,989.8,27.7,58.0,41.18424766212192,21.548726063755442
P5225,2025-06-03 06:00:00,28.2489,113.0753,61,长沙市,县政府,长沙县,999.9,29.0,50.0,25.73663868138954,20.037067547102016
P5230,2025-06-03 06:00:00,28.2311,112.6875,41,长沙市,天马新村,宁乡市,1001.7,27.4,59.0,42.27790391533869,21.538492566723452
P5231,2025-06-03 06:00:00,28.3489,112.8297,44,长沙市,望府路,望城区,1002.0,28.0,76.0,58.62453248572804,28.735625170969282
P5233,2025-06-03 06:00:00,28.2806,112.5453,67,长沙市,玉潭,宁乡市,999.2,28.4,49.0,36.39093539144081,18.96392686296469
P5235,2025-06-03 06:00:00,28.4014,113.1228,69,长沙市,和平,长沙县,998.4,28.9,78.0,52.395021044557815,31.0771651299967
P5245,2025-06-03 06:00:00,28.3578,113.7469,192,长沙市,宝盖寺,浏阳市,986.3,27.5,56.0,41.00660997447464,20.563481037606667
P5249,2025-06-03 06:00:00,28.4283,114.1492,1437,长沙市,大围山,浏阳市,852.1,17.0,92.0,39.20270427820577,17.814291738060245
P5259,2025-06-03 06:00:00,28.4119,112.9264,47,长沙市,桥驿,望城区,1001.1,28.4,51.0,30.120748126619784,19.737964694106104
P5266,2025-06-03 06:00:00,28.225,112.1089,242,长沙市,石龙洞,宁乡市,979.3,26.9,50.0,25.29249716832365,17.724683261458633
P5269,2025-06-03 06:00:00,28.28,112.6847,60,长沙市,关山,宁乡市,1000.4,28.3,50.0,28.614708416969144,19.238610693161032
P5273,2025-06-03 06:00:00,28.32,112.7211,52,长沙市,乌山,望城区,1002.1,28.6,57.0,36.739809794021724,22.31816330325095
P5275,2025-06-03 06:00:00,28.3381,113.2011,41,长沙市,果园,长沙县,1002.3,28.2,51.0,30.004995564142092,19.509382673399543
P5281,2025-06-03 06:00:00,28.2647,112.9558,46,长沙市,观沙岭,岳麓区,1002.2,29.3,57.0,42.06079719566778,23.242349934207343
P5290,2025-06-03 06:00:00,28.3578,113.8136,136,长沙市,礼花,浏阳市,992.1,28.2,57.0,35.96001476758093,21.804604164387726
P5291,2025-06-03 06:00:00,28.4119,113.9247,125,长沙市,椒花水库,浏阳市,992.5,28.4,55.0,36.501785347519764,21.286040356388938
P5292,2025-06-03 06:00:00,28.2658,114.0942,207,长沙市,皇碑,浏阳市,983.3,26.5,64.0,43.92431822279468,22.159021992962668
P5293,2025-06-03 06:00:00,28.0658,113.5647,88,长沙市,青草,浏阳市,998.9,27.3,61.0,30.188380342056465,22.138384868231824
P5294,2025-06-03 06:00:00,27.9958,113.7706,94,长沙市,澄潭江,浏阳市,995.9,25.5,69.0,42.5144744552139,22.51603101790078
P5295,2025-06-03 06:00:00,28.0739,113.9867,166,长沙市,岩前,浏阳市,987.1,25.2,70.0,44.67888695615369,22.438048642295602
P5296,2025-06-03 06:00:00,28.1881,113.5158,417,长沙市,菖蒲岭,浏阳市,959.6,24.6,71.0,41.271641557918045,21.95745078565941
P5298,2025-06-03 06:00:00,28.2083,112.7342,75,长沙市,白箬铺,望城区,999.3,28.9,52.0,33.206147471071525,20.718110086664467
P5303,2025-06-03 06:00:00,28.3167,112.9208,43,长沙市,月亮岛公园,望城区,1002.9,28.0,58.0,40.51455224980742,21.929819209423922
P5304,2025-06-03 06:00:00,28.1058,112.9289,46,长沙市,大王山,岳麓区,1001.5,28.4,51.0,36.245322893524104,19.737964694106104
P5305,2025-06-03 06:00:00,28.0719,112.9189,39,长沙市,巴溪洲,岳麓区,1002.8,29.1,54.0,44.34494365150086,21.765739944738833
P5306,2025-06-03 06:00:00,28.1253,112.9214,30,长沙市,洋湖湿地,岳麓区,1003.3,28.3,52.0,31.74199998020155,20.008155120887473
P5307,2025-06-03 06:00:00,28.2764,112.8547,64,长沙市,观音岩水库,望城区,999.5,26.8,59.0,37.156397179636606,20.792363787279786
P5309,2025-06-03 06:00:00,28.2733,112.8256,50,长沙市,黄金园,望城区,1001.1,28.8,53.0,37.68332588600313,20.994399071948628
P5314,2025-06-03 06:00:00,28.2231,113.1889,70,长沙市,黄龙小学,长沙县,998.7,28.2,55.0,37.53440581957118,21.039530334058334
P5315,2025-06-03 06:00:00,28.2975,113.4322,74.4,长沙市,北盛,浏阳市,998.3,29.1,52.0,33.316031270593584,20.95960142826702
P5322,2025-06-03 06:00:00,28.2247,112.2611,121,长沙市,喻家坳,宁乡市,993.9,27.5,47.0,32.24541934257961,17.25863587084845
P5323,2025-06-03 06:00:00,28.2836,113.9053,122,长沙市,铁山,浏阳市,991.9,28.2,62.0,47.120531372614366,23.71728874021121
P5328,2025-06-03 06:00:00,28.2336,112.9639,65,长沙市,岳北,岳麓区,1002.5,28.3,55.0,33.18899190994329,21.162471762477136
P5329,2025-06-03 06:00:00,28.4608,112.7889,44,长沙市,靖港电排,望城区,1003.4,27.9,55.0,37.251057457128155,20.67444217012206
P5330,2025-06-03 06:00:00,28.1872,112.9747,64,长沙市,天心公园,天心区,1000.7,28.1,51.0,42.264313599438665,19.395961497225418
P5331,2025-06-03 06:00:00,28.1886,111.9597,574,长沙市,沩山,宁乡市,939.9,23.5,53.0,15.265303015713577,15.342097161075055
P5332,2025-06-03 06:00:00,28.1672,113.1039,37,长沙市,敢胜,长沙县,1002.6,28.1,54.0,33.84776594357123,20.536900408826913
P5333,2025-06-03 06:00:00,28.145,112.9647,92,长沙市,南郊公园,天心区,997.3,27.7,59.0,33.40799383014619,21.920255823475365
P5335,2025-06-03 06:00:00,28.31,112.4928,78,长沙市,菁华铺,宁乡市,998.5,28.5,53.0,37.173826860205914,20.63168467801511
P5336,2025-06-03 06:00:00,28.1936,112.5236,67,长沙市,金州村,宁乡市,999.3,27.5,54.0,35.6532869417279,19.829071000549288
P5337,2025-06-03 06:00:00,28.1239,112.23,112,长沙市,云山,宁乡市,995.2,28.1,55.0,32.47672461120408,20.917213379360746
P5339,2025-06-03 06:00:00,28.0281,112.0342,348,长沙市,草冲,宁乡市,967.8,26.4,62.0,45.85027169194557,21.340180893625384
P5342,2025-06-03 06:00:00,27.9244,112.1153,201,长沙市,田心铺,宁乡市,985.2,26.4,52.0,38.195809786633085,17.898216233363225
P5343,2025-06-03 06:00:00,28.1831,112.765,70,长沙市,牌楼坝,望城区,998.6,29.2,59.0,48.97928408247941,23.919129003024285
P5345,2025-06-03 06:00:00,28.2161,112.8033,36,长沙市,真人桥,望城区,998.7,28.1,58.0,48.93106866383865,22.058152290962237
P5346,2025-06-03 06:00:00,28.2114,112.9578,36,长沙市,银盆岭,岳麓区,1002.5,28.4,57.0,41.135591221216266,22.06007818753035
P5347,2025-06-03 06:00:00,28.1581,112.9825,104,长沙市,七里庙,雨花区,996.4,27.6,51.0,28.8383755230013,18.83745471522067
P5348,2025-06-03 06:00:00,28.0739,113.1175,122,长沙市,冬斯港,雨花区,994.1,27.1,58.0,43.34295959926476,20.803866311932158
P5352,2025-06-03 06:00:00,28.3069,113.7983,106,长沙市,沿溪,浏阳市,996.2,28.8,57.0,38.80790729592345,22.578882020774937
P5359,2025-06-03 06:00:00,28.185,113.8469,121,长沙市,株树桥水库,浏阳市,994.1,27.8,59.0,38.53959527193986,22.0488176746362
P5363,2025-06-03 06:00:00,28.2042,114.0764,223,长沙市,小河,浏阳市,980.2,27.6,63.0,40.915572772004026,23.269797001154945
P5372,2025-06-03 06:00:00,28.2153,113.1131,58,长沙市,长桥公园,长沙县,1000.3,27.6,53.0,31.24956600365626,19.57617842954305
P5373,2025-06-03 06:00:00,28.1264,112.0311,192,长沙市,联花,宁乡市,986.2,28.2,43.0,29.823368016294495,16.449087352081968
P5382,2025-06-03 06:00:00,28.0978,112.7422,59,长沙市,莲花,岳麓区,999.5,27.5,55.0,34.50414980531581,20.196276019077978
P5383,2025-06-03 06:00:00,28.1314,112.9047,38,长沙市,学士,岳麓区,1002.9,27.9,52.0,36.54680009333446,19.546745324479037
P5384,2025-06-03 06:00:00,28.1669,112.945,34,长沙市,天马,岳麓区,1002.9,27.8,53.0,37.82146599785844,19.80656502975794
