Station_Id_C,Datetime,Lat,Lon,Alti,City,Station_Name,Cnty,PRS,TEM,RHU,PWV,VAP
57544,2025-06-03 19:00:00,29.4583,109.4433,485.4,湘西土家族苗族自治州,龙山,龙山县,955.0,20.7,88,40.2,21.474377895515506
57554,2025-06-03 19:00:00,29.4011,110.1622,318.8,张家界市,桑植,桑植县,972.7,20.6,93,38.6,22.554999311260282
57558,2025-06-03 19:00:00,29.1183,110.4172,218.5,张家界市,张家界,永定区,983.8,20.5,93,39.2,22.41623855597289
57562,2025-06-03 19:00:00,29.5833,111.3633,119,常德市,石门,石门县,994.8,22.1,85,34.4,22.60152771233459
57564,2025-06-03 19:00:00,29.4317,111.0892,168.7,张家界市,慈利,慈利县,988.3,21.1,98,33.9,24.510713347527858
57565,2025-06-03 19:00:00,29.6669,111.7253,40.2,常德市,澧县,澧县,1003.8,22.6,93,33.5,25.493025177200348
57566,2025-06-03 19:00:00,29.4692,111.67,86,常德市,临澧,临澧县,998.0,22.4,100.0,44.21575152760554,27.080493204289816
57574,2025-06-03 19:00:00,29.3517,112.4317,40.3,益阳市,南县,南县,1003.6,23.4,99.0,59.376135556690016,28.485371574639295
57575,2025-06-03 19:00:00,29.525,112.5567,49.4,岳阳市,华容,华容县,1002.6,22.7,96,33.6,26.47570975742006
57577,2025-06-03 19:00:00,29.4103,112.205,42.2,常德市,安乡,安乡县,1004.3,23.5,100,33.9,28.947353134103878
57584,2025-06-03 19:00:00,29.3808,113.088,52.7,岳阳市,岳阳,岳阳楼区,1002.4,23.4,90,30.8,25.895792340581178
57585,2025-06-03 19:00:00,29.4814,113.4478,64,岳阳市,临湘,临湘市,1001.4,21.5,100,32.6,25.632416640349483
57587,2025-06-03 19:00:00,29.1914,113.1092,48.4,岳阳市,洞庭湖,岳阳县,1002.6,21.4,98.0,53.82702158410545,24.966273728827883
57640,2025-06-03 19:00:00,28.5364,109.4625,532.8,湘西土家族苗族自治州,花垣,花垣县,949.1,19.9,95.0,45.1059355099115,22.063793865449135
57642,2025-06-03 19:00:00,28.6808,109.6481,438.1,湘西土家族苗族自治州,保靖,保靖县,959.8,20.3,95.0,52.94314015059221,22.617111757452335
57643,2025-06-03 19:00:00,29.0083,109.8383,272.6,湘西土家族苗族自治州,永顺,永顺县,978.4,20.7,93,39.3,22.694513003215253
57646,2025-06-03 19:00:00,28.6222,109.9469,318,湘西土家族苗族自治州,古丈,古丈县,973.2,20.3,100,40.9,23.807486060476144
57649,2025-06-03 19:00:00,28.2381,109.6825,253.6,湘西土家族苗族自治州,吉首,吉首市,979.6,21.5,82,42.3,21.018581645086574
57655,2025-06-03 19:00:00,28.4633,110.4031,151.6,怀化市,沅陵县,沅陵县,991.5,21.1,100,42.3,25.010931987273324
57657,2025-06-03 19:00:00,28.21,110.2286,216.4,湘西土家族苗族自治州,泸溪,泸溪县,983.9,19.9,100.0,42.52608305850793,23.225046174156986
57658,2025-06-03 19:00:00,28.0069,110.1928,155.3,怀化市,辰溪,辰溪县,991.1,22.2,87,44.5,23.274803015263952
57661,2025-06-03 19:00:00,28.9133,111.4797,51.1,常德市,桃源,桃源县,1003.1,21.7,96,39,24.910277607541225
57662,2025-06-03 19:00:00,29.1164,111.6767,151.4,常德市,常德,武陵区,991.1,21.9,85,37.6,22.327290661942826
57663,2025-06-03 19:00:00,28.9203,111.9583,36.2,常德市,汉寿,汉寿县,1004.4,22.4,95,38,25.726468544075324
57666,2025-06-03 19:00:00,28.5159,112.1366,139.4,益阳市,桃江,桃江县,992.5,20.8,87,37.6,21.36157128960829
57669,2025-06-03 19:00:00,28.3847,111.2203,129.8,益阳市,安化,安化县,986.6,19.3,95,46.4,21.256089220567667
57671,2025-06-03 19:00:00,28.84,112.3722,43.7,益阳市,沅江,沅江市,1003.6,21.6,100,36.6,25.789887461626247
57673,2025-06-03 19:00:00,28.7283,112.9253,63,岳阳市,湘阴,湘阴县,1000.9,21.2,99.0,39.435663992872236,24.913400505352612
57674,2025-06-03 19:00:00,28.5722,112.3783,49.6,益阳市,赫山,赫山区,994.6,22.4,88,43.8,23.83083401977504
57678,2025-06-03 19:00:00,28.2514,112.5433,60.9,长沙市,宁乡,宁乡市,999.6,21.2,95,41.5,23.906798464732304
57679,2025-06-03 19:00:00,28.2117,113.1972,103.6,长沙市,长沙黄花,长沙县,996.5,21.5,93,40,23.83814747552502
57680,2025-06-03 19:00:00,28.8565,113.1071,82,岳阳市,汨罗,汨罗市,999.2,21.4,89,38.7,22.67345267209879
57682,2025-06-03 19:00:00,28.7117,113.5717,106.9,岳阳市,平江,平江县,996.1,20.2,100,38.1,23.660687520680476
57687,2025-06-03 19:00:00,28.1086,112.7864,119,长沙市,长沙,岳麓区,994.5,19.8,100.0,40.48904791441827,23.081404983815023
57688,2025-06-03 19:00:00,28.1561,113.6308,102.6,长沙市,浏阳,浏阳市,996.7,20.6,93,44.6,22.554999311260282
57740,2025-06-03 19:00:00,27.9528,109.5953,353,湘西土家族苗族自治州,凤凰,凤凰县,968.9,21.3,80,46.6,20.256001803378226
57743,2025-06-03 19:00:00,27.8586,109.8139,176.8,怀化市,麻阳国家基本观测站,麻阳苗族自治县,986.0,21.5,85,45.7,21.78755414429706
57744,2025-06-03 19:00:00,27.3682,109.1635,353,怀化市,新晃,新晃侗族自治县,969.1,19.7,85,46.9,19.49776243440348
57745,2025-06-03 19:00:00,27.455,109.6811,272.9,怀化市,芷江,芷江侗族自治县,977.6,20.4,92,48.1,22.038676448398125
57749,2025-06-03 19:00:00,27.6069,110.0306,286.9,怀化市,怀化,鹤城区,975.8,20.4,100.0,54.35855926419137,23.955083096084916
57752,2025-06-03 19:00:00,27.9125,110.6008,207.4,怀化市,溆浦,溆浦县,985.3,20.7,90,45.3,21.962431938595405
57754,2025-06-03 19:00:00,27.2117,109.8353,252,怀化市,洪江,洪江市,979.5,20.2,91.0,45.07538116189461,21.531225643819237
57758,2025-06-03 19:00:00,27.0253,110.6067,342.2,邵阳市,洞口,洞口县,969.8,19.6,93,45.8,21.200707553641184
57760,2025-06-03 19:00:00,27.6964,111.4367,249.2,娄底市,冷水江,冷水江市,980.0,19.8,91.0,37.189813379215295,21.004078535271674
57761,2025-06-03 19:00:00,27.7467,111.2939,215.4,娄底市,新化,新化县,984.4,20.6,82,46.9,19.887203693799382
57762,2025-06-03 19:00:00,27.6961,111.7033,167.2,娄底市,涟源,涟源市,980.0,19.3,88,48.1,19.689851067473207
57763,2025-06-03 19:00:00,27.6911,112.0019,155.5,娄底市,娄底,娄底市,984.8,20.1,86,45.6,20.22262806771081
57765,2025-06-03 19:00:00,27.325,110.4072,1386.6,怀化市,雪峰山,洪江市,857.9,14.8,88.0,28.91595155762429,14.80361368907238
57766,2025-06-03 19:00:00,27.185,111.4536,311,邵阳市,邵阳,大祥区,973.2,19.8,85.0,33.51527537594987,19.61919423624277
57767,2025-06-03 19:00:00,27.1133,111.0325,310.8,邵阳市,隆回,隆回县,973.4,19.8,90,44.4,20.77326448543352
57768,2025-06-03 19:00:00,27.3411,111.4464,294.1,邵阳市,新邵,新邵县,974.9,19.2,95,44.5,21.1240263246392
57769,2025-06-03 19:00:00,27.2375,111.7361,253.9,邵阳市,邵东,邵东市,973.8,19.3,100,48.2,22.37483075849228
57771,2025-06-03 19:00:00,27.8867,112.5925,127.6,湘潭市,韶山,韶山市,993.6,21.2,82.0,42.69326992925923,20.635341832716303
57772,2025-06-03 19:00:00,27.751,112.5059,86.9,湘潭市,湘乡,湘乡市,998.3,20.4,98,45.7,23.475981434163216
57773,2025-06-03 19:00:00,27.8756,112.8275,63.8,湘潭市,湘潭观测站,雨湖区,1000.7,21.2,91.0,47.03924901150415,22.900196424112
57774,2025-06-03 19:00:00,27.4486,112.1733,103.1,娄底市,双峰,双峰县,990.7,20.2,90,51.1,21.29461876861243
57776,2025-06-03 19:00:00,27.2961,112.6936,1265.9,衡阳市,南岳,南岳区,871.0,15.1,100.0,48.12109662383127,17.150528575392226
57777,2025-06-03 19:00:00,27.2581,112.8372,159.1,衡阳市,衡山,衡山县,989.7,21.4,87.0,52.37943289005457,22.163936881714548
57778,2025-06-03 19:00:00,27.0525,112.9847,112.4,衡阳市,衡东,衡东县,995.3,19.9,100,49.8,23.225046174156986
57779,2025-06-03 19:00:00,27.0556,113.3528,115.2,株洲市,攸县,攸县,994.5,20.5,100,49.1,24.103482318250418
57780,2025-06-03 19:00:00,27.8689,113.1736,74.6,株洲市,株洲,荷塘区,999.3,22.1,100.0,59.0931574804332,26.59003260274658
57781,2025-06-03 19:00:00,27.6406,113.5069,75.9,株洲市,醴陵,醴陵市,999.8,21.0,90,47.4,22.371877230992233
57841,2025-06-03 19:00:00,26.5619,109.6736,322.5,怀化市,靖州,靖州苗族侗族自治县,971.9,19.6,95,47.6,21.656636748343143
57842,2025-06-03 19:00:00,26.8767,109.7208,287.8,怀化市,会同,会同县,976.1,20.5,89,49.6,21.45209926324287
57845,2025-06-03 19:00:00,26.1589,109.7778,400.2,怀化市,通道,通道侗族自治县,963.3,18.6,96,45.6,20.560845483806265
57846,2025-06-03 19:00:00,26.5867,110.1419,382.7,邵阳市,绥宁,绥宁县,965.3,17.4,96,44.7,19.065560100263834
57851,2025-06-03 19:00:00,26.4418,110.8528,348.4,邵阳市,新宁,新宁县,969.3,18.2,100,46.9,20.886837264075304
57853,2025-06-03 19:00:00,26.7386,110.6371,340.1,邵阳市,武冈,武冈市,970.2,20.0,83,45.2,19.39666112427348
57857,2025-06-03 19:00:00,26.3726,110.311,479.1,邵阳市,城步,城步苗族自治县,955.2,17.8,86,43.7,17.51623319740785
57860,2025-06-03 19:00:00,27.0022,111.2884,288.5,邵阳市,邵阳县,邵阳县,967.9,20.3,88,49.3,20.950587733219006
57865,2025-06-03 19:00:00,26.4956,111.6161,192.8,永州市,冷水滩,冷水滩区,986.1,20.4,96.0,53.67847734670675,22.996879772241517
57866,2025-06-03 19:00:00,26.226,111.6167,173.4,永州市,永州,零陵区,988.5,20.5,88,48.8,21.21106444006037
57867,2025-06-03 19:00:00,26.4025,111.2892,174.9,永州市,东安,东安县,988.4,20.2,93,47.7,22.004439394232843
57868,2025-06-03 19:00:00,26.5494,111.8622,163.3,永州市,祁阳,祁阳市,989.2,21.4,87.0,47.953835327434284,22.163936881714548
57870,2025-06-03 19:00:00,26.7633,112.0825,218.9,衡阳市,祁东,祁东县,983.0,22.0,83,49.1,21.93547665305786
57871,2025-06-03 19:00:00,26.9742,112.3669,90.8,衡阳市,衡阳县,衡阳县,997.4,21.5,98.0,62.24773384531849,25.119768307542493
57872,2025-06-03 19:00:00,26.9775,112.5942,122.1,衡阳市,衡阳,石鼓区,994.2,20.7,92,51.2,22.450485981675303
57874,2025-06-03 19:00:00,26.4092,112.3939,119,衡阳市,常宁,常宁市,994.7,20.9,89,50.5,21.987606078632794
57875,2025-06-03 19:00:00,26.755,112.6914,137,衡阳市,衡南,衡南县,992.1,21.8,92.0,54.32878884778099,24.01878559926581
57876,2025-06-03 19:00:00,26.4278,112.8292,138,衡阳市,耒阳,耒阳市,992.4,20.7,94,50.7,22.938540024755202
57881,2025-06-03 19:00:00,26.7139,113.2586,104.8,郴州市,安仁,安仁县,985.9,20.5,100,55.9,24.103482318250418
57882,2025-06-03 19:00:00,26.7892,113.545,133.2,株洲市,茶陵,茶陵县,992.2,21.2,99.0,54.903678602829565,24.913400505352612
57886,2025-06-03 19:00:00,26.4778,113.7922,273.2,株洲市,炎陵,炎陵县,977.3,19.9,97,50.3,22.528294788932275
57887,2025-06-03 19:00:00,26.1192,113.1144,169.4,郴州市,永兴,永兴县,988.4,21.5,91,51.6,23.325499142718034
57889,2025-06-03 19:00:00,26.0797,113.9447,834.1,郴州市,桂东,桂东县,915.3,17.3,100.0,35.70142854893673,19.734771277294826
57962,2025-06-03 19:00:00,25.9617,111.6544,206.7,永州市,双牌,双牌县,984.6,19.6,100,49.2,22.796459735098047
57965,2025-06-03 19:00:00,25.5339,111.5958,192.7,永州市,道县,道县,986.0,20.7,93,50.3,22.694513003215253
57966,2025-06-03 19:00:00,25.5947,111.9594,243.1,永州市,宁远,宁远县,980.1,19.9,92,48.9,21.367042480224427
57969,2025-06-03 19:00:00,25.2758,111.3106,259.4,永州市,江永,江永县,977.5,19.5,93.0,51.2787963564884,21.069288079086977
57971,2025-06-03 19:00:00,25.9117,112.2067,227.4,永州市,新田,新田县,982.7,19.3,100,48.5,22.37483075849228
57972,2025-06-03 19:00:00,25.7356,112.9772,368.6,郴州市,郴州,北湖区,966.1,20.1,86.0,42.69002929537919,20.22262806771081
57973,2025-06-03 19:00:00,25.7494,112.7247,329.8,郴州市,桂阳,桂阳县,970.9,19.7,91,46.9,20.874075076831964
57974,2025-06-03 19:00:00,25.5814,112.3653,214.5,郴州市,嘉禾,嘉禾县,983.8,19.6,100.0,49.80285010184795,22.796459735098047
57975,2025-06-03 19:00:00,25.4006,112.1678,345.9,永州市,蓝山,蓝山县,968.7,18.4,100.0,46.32269389322254,21.150730445492975
57976,2025-06-03 19:00:00,25.4058,112.9406,225.2,郴州市,宜章,宜章县,982.1,21.5,84,51,21.531229977893567
57978,2025-06-03 19:00:00,25.2731,112.5461,295.7,郴州市,临武,临武县,974.7,18.6,97,46.8,20.775020957595913
57981,2025-06-03 19:00:00,25.9744,113.2169,142.2,郴州市,资兴,资兴市,991.5,22.4,88,51.9,23.83083401977504
57985,2025-06-03 19:00:00,25.5558,113.6881,648.2,郴州市,汝城,汝城县,935.4,18.6,100,47.7,21.41754737896486
59063,2025-06-03 19:00:00,25.1819,111.5703,265.7,永州市,江华,江华瑶族自治县,977.5,20.8,93.0,56.107917695088936,22.834783102684725
CDAX,2025-06-03 19:00:00,29.41,112.2047,15.95,常德市,深柳镇,安乡县,1010.7804,24.8393,999999,35.1756,
CDHP,2025-06-03 19:00:00,29.9381,110.7792,224.54,常德市,东山峰管理区,石门县,986.7854,23.4867,999999,31.6852,
CDHS,2025-06-03 19:00:00,28.92,111.9583,15.82,常德市,龙阳街道,汉寿县,1010.7776,24.8909,999999,35.4604,
CDLL,2025-06-03 19:00:00,29.4619,111.7386,37.82,常德市,烽火乡,临澧县,1008.1253,24.6914,999999,37.169,
CDLX,2025-06-03 19:00:00,29.6564,111.7517,31.69,常德市,澧阳街道,澧县,1010.186,24.7803,999999,33.9063,
CDSM,2025-06-03 19:00:00,29.5833,111.3631,97.51,常德市,楚江街道,石门县,1001.2246,24.3073,999999,35.3058,
CDSQ,2025-06-03 19:00:00,29.1164,111.6764,130.04,常德市,柳叶湖街道,柳叶湖旅游度假区,997.5654,24.1584,999999,37.6596,
CDTY,2025-06-03 19:00:00,28.9133,111.4797,29.45,常德市,漳江街道,桃源县,1009.1271,24.8031,999999,39.1182,
CSDY,2025-06-03 19:00:00,28.0314,113.6667,135.48,长沙市,大瑶镇,浏阳市,997.6962,24.279,999999,44.1006,
CSHH,2025-06-03 19:00:00,28.2114,113.1969,88.32,长沙市,黄花镇,长沙县,1002.8796,24.5407,999999,42.553,
CSKC,2025-06-03 19:00:00,28.1825,112.9964,66.33,长沙市,左家塘街道,雨花区,1005.2864,24.6736,999999,42.9989,
CSLY,2025-06-03 19:00:00,28.1561,113.6306,89.16,长沙市,淮川街道,浏阳市,1002.9913,24.5525,999999,43.5351,
CSNX,2025-06-03 19:00:00,28.1425,112.2319,94.42,长沙市,横市镇,宁乡市,1001.7966,24.4894,999999,43.7504,
CSXZ,2025-06-03 19:00:00,28.1014,111.9017,432.31,长沙市,巷子口镇,宁乡市,963.5625,22.3935,999999,38.572,
CSYH,2025-06-03 19:00:00,28.2939,113.8503,120.74,长沙市,永和镇,浏阳市,999.4787,24.3481,999999,43.597,
CZAR,2025-06-03 19:00:00,26.7136,113.2586,91.8,郴州市,永乐江镇,安仁县,1002.5672,24.6811,999999,50.4403,
CZBL,2025-06-03 19:00:00,26.3425,113.2789,185.29,郴州市,柏林镇,永兴县,991.9504,24.1424,999999,51.0579,
CZGY,2025-06-03 19:00:00,25.7494,112.7244,316.5,郴州市,鹿峰街道,桂阳县,976.9395,23.3779,999999,47.0406,
CZJH,2025-06-03 19:00:00,25.5519,112.3736,203.17,郴州市,珠泉镇,嘉禾县,989.3466,24.0806,999999,50.5408,
CZLT,2025-06-03 19:00:00,26.0797,112.4703,270.37,郴州市,莲塘镇,桂阳县,981.9877,23.6228,999999,48.4192,
CZLW,2025-06-03 19:00:00,25.2731,112.5461,282.88,郴州市,武水镇,临武县,980.7245,23.6364,999999,48.8963,
CZRC,2025-06-03 19:00:00,25.5144,113.6819,639.65,郴州市,卢阳镇,汝城县,941.6725,21.4181,999999,46.2901,
CZYX,2025-06-03 19:00:00,26.1189,113.1144,156.86,郴州市,便江街道,永兴县,995.1399,24.3399,999999,50.8733,
CZYZ,2025-06-03 19:00:00,25.4058,112.9406,213.64,郴州市,玉溪镇,宜章县,988.7176,24.0629,999999,51.1166,
CZZX,2025-06-03 19:00:00,25.9744,113.2167,130.28,郴州市,唐洞街道,资兴市,998.2711,24.5255,999999,52.198,
GQZX,2025-06-03 19:00:00,28.4664,113.3325,63.76,长沙市,高桥镇,长沙县,1005.7437,24.6683,999999,40.383,
HHCX,2025-06-03 19:00:00,28.0069,110.1928,133.26,怀化市,辰阳镇,辰溪县,996.9795,24.2427,999999,46.3996,
HHGZ,2025-06-03 19:00:00,28.5353,110.9139,219.4,怀化市,官庄镇,沅陵县,987.322,23.6615,999999,40.5243,
HHHJ,2025-06-03 19:00:00,27.1053,109.9964,181.65,怀化市,桂花园乡,洪江区,980.9639,23.4615,999999,51.556,
HHHT,2025-06-03 19:00:00,26.8767,109.7206,265.29,怀化市,林城镇,会同县,981.8055,23.5305,999999,49.5416,
HHJZ,2025-06-03 19:00:00,26.5617,109.6733,299.9,怀化市,渠阳镇,靖州苗族侗族自治县,977.9012,23.3475,999999,48.6849,
HHSA,2025-06-03 19:00:00,28.1744,110.7831,239.99,怀化市,深子湖镇,溆浦县,989.7483,23.8351,999999,49.6346,
HHSQ,2025-06-03 19:00:00,27.5461,109.9483,229.59,怀化市,城中街道,鹤城区,985.9383,23.6883,999999,48.5514,
HHTD,2025-06-03 19:00:00,26.1589,109.7778,378.48,怀化市,双江镇,通道侗族自治县,969.0983,22.9002,999999,46.7104,
HHXH,2025-06-03 19:00:00,27.3681,109.1633,328.57,怀化市,晃州镇,新晃侗族自治县,974.5233,23.0777,999999,49.1552,
HHXP,2025-06-03 19:00:00,27.9122,110.6006,186.58,怀化市,卢峰镇,溆浦县,990.9966,23.9269,999999,46.9149,
HHZF,2025-06-03 19:00:00,27.5883,110.2794,172.54,怀化市,铜湾镇,中方县,992.52,24.0437,999999,49.341,
HNCL,2025-06-03 19:00:00,26.7883,113.5608,114.74,株洲市,洣江街道,茶陵县,1000.0747,24.5382,999999,50.5965,
HNHJ,2025-06-03 19:00:00,27.1164,109.7269,201.81,怀化市,江市镇,洪江市,988.9886,23.9,999999,50.3411,
HNHY,2025-06-03 19:00:00,27.1492,112.3297,116.16,衡阳市,三湖镇,衡阳县,999.3711,24.4622,999999,49.696,
HNJH,2025-06-03 19:00:00,25.1503,111.6225,271.71,永州市,涔天河镇,江华瑶族自治县,981.6803,23.7019,999999,47.1582,
HNLH,2025-06-03 19:00:00,27.3533,110.9406,331.55,邵阳市,六都寨镇,隆回县,974.6925,23.0886,999999,44.4071,
HNQY,2025-06-03 19:00:00,26.7692,111.8764,129.49,永州市,文富市镇,祁阳市,997.7468,24.4138,999999,48.9762,
HNRC,2025-06-03 19:00:00,25.5433,113.3447,499.17,郴州市,文明瑶族乡,汝城县,956.9362,22.2812,999999,47.5104,
HNTJ,2025-06-03 19:00:00,28.4706,111.7678,84.25,益阳市,马迹塘镇,桃江县,1002.8746,24.5132,999999,41.0915,
HNTY,2025-06-03 19:00:00,29.1786,111.2881,64.02,常德市,九溪镇,桃源县,1005.1018,24.5588,999999,40.432,
HNYL,2025-06-03 19:00:00,28.8117,110.6264,163.36,怀化市,大合坪乡,沅陵县,993.6436,23.9774,999999,44.5344,
HNYY,2025-06-03 19:00:00,29.1117,113.4997,129.4,岳阳市,公田镇,岳阳县,998.2605,24.1965,999999,36.1665,
HYCN,2025-06-03 19:00:00,26.4089,112.3939,103.58,衡阳市,泉峰街道,常宁市,1000.8851,24.622,999999,50.9724,
HYGS,2025-06-03 19:00:00,26.7161,112.8797,77.57,衡阳市,冠市镇,衡南县,1004.0321,24.7602,999999,50.9938,
HYHD,2025-06-03 19:00:00,27.0911,112.9464,58.69,衡阳市,洣水镇,衡东县,1001.7019,24.5987,999999,49.7148,
HYLY,2025-06-03 19:00:00,26.4278,112.8289,123.95,衡阳市,五里牌街道,耒阳市,998.7032,24.5016,999999,50.567,
HYQD,2025-06-03 19:00:00,26.7636,112.0822,205.35,衡阳市,永昌街道,祁东县,989.1509,23.9455,999999,47.7624,
P1000,2025-06-03 19:00:00,29.5819,109.5853,523,湘西土家族苗族自治州,石牌,龙山县,946.4,19.4,96.0,50.06328491988565,21.614022402714625
P1001,2025-06-03 19:00:00,29.4103,109.5969,803.2,湘西土家族苗族自治州,茨岩塘,龙山县,920.2,17.5,99.0,36.10778261651487,19.78598444924326
P1003,2025-06-03 19:00:00,29.3381,109.4894,848,湘西土家族苗族自治州,茅坪,龙山县,913.0,17.4,95.0,38.39287653092995,18.86696051588609
P1006,2025-06-03 19:00:00,29.2897,109.4136,1224,湘西土家族苗族自治州,可立坡,龙山县,875.1,16.9,88.0,33.86501073980349,16.932018150798314
P1009,2025-06-03 19:00:00,28.8125,109.3497,330.2,湘西土家族苗族自治州,树木,龙山县,970.0,20.2,100.0,54.08960548793937,23.660687520680476
P1016,2025-06-03 19:00:00,28.2761,109.6769,243.7,湘西土家族苗族自治州,红枫林场,吉首市,978.5,20.1,99.0,46.64672992224622,23.2795369616671
P1018,2025-06-03 19:00:00,29.1372,109.3714,791.6,湘西土家族苗族自治州,喳啦坪,龙山县,918.1,17.9,100.0,44.634198131360236,20.4964197860545
P1021,2025-06-03 19:00:00,29.0394,109.3542,338,湘西土家族苗族自治州,咱果,龙山县,969.0,19.7,97.0,42.29778717643542,22.25038771926044
P1060,2025-06-03 19:00:00,29.1431,109.6892,372,湘西土家族苗族自治州,两岔,永顺县,965.4,19.6,100.0,46.119003266668614,22.796459735098047
P1062,2025-06-03 19:00:00,29.0975,109.7117,307.2,湘西土家族苗族自治州,首车,永顺县,969.8,19.6,98.0,46.622277047791606,22.340530540396088
P1063,2025-06-03 19:00:00,28.9867,109.6683,434.2,湘西土家族苗族自治州,西歧,永顺县,960.2,19.3,100.0,45.7694231718012,22.37483075849228
P1066,2025-06-03 19:00:00,28.8458,110.1953,845.2,湘西土家族苗族自治州,三合,永顺县,913.6,18.5,87.0,39.76552228833555,18.516881402136942
P1069,2025-06-03 19:00:00,29.0336,110.2889,352.2,湘西土家族苗族自治州,永茂,永顺县,962.0,19.3,92.0,43.74505695152395,20.5848442978129
P1070,2025-06-03 19:00:00,29.0189,110.1378,543.6,湘西土家族苗族自治州,五里,永顺县,947.7,18.8,97.0,39.57457996313655,21.03669614059887
P1073,2025-06-03 19:00:00,28.8172,110.1172,218.7,湘西土家族苗族自治州,长官,永顺县,981.1,19.9,94.0,44.98656140671198,21.831543403707567
P1074,2025-06-03 19:00:00,28.8608,109.9961,615.3,湘西土家族苗族自治州,马鞍,永顺县,946.2,18.7,66.0,27.742912554388973,14.224360162432173
P1075,2025-06-03 19:00:00,29.2,109.8333,561.1,湘西土家族苗族自治州,李家,永顺县,943.0,18.7,93.0,40.80483387982929,20.043416592518064
P1076,2025-06-03 19:00:00,29.2864,109.8842,447.4,湘西土家族苗族自治州,毛坝,永顺县,956.2,19.0,98.0,37.72008392964028,21.520861631233014
P1077,2025-06-03 19:00:00,29.2017,109.9564,405.1,湘西土家族苗族自治州,隆发,永顺县,960.8,19.4,97.0,43.18648011600927,21.839168469409568
P1083,2025-06-03 19:00:00,29.1953,109.7719,750.7,湘西土家族苗族自治州,岩门,永顺县,924.0,21.2,67.0,31.045980233009786,16.860584180390152
P1084,2025-06-03 19:00:00,29.0697,110.2394,416,湘西土家族苗族自治州,青坪,永顺县,960.7,18.8,100.0,44.225050398862805,21.687315608864814
P1086,2025-06-03 19:00:00,29.1339,110.1864,401.2,湘西土家族苗族自治州,柯溪,永顺县,962.5,19.5,99.0,42.589783823176674,22.42859698741517
P1089,2025-06-03 19:00:00,29.0811,109.9828,625.8,湘西土家族苗族自治州,天堂,永顺县,937.5,19.1,97.0,39.71850516464918,21.434635531447313
P1091,2025-06-03 19:00:00,28.7372,109.965,486.3,湘西土家族苗族自治州,新区,永顺县,951.8,19.8,85.0,44.929272978646175,19.61919423624277
P1093,2025-06-03 19:00:00,28.8628,109.7828,399.7,湘西土家族苗族自治州,西那司,永顺县,962.0,19.9,91.0,40.53247626032763,21.13479201848286
P1095,2025-06-03 19:00:00,29.2839,110.0114,435.2,湘西土家族苗族自治州,砂坝,永顺县,956.8,19.6,97.0,42.197552711415085,22.112565943045105
P1096,2025-06-03 19:00:00,28.9219,110.3042,576.2,湘西土家族苗族自治州,朗溪,永顺县,942.0,17.5,97.0,39.2218177986499,19.386267591682785
P1097,2025-06-03 19:00:00,28.8928,109.6961,441.7,湘西土家族苗族自治州,宝石,永顺县,954.9,19.6,96.0,45.99961068084856,21.884601345694126
P1098,2025-06-03 19:00:00,28.8408,109.2558,1225,湘西土家族苗族自治州,八面山景区,龙山县,873.9,17.8,71.0,27.09600826737502,14.461076244371599
P1099,2025-06-03 19:00:00,28.2106,109.5614,268.4,湘西土家族苗族自治州,黄石洞水库,吉首市,973.1,20.5,85.0,46.66443626777271,20.487959970512854
P1100,2025-06-03 19:00:00,28.4428,109.4178,544.4,湘西土家族苗族自治州,三塘,花垣县,948.4,19.0,98.0,47.101056614643355,21.520861631233014
P1101,2025-06-03 19:00:00,28.5158,109.5869,675.8,湘西土家族苗族自治州,排力,保靖县,930.7,20.1,94.0,45.970149388583735,22.103802771683913
P1103,2025-06-03 19:00:00,28.5381,109.7606,363,湘西土家族苗族自治州,葫芦,保靖县,967.0,19.5,97.0,56.3682356595097,21.975494017972437
P1104,2025-06-03 19:00:00,28.1497,109.3761,837.6,湘西土家族苗族自治州,两林,凤凰县,914.1,18.6,100.0,40.035742763334035,21.41754737896486
P1113,2025-06-03 19:00:00,28.61,109.3547,325.4,湘西土家族苗族自治州,毛沟,保靖县,970.0,20.4,93.0,40.08690774850943,22.278227279358973
P1127,2025-06-03 19:00:00,28.6269,109.5519,214.7,湘西土家族苗族自治州,复兴,保靖县,981.5,20.9,100.0,50.86328319124898,24.70517536925033
P1152,2025-06-03 19:00:00,28.5181,109.2814,301.4,湘西土家族苗族自治州,曲乐,花垣县,971.1,20.0,97.0,42.65453290872623,22.668387097042498
P1154,2025-06-03 19:00:00,28.4247,109.5,742.3,湘西土家族苗族自治州,排达鲁,花垣县,924.2,18.6,100.0,46.64965493186884,21.41754737896486
P1172,2025-06-03 19:00:00,28.4964,109.3892,520.6,湘西土家族苗族自治州,祥和,花垣县,948.5,19.6,100.0,47.91325898653524,22.796459735098047
P1173,2025-06-03 19:00:00,28.5092,109.4736,478.5,湘西土家族苗族自治州,兄弟河水库,花垣县,953.6,19.4,97.0,55.06132017077198,21.839168469409568
P1203,2025-06-03 19:00:00,28.6939,109.8253,382.8,湘西土家族苗族自治州,米多,古丈县,963.2,19.3,100.0,44.74363959540838,22.37483075849228
P1208,2025-06-03 19:00:00,28.4803,109.8911,271,湘西土家族苗族自治州,中寨,古丈县,975.3,19.6,97.0,50.71147669135476,22.112565943045105
P1231,2025-06-03 19:00:00,28.3511,109.9481,345.4,湘西土家族苗族自治州,大坪,吉首市,966.6,20.0,100.0,51.17504925768776,23.36947123406443
P1232,2025-06-03 19:00:00,28.3381,109.5619,622.2,湘西土家族苗族自治州,排兄,吉首市,935.9,19.3,100.0,47.00636021567752,22.37483075849228
P1233,2025-06-03 19:00:00,28.2128,109.695,265.6,湘西土家族苗族自治州,周家寨,吉首市,975.8,20.5,89.0,44.75566333116103,21.45209926324287
P1236,2025-06-03 19:00:00,28.2122,109.8067,176.6,湘西土家族苗族自治州,河溪,吉首市,986.3,20.1,97.0,49.82748224758572,22.809243285673823
P1240,2025-06-03 19:00:00,28.3172,109.6519,388,湘西土家族苗族自治州,寨阳炮点,吉首市,962.2,20.8,89.0,44.28411158385642,21.8526418939671
P1241,2025-06-03 19:00:00,28.3233,109.5911,212.6,湘西土家族苗族自治州,矮寨,吉首市,981.9,21.1,92.0,46.11459613342559,23.01005742829146
P1246,2025-06-03 19:00:00,28.2561,109.6425,176.2,湘西土家族苗族自治州,八月湖水库,吉首市,984.3,20.1,97.0,49.82748224758572,22.809243285673823
P1248,2025-06-03 19:00:00,28.2953,109.7417,275.3,湘西土家族苗族自治州,镇溪,吉首市,976.5,21.4,90.0,42.64677659361983,22.92821056729091
P1291,2025-06-03 19:00:00,28.2233,110.0886,290.9,湘西土家族苗族自治州,大长坡,泸溪县,972.9,21.2,81.0,46.2922682079464,20.38369132256123
P1295,2025-06-03 19:00:00,28.0111,109.9969,235.1,湘西土家族苗族自治州,公羊,泸溪县,979.4,20.4,98.0,47.05003272193574,23.475981434163216
P1298,2025-06-03 19:00:00,28.1747,109.9475,213.8,湘西土家族苗族自治州,白羊溪,泸溪县,981.5,19.7,99.0,48.358375589466185,22.709158600069937
P1300,2025-06-03 19:00:00,28.1306,109.7322,140.2,湘西土家族苗族自治州,水卡,泸溪县,985.1,19.7,96.0,48.08603380983644,22.021002278855697
P1302,2025-06-03 19:00:00,28.11,109.89,383.2,湘西土家族苗族自治州,永兴场,泸溪县,963.7,19.9,94.0,46.88909130376851,21.831543403707567
P1303,2025-06-03 19:00:00,28.1264,109.8864,345,湘西土家族苗族自治州,小章,泸溪县,966.7,19.9,95.0,41.92343126976819,22.063793865449135
P1304,2025-06-03 19:00:00,28.2622,109.9231,150,湘西土家族苗族自治州,潭溪,泸溪县,992.2,20.5,96.0,53.33683936368803,23.1393430255204
P1306,2025-06-03 19:00:00,28.2403,110.0172,130,湘西土家族苗族自治州,甘溪,泸溪县,993.4,20.0,100.0,53.48774143754538,23.36947123406443
P1307,2025-06-03 19:00:00,28.3397,110.0339,230.1,湘西土家族苗族自治州,梁家潭,泸溪县,981.4,19.5,97.0,50.15347116773597,21.975494017972437
P1321,2025-06-03 19:00:00,28.0744,110.0911,139,湘西土家族苗族自治州,罗家,泸溪县,991.5,21.7,93.0,58.47555735763652,24.131831432305564
P1333,2025-06-03 19:00:00,27.9553,109.9908,172.6,湘西土家族苗族自治州,石榴坪,泸溪县,987.9,20.3,100.0,45.1324591750907,23.807486060476144
P1345,2025-06-03 19:00:00,28.0725,109.3836,799.3,湘西土家族苗族自治州,腊尔山,凤凰县,917.6,19.0,87.0,35.991156119882596,19.105254713441553
P1346,2025-06-03 19:00:00,28.1683,109.6061,226,湘西土家族苗族自治州,拉务,凤凰县,980.3,19.9,86.0,39.571727669749436,19.973539709775004
P1347,2025-06-03 19:00:00,28.0433,109.4572,605.5,湘西土家族苗族自治州,山江,凤凰县,938.8,19.8,100.0,46.782356932446106,23.081404983815023
P1348,2025-06-03 19:00:00,28.095,109.6017,337.4,湘西土家族苗族自治州,吉信,凤凰县,969.0,20.3,82.0,50.96937277438937,19.522138569590435
P1349,2025-06-03 19:00:00,27.9136,109.3144,673.9,湘西土家族苗族自治州,龙塘河水库,凤凰县,931.0,19.9,82.0,34.70150270843723,19.044537862808724
P1357,2025-06-03 19:00:00,27.9906,109.5111,378.5,湘西土家族苗族自治州,长潭岗水库,凤凰县,963.7,19.7,92.0,44.16682695435279,21.103460517236712
P1358,2025-06-03 19:00:00,28.0781,109.7528,401.4,湘西土家族苗族自治州,雷公洞,凤凰县,961.0,19.4,81.0,31.2193435748344,18.236831402290466
P1359,2025-06-03 19:00:00,27.8781,109.4486,427.3,湘西土家族苗族自治州,新场中学,凤凰县,960.4,20.0,90.0,37.27977149027281,21.032524110657988
P1367,2025-06-03 19:00:00,27.8942,109.5522,398.9,湘西土家族苗族自治州,林峰,凤凰县,961.8,19.5,81.0,27.324371571072366,18.350670262430594
P1368,2025-06-03 19:00:00,27.9197,109.6119,322,湘西土家族苗族自治州,古城,凤凰县,969.1,21.4,80.0,43.94944869714955,20.3806316153697
P1370,2025-06-03 19:00:00,28.2753,109.7925,162.3,湘西土家族苗族自治州,马鞍,吉首市,987.8,20.1,95.0,52.15861330791388,22.33894960968055
P1371,2025-06-03 19:00:00,28.1964,109.9825,359.9,湘西土家族苗族自治州,马入田,泸溪县,966.1,19.4,75.0,23.871672621829124,16.8859550021208
P1372,2025-06-03 19:00:00,28.755,109.85,433.1,湘西土家族苗族自治州,红石林,古丈县,959.1,19.4,99.0,47.30378562295764,22.28946060279946
P1373,2025-06-03 19:00:00,28.4178,109.9347,236,湘西土家族苗族自治州,坪坝学校,古丈县,981.7,19.9,100.0,44.417718701937,23.225046174156986
P1374,2025-06-03 19:00:00,28.1769,109.4631,766.4,湘西土家族苗族自治州,大坪,凤凰县,921.3,18.4,82.0,28.416624484173283,17.343598965304235
P1375,2025-06-03 19:00:00,28.0228,109.5153,444,湘西土家族苗族自治州,建塘,凤凰县,956.3,19.1,95.0,38.7300715315635,20.992684283376235
P1376,2025-06-03 19:00:00,28.4506,109.8275,339.8,湘西土家族苗族自治州,团结,吉首市,968.6,19.9,98.0,54.27290311073096,22.760545250673847
P1383,2025-06-03 19:00:00,28.7953,110.2147,765.7,湘西土家族苗族自治州,竹坪,永顺县,921.8,18.8,75.0,27.13107752341443,16.26548670664861
P1385,2025-06-03 19:00:00,28.4478,109.7886,222.1,湘西土家族苗族自治州,冷寨河茶园,保靖县,981.6,20.0,96.0,51.38820876559626,22.434692384701854
P1386,2025-06-03 19:00:00,28.7764,109.7872,444.3,湘西土家族苗族自治州,友和,永顺县,956.8,19.0,96.0,52.74761863190351,21.081660373452745
P1387,2025-06-03 19:00:00,29.1019,109.9569,411.8,湘西土家族苗族自治州,颗砂,永顺县,960.4,19.4,98.0,45.386913703510956,22.064314536104515
P1390,2025-06-03 19:00:00,29.5056,109.4525,526,湘西土家族苗族自治州,白泥,龙山县,948.7,19.5,94.0,47.9057455168472,21.295839563808343
P1393,2025-06-03 19:00:00,29.5736,109.7031,817.3,湘西土家族苗族自治州,乌鸦,龙山县,918.9,17.0,96.0,35.884959369674476,18.588826161454165
P1395,2025-06-03 19:00:00,29.1778,109.6242,590,湘西土家族苗族自治州,马蹄,龙山县,942.6,18.9,93.0,41.49435034825595,20.295683066093
P1397,2025-06-03 19:00:00,28.9228,109.4531,327,湘西土家族苗族自治州,金星,龙山县,968.9,20.0,99.0,50.7397839106862,23.135776521723788
P1400,2025-06-03 19:00:00,28.3761,109.6114,780.8,湘西土家族苗族自治州,排料,花垣县,922.1,18.4,93.0,43.503076230727146,19.670179314308466
P1414,2025-06-03 19:00:00,28.9036,110.0658,714.9,湘西土家族苗族自治州,花桥,永顺县,927.9,17.9,94.0,35.38198273280167,19.26663459889123
P1415,2025-06-03 19:00:00,28.4339,109.7911,219,湘西土家族苗族自治州,隘口,吉首市,981.3,20.2,100.0,42.5442837042995,23.660687520680476
P1416,2025-06-03 19:00:00,29.4122,109.9217,352.6,湘西土家族苗族自治州,万民,永顺县,965.6,19.5,96.0,49.683135794402496,21.74894253325107
P1418,2025-06-03 19:00:00,27.8297,109.6186,448.7,湘西土家族苗族自治州,水打田,凤凰县,955.1,21.6,68.0,22.156554905803706,17.53712347390585
P1421,2025-06-03 19:00:00,27.9817,109.3531,650.8,湘西土家族苗族自治州,麻冲,凤凰县,933.2,19.1,88.0,37.37799380047427,19.445854915127462
P1422,2025-06-03 19:00:00,28.1561,109.7278,172.8,湘西土家族苗族自治州,大兴,吉首市,987.0,20.1,100.0,43.06221500673029,23.514683799663736
P1423,2025-06-03 19:00:00,28.3494,109.7561,174.4,湘西土家族苗族自治州,峒河,吉首市,986.5,21.0,94.0,52.93412385763102,23.366182885703
P1424,2025-06-03 19:00:00,28.3158,109.8158,272.3,湘西土家族苗族自治州,深坳,吉首市,975.5,19.5,100.0,34.858843896807024,22.655148472136535
P1425,2025-06-03 19:00:00,28.3147,109.6806,262.5,湘西土家族苗族自治州,曙光,吉首市,976.7,20.4,96.0,49.61625246408291,22.996879772241517
P1438,2025-06-03 19:00:00,28.2097,109.6703,261.4,湘西土家族苗族自治州,高新区,吉首市,975.7,21.8,89.0,45.90709441575707,23.235564329724536
P1439,2025-06-03 19:00:00,28.2308,109.5711,667.8,湘西土家族苗族自治州,十八湾,吉首市,932.0,21.2,75.0,34.24908410790787,18.873788261630764
P1440,2025-06-03 19:00:00,28.2758,109.8289,166.4,湘西土家族苗族自治州,司马,吉首市,986.3,19.7,98.0,53.76222140980082,22.479773159665193
P1441,2025-06-03 19:00:00,28.3139,109.7672,227,湘西土家族苗族自治州,望江坳,吉首市,979.8,20.1,96.0,47.47565836169636,22.574096447677185
P1442,2025-06-03 19:00:00,28.1961,109.8253,365.1,湘西土家族苗族自治州,楠木,吉首市,965.0,20.2,88.0,47.03459318425157,20.82140501819882
P1443,2025-06-03 19:00:00,28.3708,109.8458,446.9,湘西土家族苗族自治州,檀木,吉首市,955.1,21.1,82.0,37.67554946010816,20.50896422956412
P1444,2025-06-03 19:00:00,28.3614,109.6964,195.1,湘西土家族苗族自治州,龙舞,吉首市,983.2,20.4,98.0,52.9828082912637,23.475981434163216
P1446,2025-06-03 19:00:00,28.8114,109.7364,295.3,湘西土家族苗族自治州,柏杨,永顺县,976.9,19.6,97.0,38.68399572766489,22.112565943045105
P1450,2025-06-03 19:00:00,29.1842,109.8922,440,湘西土家族苗族自治州,廻龙,永顺县,956.7,19.3,96.0,39.98927209288415,21.47983752815259
P1451,2025-06-03 19:00:00,28.9425,110.0286,559.4,湘西土家族苗族自治州,铜瓦,永顺县,944.0,18.6,97.0,40.113922440606274,20.775020957595913
P1452,2025-06-03 19:00:00,29.3308,109.8131,454.2,湘西土家族苗族自治州,西库,永顺县,955.8,18.9,95.0,42.94897684323499,20.732149368589624
P1461,2025-06-03 19:00:00,28.7444,109.8122,359.8,湘西土家族苗族自治州,坐苦坝,古丈县,965.1,19.6,95.0,53.23417147558909,21.656636748343143
P1462,2025-06-03 19:00:00,28.5697,109.8733,687.3,湘西土家族苗族自治州,翁草,古丈县,929.5,19.7,100.0,43.93147748442396,22.938544040474685
P1463,2025-06-03 19:00:00,28.0042,109.8947,202.1,湘西土家族苗族自治州,晒洲田,泸溪县,983.2,20.1,99.0,46.64017190275652,23.2795369616671
P1472,2025-06-03 19:00:00,27.9958,109.8042,279.5,湘西土家族苗族自治州,踏虎,泸溪县,975.1,19.9,95.0,44.63677464565483,22.063793865449135
P1473,2025-06-03 19:00:00,28.1917,110.1078,325.8,湘西土家族苗族自治州,顺江田,泸溪县,969.6,19.6,98.0,44.752499412290234,22.340530540396088
P1479,2025-06-03 19:00:00,28.5933,109.8417,636.5,湘西土家族苗族自治州,排茹,古丈县,934.5,19.4,91.0,39.36986030614874,20.488292069239908
P1480,2025-06-03 19:00:00,29.1408,110.0103,392.3,湘西土家族苗族自治州,车坪,永顺县,962.1,19.3,100.0,45.7694231718012,22.37483075849228
P1484,2025-06-03 19:00:00,29.4811,109.4144,510,湘西土家族苗族自治州,华塘,龙山县,949.6,19.3,96.0,48.306376477020464,21.47983752815259
P1485,2025-06-03 19:00:00,28.9583,109.3989,254.1,湘西土家族苗族自治州,贾市,龙山县,977.8,20.4,85.0,44.385560557421925,20.361820631672177
P1486,2025-06-03 19:00:00,29.33,109.9081,442.7,湘西土家族苗族自治州,团结,永顺县,955.1,18.6,97.0,38.70728773832925,20.775020957595913
P1487,2025-06-03 19:00:00,29.2878,109.8228,539.5,湘西土家族苗族自治州,农林,永顺县,945.4,18.2,94.0,35.118525211399216,19.633627028230787
P1488,2025-06-03 19:00:00,28.9267,110.2083,345.3,湘西土家族苗族自治州,官坝,永顺县,969.5,19.2,96.0,43.69737297063408,21.34638449647751
P1489,2025-06-03 19:00:00,28.8511,110.3261,326.9,湘西土家族苗族自治州,楠木,永顺县,971.6,19.0,96.0,41.025772796869724,21.081660373452745
P1490,2025-06-03 19:00:00,29.2603,109.73,392.5,湘西土家族苗族自治州,新场,永顺县,961.6,19.0,97.0,38.84489453552131,21.301261002342876
P1501,2025-06-03 19:00:00,29.5308,110.0994,318.6,张家界市,凉水口,桑植县,973.4,20.2,100.0,46.65214526801889,23.660687520680476
P1503,2025-06-03 19:00:00,29.5092,110.2944,334.5,张家界市,芙蓉桥,桑植县,971.3,19.5,94.0,38.45822542160917,21.295839563808343
P1504,2025-06-03 19:00:00,29.7025,110.5811,1067.1,张家界市,人潮溪镇白石,桑植县,892.9,14.0,94.0,33.38278980409541,15.015420063069115
P1505,2025-06-03 19:00:00,29.67,109.8344,1053,张家界市,八大公山,桑植县,894.3,15.1,92.0,32.76431178078486,15.778486289360847
P1506,2025-06-03 19:00:00,29.6097,110.4733,538.8,张家界市,官地坪,桑植县,946.1,18.6,100.0,41.23670482897231,21.41754737896486
P1508,2025-06-03 19:00:00,29.4389,110.2358,290.4,张家界市,瑞塔铺,桑植县,976.0,20.0,100.0,40.99641951396334,23.36947123406443
P1509,2025-06-03 19:00:00,29.4633,110.4847,376,张家界市,走马坪,桑植县,965.0,18.6,96.0,38.871498452119845,20.560845483806265
P1510,2025-06-03 19:00:00,29.6764,110.1533,394,张家界市,龙潭坪,桑植县,961.7,19.4,100.0,41.215200589529594,22.514606669494402
P1511,2025-06-03 19:00:00,29.6558,110.0108,503.9,张家界市,桑植坪,桑植县,952.7,18.8,100.0,39.05103426329792,21.687315608864814
P1512,2025-06-03 19:00:00,29.7036,109.9156,438.1,张家界市,五道水,桑植县,963.3,19.3,100.0,42.05883712216707,22.37483075849228
P1513,2025-06-03 19:00:00,29.3911,110.0075,489.3,张家界市,廖家村,桑植县,954.7,19.4,100.0,41.22641105343258,22.514606669494402
P1514,2025-06-03 19:00:00,29.4925,109.9892,307.4,张家界市,陈家河,桑植县,971.7,19.7,100.0,45.088266885252025,22.938544040474685
P1515,2025-06-03 19:00:00,29.5467,109.8644,377.4,张家界市,河口,桑植县,966.7,19.3,96.0,52.49527133480038,21.47983752815259
P1516,2025-06-03 19:00:00,29.4869,110.1578,458.6,张家界市,洪家关,桑植县,957.3,19.4,100.0,41.22641105343258,22.514606669494402
P1517,2025-06-03 19:00:00,29.4761,110.2389,298,张家界市,刘家坪,桑植县,975.5,16.1,96.0,33.84273844503107,17.554297212832015
P1518,2025-06-03 19:00:00,29.6175,110.6047,271,张家界市,人潮溪,桑植县,981.2,18.8,93.0,43.29050494948709,20.16920351624428
P1521,2025-06-03 19:00:00,29.3569,110.0775,311.6,张家界市,利福塔,桑植县,973.9,20.5,100.0,48.41507146441541,24.103482318250418
P1522,2025-06-03 19:00:00,29.5875,110.0053,564.7,张家界市,沙塔坪,桑植县,945.1,18.8,100.0,39.05103426329792,21.687315608864814
P1523,2025-06-03 19:00:00,29.5469,110.3881,455,张家界市,马合口,桑植县,958.6,18.8,94.0,39.982718114645905,20.386076672332926
P1524,2025-06-03 19:00:00,29.4897,110.3567,490.6,张家界市,麦地坪,桑植县,954.3,18.2,100.0,38.31316843026446,20.886837264075304
P1526,2025-06-03 19:00:00,29.6494,110.0861,485.5,张家界市,苦竹坪,桑植县,955.4,19.1,97.0,41.65922191288447,21.434635531447313
P1527,2025-06-03 19:00:00,29.4667,109.8192,616.8,张家界市,上河溪,桑植县,941.8,18.3,100.0,37.547134901248725,21.018420099150696
P1528,2025-06-03 19:00:00,29.4292,110.3028,346.7,张家界市,空壳树,桑植县,970.1,19.6,94.0,43.16061748334433,21.428672150992163
P1529,2025-06-03 19:00:00,29.6306,110.3592,241.2,张家界市,淋溪河,桑植县,982.7,19.6,100.0,45.93699459535847,22.796459735098047
P1530,2025-06-03 19:00:00,29.4875,110.5503,375.6,张家界市,竹叶坪,桑植县,968.8,18.6,100.0,40.365936311759086,21.41754737896486
P1531,2025-06-03 19:00:00,29.6497,109.8639,644.8,张家界市,细砂坪,桑植县,937.6,17.8,99.0,39.47973880469668,20.164035890039273
P1532,2025-06-03 19:00:00,29.5192,110.1553,475,张家界市,桥自弯,桑植县,955.7,19.4,97.0,40.90785986411834,21.839168469409568
P1534,2025-06-03 19:00:00,29.77,110.0656,1327,张家界市,天平山,桑植县,867.8,12.5,85.0,25.847128133833404,12.311429900866756
P1537,2025-06-03 19:00:00,29.3897,110.1606,367.6,张家界市,澧源,桑植县,967.9,19.6,100.0,41.050751220835856,22.796459735098047
P1538,2025-06-03 19:00:00,29.5481,110.4925,475.3,张家界市,分水岭,桑植县,955.2,18.8,96.0,38.36772019001765,20.81982298451022
P1540,2025-06-03 19:00:00,29.6375,110.275,795.2,张家界市,天星山林场,桑植县,921.9,17.9,97.0,40.793914952852155,19.881527192472863
P1542,2025-06-03 19:00:00,29.4267,110.1075,286.6,张家界市,洪家关乡南岔,桑植县,976.5,20.5,100.0,50.13965206567702,24.103482318250418
P1543,2025-06-03 19:00:00,29.465,109.91,626.7,张家界市,夹石河,桑植县,942.5,18.9,100.0,39.02394264294807,21.823315124831183
P1544,2025-06-03 19:00:00,29.7122,110.1894,786.9,张家界市,赶坪,桑植县,922.4,18.2,95.0,40.076329570510815,19.842495400871538
P1545,2025-06-03 19:00:00,29.5228,110.6036,838.8,张家界市,竹叶坪乡鸡公垭,桑植县,919.0,19.1,69.0,22.70600493503494,15.247318058452212
P1546,2025-06-03 19:00:00,29.7336,109.8025,681,张家界市,五道水镇连家湾,桑植县,934.5,16.8,98.0,35.152027209903395,18.736796182546502
P1547,2025-06-03 19:00:00,29.7419,110.0153,1127.8,张家界市,四门岩林场,桑植县,887.7,13.6,97.0,31.220188923364688,15.097018813928045
P1549,2025-06-03 19:00:00,29.5375,109.8092,631.2,张家界市,河口乡塘坊,桑植县,939.5,18.2,98.0,42.89550761185359,20.469100518793798
P1601,2025-06-03 19:00:00,29.3428,110.5597,450.3,张家界市,武陵源,武陵源区,958.2,18.9,100.0,39.95508376927485,21.823315124831183
P1602,2025-06-03 19:00:00,29.2456,110.5181,332.9,张家界市,协合,武陵源区,972.3,19.9,96.0,45.909981785535436,22.296044327190703
P1603,2025-06-03 19:00:00,29.3553,110.5294,375.4,张家界市,军地坪,武陵源区,967.8,19.9,91.0,45.286001061894076,21.13479201848286
P1604,2025-06-03 19:00:00,29.4078,110.4433,547,张家界市,天子山,武陵源区,949.2,17.5,94.0,27.697891691813023,18.786692305342083
P1605,2025-06-03 19:00:00,29.3589,110.3836,359.4,张家界市,中湖,武陵源区,963.4,18.1,95.0,38.30736524022189,19.71817960326951
P1606,2025-06-03 19:00:00,29.3664,110.5828,264.5,张家界市,索溪峪,武陵源区,976.5,20.2,89.0,50.635259127344796,21.058011893405624
P1607,2025-06-03 19:00:00,29.3031,110.4344,652.9,张家界市,锣鼓塔,武陵源区,936.5,16.9,98.0,34.98924716859812,18.85611112247994
P1610,2025-06-03 19:00:00,29.3897,110.4583,1087,张家界市,武陵源景区,武陵源区,889.0,18.9,63.0,25.186419782715966,13.748688528643648
P1702,2025-06-03 19:00:00,29.5033,110.7636,152.1,张家界市,江垭,慈利县,989.4,21.0,88.0,36.10295895546483,21.874724403636854
P1703,2025-06-03 19:00:00,29.2647,110.725,156.6,张家界市,阳和,慈利县,988.5,20.2,100.0,52.21419066178561,23.660687520680476
P1708,2025-06-03 19:00:00,29.3925,110.9825,170.4,张家界市,岩泊渡,慈利县,988.6,20.8,93.0,47.178399964036615,22.834783102684725
P1709,2025-06-03 19:00:00,29.4267,110.6156,352.4,张家界市,三官寺,慈利县,966.7,20.7,76.0,32.62651257560038,18.54605363703612
P1717,2025-06-03 19:00:00,29.1594,110.8261,840.7,张家界市,洞溪,慈利县,913.9,19.6,76.0,32.69391472448325,17.325309398674516
P1718,2025-06-03 19:00:00,29.4986,111.3256,102.8,张家界市,广福桥,慈利县,994.8,21.0,96.0,42.42322349190694,23.863335713058383
P1722,2025-06-03 19:00:00,29.5528,111.0339,179.4,张家界市,东岳观,慈利县,987.2,20.6,91.0,44.062342447049126,22.069945562631027
P1731,2025-06-03 19:00:00,29.4453,110.9283,589.6,张家界市,高峰,慈利县,943.0,18.5,99.0,37.134591243651286,21.070934009328244
P1732,2025-06-03 19:00:00,29.175,110.6789,239.8,张家界市,金岩,慈利县,981.4,19.9,99.0,42.47610875449798,22.992795712415415
P1733,2025-06-03 19:00:00,29.2819,110.9356,595.3,张家界市,赵家垭水库,慈利县,941.0,17.5,100.0,38.868315310620105,19.985842878023494
P1734,2025-06-03 19:00:00,29.6422,110.9561,395.1,张家界市,国太桥,慈利县,985.1,19.6,96.0,52.0279731853634,21.884601345694126
P1746,2025-06-03 19:00:00,29.4006,110.6997,614.9,张家界市,大峡谷,慈利县,940.1,2.6,100.0,10.982936973302266,7.366437885898283
P1801,2025-06-03 19:00:00,29.0119,110.4953,498.1,张家界市,天门山,永定区,950.6,17.8,100.0,43.08869147711938,20.367713020241688
P1802,2025-06-03 19:00:00,29.2275,110.6203,292,张家界市,合作桥,永定区,976.0,19.9,100.0,44.85146080574191,23.225046174156986
P1803,2025-06-03 19:00:00,29.0169,110.7228,372.2,张家界市,沅古坪,永定区,967.1,19.6,93.0,45.57471226577251,21.200707553641184
P1804,2025-06-03 19:00:00,29.2819,110.3253,386.9,张家界市,教字垭,永定区,950.2,19.4,100.0,41.22641105343258,22.514606669494402
P1805,2025-06-03 19:00:00,29.1869,110.3919,219.4,张家界市,尹家溪,永定区,981.2,20.8,100.0,51.765903912822075,24.553530217940562
P1806,2025-06-03 19:00:00,29.1486,110.5622,190.4,张家界市,阳湖坪,永定区,987.8,20.3,100.0,53.21013425391876,23.807486060476144
P1807,2025-06-03 19:00:00,29.165,110.2031,187.1,张家界市,茅岩河,永定区,984.7,20.3,100.0,45.210722652245664,23.807486060476144
P1808,2025-06-03 19:00:00,29.0464,110.8164,383.1,张家界市,王家坪,永定区,965.5,19.0,100.0,42.038668930735,21.960062889013276
P1809,2025-06-03 19:00:00,29.1167,110.3794,214,张家界市,枫香岗,永定区,984.6,20.6,100.0,50.31219138680869,24.252687431462665
P1810,2025-06-03 19:00:00,29.1853,110.1164,336.1,张家界市,罗塔坪,永定区,967.4,19.4,100.0,43.705405601561345,22.514606669494402
P1811,2025-06-03 19:00:00,29.2661,110.2558,369.4,张家界市,罗水,永定区,967.3,19.3,99.0,40.00589723106789,22.15108245090736
P1812,2025-06-03 19:00:00,29.0867,110.3375,162,张家界市,后坪,永定区,987.9,20.4,89.0,35.04446869912596,21.320023955515573
P1813,2025-06-03 19:00:00,29.1603,110.4053,173.8,张家界市,大庸桥,永定区,988.6,21.1,100.0,52.812339523120144,25.010931987273324
P1814,2025-06-03 19:00:00,29.3397,110.3097,504.2,张家界市,桥头,永定区,950.5,19.8,93.0,40.43494077908447,21.46570663494797
P1815,2025-06-03 19:00:00,28.9797,110.6728,392,张家界市,和平岗,永定区,973.1,18.9,96.0,44.237594149365094,20.950382519837937
P1816,2025-06-03 19:00:00,29.0183,110.6217,602.7,张家界市,谢家垭,永定区,939.2,18.1,95.0,43.494570346146745,19.71817960326951
P1817,2025-06-03 19:00:00,29.1556,110.3086,407.4,张家界市,三家馆,永定区,961.1,19.5,100.0,41.319903811933735,22.655148472136535
P1818,2025-06-03 19:00:00,28.9306,110.4356,348.6,张家界市,四都坪,永定区,965.2,19.1,100.0,43.458462546391445,22.097562403553933
P1820,2025-06-03 19:00:00,29.2656,110.15,376.2,张家界市,青安,永定区,964.1,19.0,99.0,40.115275222664415,21.740462260123145
P1821,2025-06-03 19:00:00,29.0967,110.4478,203.4,张家界市,南庄坪,永定区,985.6,20.8,98.0,49.089509131792035,24.06245961358175
P1822,2025-06-03 19:00:00,29.1864,110.5069,252.8,张家界市,新桥,永定区,980.1,20.2,100.0,43.63566644320258,23.660687520680476
P1824,2025-06-03 19:00:00,29.1114,110.5189,253.3,张家界市,西溪坪,永定区,979.9,20.9,96.0,41.64600786755464,23.716968354480315
P1826,2025-06-03 19:00:00,28.9906,110.8103,220.9,张家界市,马头溪,永定区,984.7,19.1,98.0,40.9908826343794,21.655611155482855
P1851,2025-06-03 19:00:00,29.3461,110.3644,468,张家界市,小溪峪水库,永定区,957.6,18.1,100.0,34.089604095784146,20.75597852975738
P1852,2025-06-03 19:00:00,29.0808,110.4783,255,张家界市,官黎坪,永定区,977.7,19.7,100.0,41.02902931870092,22.938544040474685
P1856,2025-06-03 19:00:00,29.1397,110.4892,186.8,张家界市,崇文,永定区,985.8,20.6,98.0,45.60094184429394,23.767633682833413
P1857,2025-06-03 19:00:00,29.2292,110.4403,248,张家界市,沙堤,永定区,977.9,19.5,100.0,43.13807397023487,22.655148472136535
P1858,2025-06-03 19:00:00,28.9697,110.4528,892.5,张家界市,姚家界,永定区,910.1,18.7,100.0,45.26807978480842,21.55206085216996
P1904,2025-06-03 19:00:00,29.9367,110.7842,285,常德市,壶瓶山,石门县,980.6,19.4,92.0,36.57165263173634,20.71343813593485
P1909,2025-06-03 19:00:00,29.8836,110.5408,1123,常德市,南北,石门县,887.5,17.7,59.0,24.008008443799955,11.941432936932951
P1910,2025-06-03 19:00:00,29.9258,110.6756,1469,常德市,东山峰,石门县,849.0,17.2,25.0,13.47734769043237,4.902569525327952
P1913,2025-06-03 19:00:00,29.7033,112.0272,38,常德市,青龙窖,澧县,1004.4,22.8,100.0,54.830181721667216,27.746764574910657
P1914,2025-06-03 19:00:00,29.8247,111.5922,99,常德市,金罗,澧县,996.5,21.4,81.0,44.49530050616116,20.635389510561822
P1920,2025-06-03 19:00:00,29.9772,111.0706,274,常德市,太平,石门县,977.0,18.7,83.0,31.71086813850002,17.888210507301068
P1931,2025-06-03 19:00:00,29.7106,111.5417,76,常德市,官亭水库,临澧县,999.2,22.3,90.0,47.910608234305556,24.224519422561702
P1933,2025-06-03 19:00:00,29.6758,111.6553,26.1,常德市,城头山,澧县,1003.3,21.8,80.0,40.06192785750897,20.88590052110071
P1940,2025-06-03 19:00:00,29.6808,111.1444,717.7,常德市,白云山林场,石门县,928.7,20.6,63.0,24.269057590554112,15.27919308182148
P1950,2025-06-03 19:00:00,29.5639,111.6178,55,常德市,停弦渡,临澧县,999.9,22.0,100.0,52.55025373783593,26.4282851241661
P1953,2025-06-03 19:00:00,29.5764,112.105,30,常德市,水管站,安乡县,1004.9,22.7,100.0,44.62123275938887,27.578864330645896
P1960,2025-06-03 19:00:00,29.5481,111.6556,70,常德市,水阁,临澧县,997.8,21.3,93.0,56.05909264959245,23.547602096427187
P1968,2025-06-03 19:00:00,29.5453,112.1906,41,常德市,安全,安乡县,1004.6,23.2,92.0,48.59877725418176,26.15316735379681
P1973,2025-06-03 19:00:00,29.4153,111.3825,100.9,常德市,蒙泉水库,石门县,996.7,21.0,91.0,40.838262219934165,22.62045364466993
P1979,2025-06-03 19:00:00,29.4189,111.9708,48.8,常德市,毛里湖,津市市,1004.2,22.8,100.0,45.61235368020826,27.746764574910657
P1981,2025-06-03 19:00:00,29.3769,111.5444,83,常德市,文家店,临澧县,998.6,21.4,89.0,39.734676964939474,22.67345267209879
P1985,2025-06-03 19:00:00,29.3478,111.7061,89,常德市,四新岗,临澧县,998.0,21.7,100.0,51.720214612905046,25.948205841188777
P1993,2025-06-03 19:00:00,29.28,112.1528,31,常德市,下渔口,安乡县,1004.7,23.6,100.0,48.47400443736743,29.122527270153263
P1999,2025-06-03 19:00:00,29.2581,111.5381,83.6,常德市,王家垱水库,桃源县,996.7,21.3,98.0,51.279558990388324,24.813602209138327
P2002,2025-06-03 19:00:00,29.1975,111.1814,98.5,常德市,黄石水库,桃源县,995.2,21.1,95.0,48.812491866787525,23.760385387909658
P2005,2025-06-03 19:00:00,29.1881,111.6328,20.4,常德市,蔡家岗,鼎城区,1003.8,21.0,97.0,40.47228239355236,24.111912126736073
P2025,2025-06-03 19:00:00,29.0611,110.9786,173.8,常德市,牛车河,桃源县,985.0,19.2,98.0,43.34246190049079,21.791100840154122
P2027,2025-06-03 19:00:00,29.0508,111.9961,27,常德市,罐头嘴,汉寿县,1004.8,22.0,95.0,41.26292470779194,25.106870867957795
P2028,2025-06-03 19:00:00,29.0361,111.6239,36,常德市,农科院,武陵区,1004.3,21.9,95.0,51.93552689324374,24.954030739818453
P2029,2025-06-03 19:00:00,29.0325,111.7306,29,常德市,东江,武陵区,1004.8,23.0,87.0,50.70928567127439,24.434171006487354
P2030,2025-06-03 19:00:00,29.0528,111.6778,51,常德市,文理学院,武陵区,1004.6,23.2,84.0,49.07830009154512,23.87897888824926
P2042,2025-06-03 19:00:00,28.9864,111.7983,28,常德市,观音寺电排,武陵区,1004.7,22.8,90.0,50.15794338011125,24.97208811741959
P2043,2025-06-03 19:00:00,28.8669,111.475,48.7,常德市,新桥电排,桃源县,1003.6,21.0,92.0,47.4599675762277,22.86903005834762
P2044,2025-06-03 19:00:00,28.9611,111.7544,50,常德市,伍家嘴,武陵区,1004.2,21.6,99.0,51.87974397735844,25.531988587009987
P2047,2025-06-03 19:00:00,28.945,110.9653,371.5,常德市,观音寺,桃源县,964.9,18.9,96.0,42.44645405452066,20.950382519837937
P2049,2025-06-03 19:00:00,28.91,111.7369,40,常德市,市二中,武陵区,1002.1,22.5,89.0,48.399745923233525,24.248702062401225
P2054,2025-06-03 19:00:00,28.8933,111.8183,55,常德市,聂家桥,汉寿县,1004.6,21.7,85.0,50.17884630299603,22.05597496501046
P2074,2025-06-03 19:00:00,28.7228,111.7731,86,常德市,江东市水库,汉寿县,998.2,19.1,97.0,51.844861488779294,21.434635531447313
P2075,2025-06-03 19:00:00,28.6942,112.1417,95,常德市,军山铺,汉寿县,997.5,19.6,96.0,48.31798653787638,21.884601345694126
P2076,2025-06-03 19:00:00,28.7069,111.5464,120,常德市,花岩溪,鼎城区,993.9,19.7,100.0,45.584016800222834,22.938544040474685
P2083,2025-06-03 19:00:00,28.6486,111.3175,56.6,常德市,沙坪,桃源县,1000.6,20.7,89.0,48.69645353246226,21.718404917055455
P2089,2025-06-03 19:00:00,29.8928,111.0164,418,常德市,里山河水库,石门县,959.5,17.8,99.0,53.55417873125053,20.164035890039273
P2090,2025-06-03 19:00:00,29.8706,111.8003,100,常德市,盐井,澧县,997.1,21.3,99.0,47.57060629072245,25.066802231680555
P2091,2025-06-03 19:00:00,29.2086,111.9756,30,常德市,南湖,武陵区,1004.5,22.7,96.0,53.648548821503574,26.47570975742006
P2092,2025-06-03 19:00:00,29.0175,112.0069,38,常德市,洲口,汉寿县,1004.4,21.8,93.0,47.89243473039991,24.27985935577957
P2093,2025-06-03 19:00:00,28.7522,111.33,58,常德市,剪市,桃源县,1002.7,20.5,96.0,49.41692064142729,23.1393430255204
P2106,2025-06-03 19:00:00,29.1533,112.1192,31,常德市,十美堂,鼎城区,1004.8,23.3,92.0,49.32359013055604,26.311789812678928
P2107,2025-06-03 19:00:00,29.7494,110.8531,213.4,常德市,南岳寺,石门县,984.9,19.4,99.0,48.916671180226224,22.28946060279946
P2122,2025-06-03 19:00:00,29.8147,111.1167,583,常德市,大同山林场,石门县,941.2,21.2,63.0,30.066968128841125,15.853982139769844
P2127,2025-06-03 19:00:00,29.8519,111.3928,228,常德市,芦茅,澧县,982.4,21.1,84.0,39.81109842134561,21.00918286930959
P2128,2025-06-03 19:00:00,29.7669,111.5272,83,常德市,王家厂水库,澧县,998.6,22.1,100.0,54.14484929758774,26.59003260274658
P2130,2025-06-03 19:00:00,29.3072,111.765,56,常德市,鳌山小学,临澧县,1000.3,21.2,97.0,48.79206404888253,24.410099485042455
P2135,2025-06-03 19:00:00,29.0197,111.5692,36,常德市,木塘垸,桃源县,1004.3,22.3,100.0,48.69456755986981,26.916132691735225
P2137,2025-06-03 19:00:00,28.7575,111.2289,73.4,常德市,凌津滩,桃源县,1000.3,20.4,100.0,41.93156679621048,23.955083096084916
P2139,2025-06-03 19:00:00,28.7408,112.1842,73,常德市,赤港湾水库,汉寿县,999.6,20.2,94.0,51.2974807016922,22.24104626943965
P2140,2025-06-03 19:00:00,28.6681,111.9919,60,常德市,斋家冲水库,汉寿县,1000.8,20.5,92.0,38.08358025130634,22.175203732790386
P2147,2025-06-03 19:00:00,28.85,111.65,56.3,常德市,草坪,鼎城区,1003.6,20.6,96.0,52.07991460272858,23.282579934204158
P2198,2025-06-03 19:00:00,28.6514,111.2442,114.3,常德市,杨溪桥,桃源县,996.4,20.1,100.0,56.02651781746944,23.514683799663736
P2203,2025-06-03 19:00:00,29.5131,111.7992,50,常德市,庹家峪水库,津市市,998.8,21.4,99.0,60.112640859095954,25.221031624020004
P2600,2025-06-03 19:00:00,29.4164,112.3169,34,益阳市,红堰湖,南县,1004.7,23.6,100.0,48.47400443736743,29.122527270153263
P2604,2025-06-03 19:00:00,29.2914,112.2467,35.5,益阳市,同跃,南县,1004.7,22.8,100.0,43.46350782159895,27.746764574910657
P2607,2025-06-03 19:00:00,29.2764,112.3436,32,益阳市,同湖,南县,1004.9,23.2,97.0,56.60404814857419,27.574535144764024
P2608,2025-06-03 19:00:00,29.1864,112.3614,34,益阳市,咸嘉垸,南县,1004.4,23.9,100.0,56.23531937605819,29.653632860353476
P2609,2025-06-03 19:00:00,29.1058,112.3444,26.8,益阳市,同春,南县,1005.0,23.7,90.0,53.48906728718677,26.368766242168498
P2614,2025-06-03 19:00:00,29.2403,112.4053,30,益阳市,青树嘴,南县,1004.8,23.2,99.0,57.25069333071601,28.143082261150916
P2615,2025-06-03 19:00:00,29.3075,112.2731,31,益阳市,六百弓,南县,1004.9,23.6,100.0,50.15759057875605,29.122527270153263
P2617,2025-06-03 19:00:00,29.295,112.5342,35,益阳市,大木桥,南县,1004.7,22.8,100.0,46.81340119751692,27.746764574910657
P2619,2025-06-03 19:00:00,29.2919,112.6567,31,益阳市,华东,南县,1005.1,22.6,100.0,58.57840463409321,27.411855029247686
P2631,2025-06-03 19:00:00,29.3522,112.4061,32.5,益阳市,一中,南县,1004.8,23.7,77.0,40.68280227504818,22.559944451633047
P2650,2025-06-03 19:00:00,29.1853,112.6258,33.9,益阳市,河坝,大通湖区,1005.0,21.8,96.0,49.36558131621985,25.063080625320847
P2652,2025-06-03 19:00:00,29.2256,112.5492,36,益阳市,沙堡州,大通湖区,1005.0,24.3,88.0,51.46167205020938,26.72996261241174
P2653,2025-06-03 19:00:00,29.1128,112.6697,33,益阳市,金盆,大通湖区,1005.1,23.0,94.0,54.3464248223474,26.40013878861852
P2654,2025-06-03 19:00:00,29.1294,112.4258,31,益阳市,千山红,大通湖区,1005.1,24.0,100.0,35.0388239436652,29.832543048181464
P2660,2025-06-03 19:00:00,29.0058,112.4864,34,益阳市,新村,沅江市,1005.1,23.0,98.0,52.963952981356506,27.523548949836332
P2667,2025-06-03 19:00:00,28.8325,112.3867,32,益阳市,城区水管站,沅江市,1004.9,23.5,81.0,53.91389619055246,23.447356038624143
P2673,2025-06-03 19:00:00,29.0719,112.4425,31,益阳市,乐安,沅江市,1005.2,24.4,99.0,54.7502425973631,30.25209439076154
P2674,2025-06-03 19:00:00,29.0364,112.2967,35,益阳市,南嘴,沅江市,1001.4,22.7,88.0,40.728988915964955,24.26940061096839
P2677,2025-06-03 19:00:00,29.0789,112.6986,42.9,益阳市,石东港,沅江市,1004.7,23.1,98.0,51.53831404977963,27.690734320617864
P2680,2025-06-03 19:00:00,28.9883,112.8406,30,益阳市,漉湖芦苇场,沅江市,1004.9,22.5,100.0,50.42587908144375,27.2457326543834
P2682,2025-06-03 19:00:00,28.9406,112.5828,32,益阳市,双洲,沅江市,1005.0,22.7,81.0,41.65451936491899,22.33888010782318
P2684,2025-06-03 19:00:00,29.1172,112.5633,41,益阳市,四季红,沅江市,1005.1,23.1,90.0,48.527407242124056,25.43026621281232
P2686,2025-06-03 19:00:00,28.7569,112.3478,46,益阳市,三眼塘,沅江市,1004.3,21.1,98.0,50.93547388165718,24.510713347527858
P2687,2025-06-03 19:00:00,28.9481,112.3022,62,益阳市,新湾,沅江市,998.9,22.7,97.0,60.303753399884584,26.75149840072652
P2720,2025-06-03 19:00:00,28.6861,112.2436,45,益阳市,新塘,资阳区,1000.4,20.8,100.0,43.46876702668394,24.553530217940562
P2721,2025-06-03 19:00:00,28.6033,112.2003,64.7,益阳市,新桥河,资阳区,1002.7,20.5,100.0,38.44840524836802,24.103482318250418
P2725,2025-06-03 19:00:00,28.6278,112.3161,49.2,益阳市,长春,资阳区,1003.3,21.0,91.0,53.778826199182866,22.62045364466993
P2726,2025-06-03 19:00:00,28.7667,112.4547,55,益阳市,张家塞,资阳区,1004.2,21.9,100.0,49.96628475630589,26.267400778756265
P2729,2025-06-03 19:00:00,28.8019,112.5844,38.9,益阳市,茈湖口,资阳区,1004.3,23.0,63.0,30.257029044705565,17.6937100391805
P2730,2025-06-03 19:00:00,28.6058,112.3467,31.5,益阳市,体育公园,资阳区,1004.6,21.4,95.0,57.705805346471536,24.202000043251516
P2731,2025-06-03 19:00:00,28.6103,112.1164,70,益阳市,蓼园,资阳区,1000.4,19.1,100.0,44.73894700086571,22.097562403553933
P2760,2025-06-03 19:00:00,28.5892,112.2936,36,益阳市,会龙山,赫山区,1003.7,20.1,100.0,41.77951152214057,23.514683799663736
P2761,2025-06-03 19:00:00,28.4789,112.2547,73,益阳市,自搭桥,赫山区,999.8,19.3,100.0,44.9824783180162,22.37483075849228
P2764,2025-06-03 19:00:00,28.4839,112.5231,58,益阳市,新安山,赫山区,1004.5,21.1,99.0,51.24137966670091,24.760822667400593
P2768,2025-06-03 19:00:00,28.5881,112.4486,36,益阳市,兰溪,赫山区,1004.6,22.6,53.0,25.166416535544066,14.528283165501273
P2769,2025-06-03 19:00:00,28.5042,112.395,46,益阳市,龙岭工业园,赫山区,1003.3,20.2,91.0,42.596243043947005,21.531225643819237
P2771,2025-06-03 19:00:00,28.3992,112.2811,53.1,益阳市,泥江口,赫山区,1000.2,19.9,82.0,37.28452863201412,19.044537862808724
P2773,2025-06-03 19:00:00,28.4111,112.4353,55.7,益阳市,鱼形山水库,赫山区,1001.5,20.8,100.0,45.73264282472306,24.553530217940562
P2774,2025-06-03 19:00:00,28.3506,112.4547,58,益阳市,朱公塘水库,赫山区,999.1,19.9,91.0,40.628997609509156,21.13479201848286
P2775,2025-06-03 19:00:00,28.6003,112.3694,46,益阳市,团洲,赫山区,1004.4,22.2,94.0,48.76774413607284,25.14748831534266
P2776,2025-06-03 19:00:00,28.4928,112.4283,44,益阳市,金山,赫山区,1002.2,19.7,90.0,45.091164765107116,20.644689636427216
P2777,2025-06-03 19:00:00,28.5083,112.4903,43,益阳市,笔架山,赫山区,1004.7,21.3,98.0,54.28579146399024,24.813602209138327
P2778,2025-06-03 19:00:00,28.3297,112.4097,80,益阳市,岳家桥,赫山区,999.0,20.1,100.0,50.49012300983497,23.514683799663736
P2780,2025-06-03 19:00:00,28.6306,112.5744,42,益阳市,八字哨,赫山区,1003.9,22.8,89.0,51.89673311586361,24.694620471670486
P2781,2025-06-03 19:00:00,28.4825,112.5644,39.7,益阳市,新和电排,赫山区,1004.7,21.1,94.0,49.58721410714823,23.510276068036926
P2782,2025-06-03 19:00:00,28.4753,112.5931,30,益阳市,红洲垸电排,赫山区,1004.2,21.1,98.0,53.11214410002176,24.510713347527858
P2784,2025-06-03 19:00:00,28.5456,112.6806,40,益阳市,流水口,赫山区,1004.2,22.4,100.0,50.35756131846603,27.080493204289816
P2789,2025-06-03 19:00:00,28.5414,112.4306,31,益阳市,大丰电排,赫山区,1004.3,20.7,100.0,51.805604897297634,24.402702153994895
P2820,2025-06-03 19:00:00,28.5617,112.3283,114.6,益阳市,市政府,赫山区,997.3,20.4,88.0,43.40432941179682,21.080473124554725
P2821,2025-06-03 19:00:00,28.5269,112.2589,56,益阳市,谢林港,赫山区,1003.1,19.2,99.0,30.34036102370172,22.01345901199243
P2823,2025-06-03 19:00:00,28.4403,112.4719,49,益阳市,管委会,赫山区,999.8,21.6,90.0,52.97555055779069,23.210898715463625
P2840,2025-06-03 19:00:00,28.6144,111.7447,112,益阳市,碧螺水库,桃江县,995.4,18.6,97.0,50.611482729803235,20.775020957595913
P2841,2025-06-03 19:00:00,28.5358,111.72,90.4,益阳市,武潭,桃江县,998.8,18.7,100.0,48.538538262932555,21.55206085216996
P2842,2025-06-03 19:00:00,28.4442,111.6533,55,益阳市,百乐,桃江县,1000.5,18.7,100.0,43.428451420706295,21.55206085216996
P2843,2025-06-03 19:00:00,28.5608,111.8267,80.2,益阳市,鲊埠,桃江县,1000.1,19.5,100.0,46.66463000589323,22.655148472136535
P2845,2025-06-03 19:00:00,28.435,111.7794,80.1,益阳市,沂溪河电站,桃江县,999.8,19.0,97.0,48.72033150399962,21.301261002342876
P2847,2025-06-03 19:00:00,28.4878,111.8461,68,益阳市,大栗港,桃江县,997.3,18.6,96.0,51.4344841963579,20.560845483806265
P2848,2025-06-03 19:00:00,28.4094,111.8381,92,益阳市,泗里河,桃江县,996.6,18.8,99.0,47.22239858467467,21.47044245277617
P2849,2025-06-03 19:00:00,28.5997,111.9967,82.7,益阳市,修山,桃江县,999.1,19.1,100.0,46.538895368957576,22.097562403553933
P2850,2025-06-03 19:00:00,28.5514,111.9658,33,益阳市,沾溪,桃江县,1002.5,19.6,100.0,37.009295960225884,22.796459735098047
P2851,2025-06-03 19:00:00,28.4717,111.9447,52.4,益阳市,鸬鹚渡,桃江县,1000.6,18.0,98.0,41.722243952287656,20.21332368866162
P2852,2025-06-03 19:00:00,28.455,111.9333,124,益阳市,何家村,桃江县,997.2,18.1,100.0,47.0053850152698,20.75597852975738
P2853,2025-06-03 19:00:00,28.5383,112.0503,44,益阳市,水口山,桃江县,1001.5,19.0,98.0,51.47786787687809,21.520861631233014
P2854,2025-06-03 19:00:00,28.3933,112.04,175,益阳市,罗溪,桃江县,986.3,18.4,54.0,23.068223123300555,11.421394440566207
P2855,2025-06-03 19:00:00,28.3203,112.0681,146,益阳市,松木塘,桃江县,992.3,17.9,99.0,52.03698701512167,20.291455588193955
P2857,2025-06-03 19:00:00,28.5158,112.1367,51.5,益阳市,曹家仑,桃江县,1003.1,21.2,100.0,30.92429581430828,25.16505101550769
P2858,2025-06-03 19:00:00,28.4433,111.9942,76,益阳市,高桥,桃江县,997.7,18.8,100.0,46.959431570276735,21.687315608864814
P2859,2025-06-03 19:00:00,28.3208,112.0717,105,益阳市,桃花江水库,桃江县,996.1,19.4,92.0,47.6490971429132,20.71343813593485
P2860,2025-06-03 19:00:00,28.5742,112.2017,64,益阳市,花果山,桃江县,1003.8,19.9,100.0,38.79891854746421,23.225046174156986
P2861,2025-06-03 19:00:00,28.4258,112.1567,71,益阳市,石牛江,桃江县,1002.0,19.6,100.0,39.25153635343125,22.796459735098047
P2862,2025-06-03 19:00:00,28.4056,112.1633,41,益阳市,牛田,桃江县,1001.2,19.4,100.0,35.10700105531126,22.514606669494402
P2863,2025-06-03 19:00:00,28.2972,112.1433,176,益阳市,李家湾,桃江县,988.8,19.4,99.0,55.05243996115937,22.28946060279946
P2864,2025-06-03 19:00:00,28.2928,112.2267,114,益阳市,灰山港,桃江县,993.6,19.7,100.0,49.1530546665027,22.938544040474685
P2901,2025-06-03 19:00:00,28.2914,111.2853,271.2,益阳市,文溪,安化县,975.9,18.4,99.0,48.226232768574135,20.939223141038045
P2903,2025-06-03 19:00:00,28.4906,111.4861,143.3,益阳市,冷市,安化县,992.0,18.6,98.0,49.85443662835591,20.98919643138556
P2904,2025-06-03 19:00:00,28.3453,111.1011,195.9,益阳市,柘溪,安化县,986.3,18.5,100.0,43.821400981964956,21.283771726594185
P2905,2025-06-03 19:00:00,28.0603,111.7581,362,益阳市,清塘铺,安化县,968.6,16.7,100.0,46.628913041065864,18.99810753623445
P2907,2025-06-03 19:00:00,28.3919,111.4953,75.7,益阳市,小淹,安化县,999.2,18.5,100.0,38.76184040548431,21.283771726594185
P2908,2025-06-03 19:00:00,28.4631,111.3892,108.5,益阳市,龙塘,安化县,993.7,19.2,100.0,55.9784203828416,22.235817183830736
P2909,2025-06-03 19:00:00,28.2458,111.7108,158.9,益阳市,仙溪,安化县,992.7,18.5,100.0,45.58030684395897,21.283771726594185
P2910,2025-06-03 19:00:00,28.0986,111.5753,198.8,益阳市,乐安,安化县,984.5,18.5,100.0,52.9976512008023,21.283771726594185
P2911,2025-06-03 19:00:00,28.2603,111.7928,220.5,益阳市,九渡水,安化县,982.8,17.6,100.0,49.41182212305276,20.11242790597456
P2915,2025-06-03 19:00:00,28.0372,111.0864,221.9,益阳市,平口水厂,安化县,985.8,19.0,99.0,51.32356277735698,21.740462260123145
P2919,2025-06-03 19:00:00,28.3197,111.2906,148,益阳市,田庄,安化县,989.5,18.6,100.0,38.02368250857255,21.41754737896486
P2921,2025-06-03 19:00:00,28.2475,110.8294,272.4,益阳市,奎溪,安化县,977.9,18.2,99.0,42.89814539807465,20.677968891434553
P2925,2025-06-03 19:00:00,28.4467,111.2144,129.6,益阳市,红岩水库,安化县,992.0,19.3,100.0,53.43880509198127,22.37483075849228
P2926,2025-06-03 19:00:00,28.3411,111.6094,113.7,益阳市,滔溪,安化县,994.3,18.2,99.0,50.07030878799571,20.677968891434553
P2927,2025-06-03 19:00:00,28.1361,111.6633,188.7,益阳市,梅城,安化县,987.3,18.3,99.0,36.675231693348266,20.808235898159186
P2930,2025-06-03 19:00:00,28.0419,111.8275,307.3,益阳市,高明,安化县,974.1,16.7,100.0,45.202559809086644,18.99810753623445
P2931,2025-06-03 19:00:00,28.5319,111.6106,101.9,益阳市,羊角塘,安化县,997.5,19.2,100.0,50.92327474547716,22.235817183830736
P2936,2025-06-03 19:00:00,28.3739,111.4203,66.2,益阳市,红泥,安化县,999.5,18.9,97.0,39.92815635020493,21.168615671086247
P2954,2025-06-03 19:00:00,28.4353,111.2819,138,益阳市,马渡,安化县,991.8,18.9,100.0,50.97687970681682,21.823315124831183
P2956,2025-06-03 19:00:00,28.3475,111.4978,119.6,益阳市,大双,安化县,994.0,17.8,95.0,37.75712180530413,19.349327369229602
P3101,2025-06-03 19:00:00,28.4764,113.7175,320,岳阳市,白水水库,平江县,973.6,17.7,100.0,34.737909551401515,20.23971684225924
P3102,2025-06-03 19:00:00,28.7497,113.7131,142.9,岳阳市,童市,平江县,992.4,19.2,98.0,45.02341431142936,21.791100840154122
P3104,2025-06-03 19:00:00,28.6447,113.2828,77.1,岳阳市,向家,平江县,999.5,20.3,96.0,46.71439135619507,22.855186618057097
P3105,2025-06-03 19:00:00,28.9081,113.5981,148,岳阳市,大洲,平江县,991.6,18.2,100.0,37.92505229314144,20.886837264075304
P3106,2025-06-03 19:00:00,28.8419,113.6083,106.8,岳阳市,梅仙,平江县,995.9,19.1,93.0,36.725864254653565,20.550733035305157
P3109,2025-06-03 19:00:00,28.8483,113.9397,160,岳阳市,云洞水库,平江县,988.7,19.1,98.0,41.6062342124398,21.655611155482855
P3111,2025-06-03 19:00:00,28.7019,113.9439,130,岳阳市,长寿,平江县,993.9,19.1,100.0,48.12480612697404,22.097562403553933
P3112,2025-06-03 19:00:00,28.8733,113.5142,110,岳阳市,余坪,平江县,994.5,18.3,97.0,36.77637163279786,20.38786749617617
P3113,2025-06-03 19:00:00,29.0058,113.6906,183.8,岳阳市,板江,平江县,988.3,18.2,100.0,42.75930179353124,20.886837264075304
P3114,2025-06-03 19:00:00,29.0697,113.7783,177.6,岳阳市,上塔市,平江县,988.4,19.2,100.0,44.748137351654016,22.235817183830736
P3117,2025-06-03 19:00:00,28.9219,113.7825,384.5,岳阳市,大江洞水库,平江县,964.9,19.2,94.0,46.286448319530955,20.901668152800895
P3118,2025-06-03 19:00:00,28.9008,113.8356,274.8,岳阳市,虹桥正东,平江县,975.8,19.3,70.0,24.282788821201635,15.662381530944595
P3119,2025-06-03 19:00:00,28.9722,113.9222,360.2,岳阳市,石牛寨姜源,平江县,965.3,20.9,70.0,29.750035349180056,17.29362275847523
P3120,2025-06-03 19:00:00,28.5925,113.7253,100.8,岳阳市,三市,平江县,997.0,20.1,100.0,48.001307825597934,23.514683799663736
P3124,2025-06-03 19:00:00,28.5569,113.5975,130,岳阳市,秋湖水库,平江县,993.2,19.8,97.0,44.49348554123067,22.38896283430057
P3125,2025-06-03 19:00:00,28.6319,113.565,173.4,岳阳市,三阳,平江县,988.6,19.0,100.0,44.199600583240624,21.960062889013276
P3200,2025-06-03 19:00:00,28.8292,113.1581,32.8,岳阳市,罗江,汨罗市,1003.2,20.8,100.0,40.66224079582075,24.553530217940562
P3201,2025-06-03 19:00:00,28.5517,113.0753,638.8,岳阳市,玉池,汨罗市,935.2,19.5,72.0,24.780804788742373,16.311706899938304
P3204,2025-06-03 19:00:00,28.6881,113.1281,400,岳阳市,神鼎山,汨罗市,966.5,22.8,70.0,34.30096069381026,19.422735202437458
P3350,2025-06-03 19:00:00,29.3639,113.5269,71.1,岳阳市,忠防水库,临湘市,1000.2,20.2,97.0,56.303762434287236,22.950866895060063
P3354,2025-06-03 19:00:00,29.5292,113.4131,286.7,岳阳市,荆竹山,临湘市,975.5,22.9,72.0,44.41180944576117,20.099203050947022
P3411,2025-06-03 19:00:00,29.4556,112.6736,24.7,岳阳市,钱粮湖,君山区,1004.1,22.9,92.0,42.23149937921504,25.68231500954342
P3413,2025-06-03 19:00:00,29.4875,112.7797,16.8,岳阳市,采桑湖,君山区,1005.3,22.5,93.0,52.844670321641985,25.33853136857656
P3510,2025-06-03 19:00:00,28.6403,113.8283,110,岳阳市,老丁源水库,平江县,995.5,19.5,97.0,42.424280063139705,21.975494017972437
P3511,2025-06-03 19:00:00,28.7119,113.4317,75.6,岳阳市,瓮江,平江县,999.6,19.1,100.0,39.18277531888623,22.097562403553933
P3512,2025-06-03 19:00:00,28.7497,113.2425,32,岳阳市,伍市,平江县,1002.3,20.8,86.0,42.05740811863015,21.11603598742888
P3513,2025-06-03 19:00:00,28.8106,114.0467,132.1,岳阳市,龙门,平江县,992.9,19.5,97.0,42.07658369684091,21.975494017972437
P3514,2025-06-03 19:00:00,28.8783,113.3742,115,岳阳市,兰家洞水库,汨罗市,995.9,19.3,100.0,51.974359228597905,22.37483075849228
P3518,2025-06-03 19:00:00,28.7714,113.0139,43.1,岳阳市,汨罗镇,汨罗市,1001.8,20.5,100.0,46.377162474239306,24.103482318250418
P3520,2025-06-03 19:00:00,28.9992,112.9692,32.8,岳阳市,磊石山,汨罗市,1003.8,22.4,100.0,47.133321081249484,27.080493204289816
P3521,2025-06-03 19:00:00,29.7411,113.4411,53,岳阳市,谷花,临湘市,1004.4,22.5,93.0,50.67964470560535,25.33853136857656
P3523,2025-06-03 19:00:00,29.2331,113.3939,96.7,岳阳市,白羊田,临湘市,996.8,20.4,98.0,48.5043801957482,23.475981434163216
P3525,2025-06-03 19:00:00,29.3758,112.7408,38.6,岳阳市,良心堡,君山区,1004.9,22.6,94.0,48.823320650894345,25.767143727492822
P3526,2025-06-03 19:00:00,28.9444,113.7353,183.1,岳阳市,南江,平江县,988.1,19.1,98.0,41.6062342124398,21.655611155482855
P3528,2025-06-03 19:00:00,29.6497,113.6189,16.2,岳阳市,定湖,临湘市,1004.1,20.8,79.0,41.39819279253853,19.397288872173043
P3529,2025-06-03 19:00:00,28.7086,112.7744,37,岳阳市,杨林寨,湘阴县,1004.1,22.5,95.0,50.86511869609057,25.883446021664227
P3531,2025-06-03 19:00:00,29.5717,112.5108,11,岳阳市,涛湖,华容县,1004.6,22.4,96.0,56.180394968222714,25.99727347611822
P3532,2025-06-03 19:00:00,29.6311,112.7356,37,岳阳市,东山水库,华容县,1002.4,22.0,70.0,30.45885142929231,18.499799586916268
P3534,2025-06-03 19:00:00,29.6011,112.8114,54.1,岳阳市,幸福水库,君山区,1001.4,20.6,92.0,42.292519949837924,22.312472436945654
P3536,2025-06-03 19:00:00,29.2639,113.5058,773.4,岳阳市,大云山,岳阳县,922.6,19.6,73.0,29.464546800163156,16.641415606621575
P3537,2025-06-03 19:00:00,29.0186,113.4906,131.3,岳阳市,张谷英,岳阳县,994.5,19.3,94.0,29.330471829160107,21.032340912982743
P3538,2025-06-03 19:00:00,29.4492,113.0503,33.7,岳阳市,展陈馆,君山区,1004.7,22.2,87.0,40.936841484147415,23.274803015263952
P3541,2025-06-03 19:00:00,29.0133,113.4411,122.7,岳阳市,岳坊水库,岳阳县,994.0,19.8,100.0,49.42941507235478,23.081404983815023
P3544,2025-06-03 19:00:00,29.2258,113.0858,28.4,岳阳市,麻塘,岳阳县,1005.0,22.0,99.0,46.500768697785794,26.16400227292444
P3547,2025-06-03 19:00:00,29.1339,113.0161,32.5,岳阳市,中洲,岳阳县,1004.1,21.4,90.0,45.31045093146282,22.92821056729091
P3552,2025-06-03 19:00:00,29.7919,113.52,12.4,岳阳市,黄盖,临湘市,1004.7,23.0,91.0,53.21520106346339,25.557581167705166
P3553,2025-06-03 19:00:00,29.565,113.6956,51.5,岳阳市,晓阳,临湘市,1000.2,20.1,99.0,53.052764438339906,23.2795369616671
P3554,2025-06-03 19:00:00,29.3889,113.6328,534.8,岳阳市,壁山,临湘市,946.1,20.5,71.0,31.314452994323652,17.113472445957797
P3558,2025-06-03 19:00:00,29.6639,113.3461,13.4,岳阳市,儒溪,临湘市,1004.0,22.2,86.0,43.050843481208865,23.007276543824133
P3559,2025-06-03 19:00:00,29.3117,113.4417,98.1,岳阳市,金盆,临湘市,996.4,20.1,89.0,39.52493560253267,20.928068581700725
P3562,2025-06-03 19:00:00,29.4708,112.4956,35,岳阳市,业谟小学,华容县,1004.9,23.1,100.0,55.368947551930695,28.255851347569248
P3565,2025-06-03 19:00:00,29.395,112.805,16.6,岳阳市,团华小学,华容县,1004.8,22.4,91.0,52.05093150550094,24.643248815903736
P3566,2025-06-03 19:00:00,29.7261,112.8489,43,岳阳市,小墨山,华容县,1003.8,21.6,100.0,54.233997202689196,25.789887461626247
P3568,2025-06-03 19:00:00,29.4917,112.4131,20,岳阳市,太仙,华容县,1004.8,23.0,99.0,43.36526201784945,27.804401490140783
P3570,2025-06-03 19:00:00,29.535,112.5558,14.6,岳阳市,华容河大堤,华容县,1004.4,23.2,89.0,49.823407765579084,25.300346679216478
P3572,2025-06-03 19:00:00,29.6033,112.4639,32,岳阳市,富强,华容县,1005.1,24.5,100.0,50.9324655656358,30.741346176057153
P3580,2025-06-03 19:00:00,28.7297,112.7042,27,岳阳市,湘滨,湘阴县,1004.1,22.7,100.0,52.09688205724958,27.578864330645896
P3587,2025-06-03 19:00:00,28.6281,112.5892,18,岳阳市,西林港,湘阴县,1004.9,21.5,60.0,32.99792155147298,15.379449984209689
P3588,2025-06-03 19:00:00,28.7647,112.9869,68,岳阳市,赛美水库,湘阴县,1001.5,21.3,96.0,45.89938514269346,24.30720216405387
P3589,2025-06-03 19:00:00,28.63,112.8128,29,岳阳市,城西水管会,湘阴县,1004.9,21.6,100.0,54.95384101982777,25.789887461626247
P3592,2025-06-03 19:00:00,29.4889,113.1922,30.9,岳阳市,象骨港,云溪区,1005.0,20.8,92.0,46.01238355663378,22.58924780050532
P3593,2025-06-03 19:00:00,29.5444,113.2581,50.8,岳阳市,丁山,云溪区,1003.4,21.5,90.0,55.64406895461862,23.069174976314535
P3594,2025-06-03 19:00:00,29.5942,113.3344,5.7,岳阳市,钢铁,云溪区,1004.3,21.1,95.0,47.803248937950826,23.760385387909658
P3595,2025-06-03 19:00:00,29.5531,113.3572,40,岳阳市,长岭街道,云溪区,1004.5,21.9,84.0,35.159854212006394,22.064616654155262
P3596,2025-06-03 19:00:00,29.4825,113.2631,54.4,岳阳市,洗马塘,云溪区,1003.4,20.6,92.0,47.3007866710817,22.312472436945654
P3599,2025-06-03 19:00:00,29.31,113.3339,73.2,岳阳市,兰桥水库,岳阳楼区,999.8,20.4,81.0,39.94935613091844,19.40361730782878
P3603,2025-06-03 19:00:00,29.4553,113.2167,62.3,岳阳市,滨湖,云溪区,999.7,26.6,62.0,32.10751696697536,21.59357815571693
P3604,2025-06-03 19:00:00,28.9742,112.92,27.8,岳阳市,凤凰乡磊石,市辖区,1005.3,22.4,93.0,51.5183416053354,25.184858679989528
P3605,2025-06-03 19:00:00,28.8606,112.9194,19.2,岳阳市,屈子诗园,市辖区,1004.8,22.6,92.0,49.865455798235416,25.21890662690787
P3614,2025-06-03 19:00:00,29.4533,113.3578,127.2,岳阳市,清溪水库,云溪区,995.8,19.7,95.0,47.32844305358166,21.79161683845095
P3615,2025-06-03 19:00:00,29.235,113.1386,95.4,岳阳市,东风水库,岳阳县,997.3,21.9,89.0,49.47238414711815,23.377986693093074
P3620,2025-06-03 19:00:00,29.1897,113.5236,90,岳阳市,铁山水库,岳阳县,997.8,21.0,94.0,45.34379325667176,23.366182885703
P3621,2025-06-03 19:00:00,29.2997,113.1031,134,岳阳市,风雨山,岳阳楼区,992.5,22.9,74.0,43.61624160074663,20.65751424680666
P3622,2025-06-03 19:00:00,29.5075,113.6161,99.3,岳阳市,羊楼司,临湘市,997.2,20.0,99.0,42.60160519007969,23.135776521723788
P3630,2025-06-03 19:00:00,29.4447,113.3122,60.1,岳阳市,建设,云溪区,1001.5,19.7,92.0,44.72142614211944,21.103460517236712
P3631,2025-06-03 19:00:00,29.4083,113.3064,134.5,岳阳市,伍家洞水库,岳阳楼区,993.0,19.8,100.0,39.86627947029823,23.081404983815023
P3633,2025-06-03 19:00:00,28.5319,113.0111,58.8,岳阳市,桥坪水库,汨罗市,1000.8,20.3,100.0,38.8642528880394,23.807486060476144
P3636,2025-06-03 19:00:00,28.5908,113.835,130.5,岳阳市,沱龙峡,平江县,993.6,19.3,100.0,54.0482546782429,22.37483075849228
P3637,2025-06-03 19:00:00,28.9742,113.8178,1160,岳阳市,幕阜山,平江县,881.5,18.7,51.0,16.735334257323526,10.991551034606678
P3640,2025-06-03 19:00:00,28.6933,113.0358,60.6,岳阳市,白水苗圃,汨罗市,998.9,20.5,100.0,53.47573724707784,24.103482318250418
P3641,2025-06-03 19:00:00,29.6411,113.4997,21,岳阳市,源潭,临湘市,1004.9,21.4,100.0,56.67827236611954,25.475789519212125
P3643,2025-06-03 19:00:00,29.3719,113.4747,103.6,岳阳市,桃矿,临湘市,996.3,20.3,92.0,45.45616511263756,21.902887175638053
P3650,2025-06-03 19:00:00,28.7758,113.6053,80.6,岳阳市,团山,平江县,997.8,20.0,92.0,44.62609916073915,21.499913535339278
P3659,2025-06-03 19:00:00,29.3592,112.5042,14,岳阳市,八一水厂,华容县,1004.9,23.6,88.0,51.812140925274726,25.627823997734872
P3660,2025-06-03 19:00:00,29.4222,112.6369,14.4,岳阳市,砂山,华容县,1004.7,23.0,94.0,37.03756642927983,26.40013878861852
P3661,2025-06-03 19:00:00,29.2167,112.705,29.3,岳阳市,隆庆莲场,华容县,1005.2,23.4,94.0,53.81774005398249,27.046716444607007
P3663,2025-06-03 19:00:00,29.5189,112.4686,6.6,岳阳市,蔡田湖,华容县,1004.9,22.6,99.0,44.24314672203331,27.13773647895521
P3664,2025-06-03 19:00:00,28.5367,112.9592,60,岳阳市,燎原,湘阴县,999.4,20.6,100.0,44.67375661436281,24.252687431462665
P3665,2025-06-03 19:00:00,28.8464,113.0339,40,岳阳市,河市乡,市辖区,1004.9,21.5,94.0,49.87297802730587,24.094471641928514
P3666,2025-06-03 19:00:00,28.7961,113.0722,46.7,岳阳市,归义,汨罗市,1002.7,22.2,82.0,48.74791013156633,21.93717065806487
P3676,2025-06-03 19:00:00,29.5422,113.3636,32.9,岳阳市,长炼,云溪区,1003.8,21.9,89.0,46.65686532795149,23.377986693093074
P3692,2025-06-03 19:00:00,29.5169,113.3128,57.6,岳阳市,江湖,云溪区,1003.3,20.4,92.0,50.75621204841942,22.038676448398125
P3694,2025-06-03 19:00:00,29.4369,113.1664,16.6,岳阳市,芭蕉湖,岳阳楼区,1004.8,22.6,82.0,40.13785938935734,22.4777211239831
P3703,2025-06-03 19:00:00,28.8864,110.8531,214,怀化市,七甲坪,沅陵县,984.4,19.2,96.0,38.65842540843958,21.34638449647751
P3705,2025-06-03 19:00:00,28.76,110.4319,204,怀化市,曹家,沅陵县,985.8,19.3,99.0,42.86139917636434,22.15108245090736
P3709,2025-06-03 19:00:00,28.6936,110.7453,165,怀化市,陈家滩,沅陵县,989.9,19.9,97.0,45.849773767673206,22.528294788932275
P3718,2025-06-03 19:00:00,28.5253,110.9103,336,怀化市,官庄,沅陵县,970.7,19.1,98.0,48.988168991795355,21.655611155482855
P3720,2025-06-03 19:00:00,28.5236,110.7211,163,怀化市,楠木铺,沅陵县,990.9,19.2,99.0,41.3922945633778,22.01345901199243
P3722,2025-06-03 19:00:00,28.425,110.7939,413,怀化市,杜家坪,沅陵县,963.8,17.3,89.0,37.067063396032296,17.563946436792396
P3728,2025-06-03 19:00:00,28.3294,110.5158,276,怀化市,张家滩,沅陵县,977.6,18.3,98.0,44.96635653083949,20.59805169716768
P3729,2025-06-03 19:00:00,28.2933,110.3239,164,怀化市,麻溪铺,沅陵县,990.2,19.6,100.0,38.287543614973245,22.796459735098047
P3733,2025-06-03 19:00:00,28.2306,110.2917,179,怀化市,筲箕湾,沅陵县,989.9,20.0,100.0,46.264593943178724,23.36947123406443
P3734,2025-06-03 19:00:00,28.1694,110.2081,172.5,怀化市,田头坪,辰溪县,989.2,19.7,93.0,41.418746916539014,21.332845957641457
P3739,2025-06-03 19:00:00,26.3494,109.7725,382.8,怀化市,下寨,通道侗族自治县,966.7,18.1,98.0,34.296191357107055,20.340858959162233
P3749,2025-06-03 19:00:00,27.9703,110.2892,149,怀化市,倒洑,辰溪县,992.1,20.5,100.0,45.59549673833301,24.103482318250418
P3750,2025-06-03 19:00:00,27.9644,110.1589,131.5,怀化市,潭湾敬老院,辰溪县,993.7,21.6,94.0,41.792037084906696,24.242494213928673
P3751,2025-06-03 19:00:00,27.9511,110.8358,323.8,怀化市,三江,溆浦县,973.5,17.9,100.0,41.34402599860129,20.4964197860545
P3759,2025-06-03 19:00:00,27.8892,109.8911,162.9,怀化市,兰里,麻阳苗族自治县,990.0,20.8,100.0,41.13620919474,24.553530217940562
P3761,2025-06-03 19:00:00,27.8553,109.9197,233.6,怀化市,和平溪,麻阳苗族自治县,980.9,20.9,94.0,46.99173372118557,23.222864847095313
P3763,2025-06-03 19:00:00,27.8783,109.695,179.8,怀化市,岩门镇黄土溪,麻阳苗族自治县,985.0,20.6,100.0,39.41391287538877,24.252687431462665
P3778,2025-06-03 19:00:00,27.7256,110.4086,121,怀化市,黄溪口,辰溪县,991.7,20.0,100.0,49.79729745003842,23.36947123406443
P3781,2025-06-03 19:00:00,27.6931,110.6811,528.9,怀化市,两丫坪,溆浦县,950.5,19.0,66.0,24.843231806650728,14.493641506748764
P3782,2025-06-03 19:00:00,27.7019,109.6039,265.2,怀化市,锦和,麻阳苗族自治县,977.3,20.1,83.0,34.65195124671291,19.517187553720902
P3783,2025-06-03 19:00:00,27.6689,110.1556,325,怀化市,花桥,中方县,969.1,20.8,96.0,54.92434490090355,23.571389009222937
P3784,2025-06-03 19:00:00,27.6725,109.7108,314,怀化市,江口圩,麻阳苗族自治县,976.2,19.9,100.0,53.716531462024044,23.225046174156986
P3790,2025-06-03 19:00:00,27.6664,109.8514,230,怀化市,贺家田,鹤城区,982.7,19.5,100.0,49.470405482300606,22.655148472136535
P3796,2025-06-03 19:00:00,27.6089,110.0964,246,怀化市,泸阳,中方县,980.6,20.5,96.0,44.305511974923164,23.1393430255204
P3798,2025-06-03 19:00:00,27.6269,110.6014,265.2,怀化市,北斗溪,溆浦县,978.4,18.8,97.0,43.82981806996329,21.03669614059887
P3800,2025-06-03 19:00:00,27.5886,110.28,186,怀化市,铜湾,中方县,988.5,20.3,93.0,49.7747297110003,22.140962036242815
P3803,2025-06-03 19:00:00,27.9714,110.3422,173.5,怀化市,桃田坳,辰溪县,989.3,20.3,97.0,36.52999834311904,23.09326147866186
P3811,2025-06-03 19:00:00,27.7506,110.1411,213,怀化市,肖家溪,辰溪县,987.2,19.9,100.0,43.323214099158996,23.225046174156986
P3820,2025-06-03 19:00:00,27.1161,109.9783,536.5,怀化市,高坡街,洪江市,947.1,20.0,80.0,34.89275465045976,18.69557698725155
P3823,2025-06-03 19:00:00,26.5053,109.5308,450,怀化市,靖州县排牙山,靖州苗族侗族自治县,957.8,18.1,93.0,37.704906036508824,19.303060032674363
P3825,2025-06-03 19:00:00,27.5183,110.1769,259.7,怀化市,新建敬老院,中方县,982.3,19.1,97.0,47.26652601449254,21.434635531447313
P3827,2025-06-03 19:00:00,27.5089,109.4536,370,怀化市,芷江县大树坳,芷江侗族自治县,967.3,18.6,100.0,44.071205844062746,21.41754737896486
P3833,2025-06-03 19:00:00,27.4483,109.7589,263,怀化市,岩桥,芷江侗族自治县,978.5,20.1,99.0,46.0002563904562,23.2795369616671
P3846,2025-06-03 19:00:00,27.4039,109.2453,444,怀化市,波州,新晃侗族自治县,956.3,18.3,89.0,32.16627430026515,18.70639388824412
P3849,2025-06-03 19:00:00,27.3447,109.9131,240,怀化市,牌楼,中方县,981.7,19.1,99.0,53.60159510600114,21.876586779518394
P3853,2025-06-03 19:00:00,27.3089,109.4775,466,怀化市,梨溪口水库,芷江侗族自治县,956.5,19.1,92.0,41.7165094751818,20.329757411269618
P3857,2025-06-03 19:00:00,27.325,109.0644,341,怀化市,鱼市,新晃侗族自治县,970.8,19.4,83.0,39.49806060560682,18.687123535680353
P3860,2025-06-03 19:00:00,27.1392,109.9714,172.1,怀化市,横岩,洪江市,985.7,19.3,96.0,44.445478739406724,21.47983752815259
P3870,2025-06-03 19:00:00,27.2317,109.2867,473,怀化市,降溪,新晃侗族自治县,954.9,17.8,96.0,32.38540143187329,19.55300449943202
P3871,2025-06-03 19:00:00,27.1842,109.1325,437,怀化市,扶罗,新晃侗族自治县,960.8,18.1,94.0,30.193331362479466,19.510619817971936
P3883,2025-06-03 19:00:00,27.1044,108.9556,501,怀化市,凉伞,新晃侗族自治县,953.1,18.2,100.0,41.56425595973945,20.886837264075304
P3896,2025-06-03 19:00:00,26.7839,109.8633,344.7,怀化市,木寨,会同县,969.8,18.6,97.0,39.44226122419019,20.775020957595913
P3897,2025-06-03 19:00:00,26.7228,109.5947,306,怀化市,会同县地灵,会同县,972.9,18.9,94.0,53.18456746288524,20.513916217341315
P3899,2025-06-03 19:00:00,26.7006,109.4481,394,怀化市,大堡子,靖州苗族侗族自治县,963.8,17.9,98.0,46.820718733291585,20.08649139033341
P3901,2025-06-03 19:00:00,26.6728,109.6456,346.4,怀化市,坳上,靖州苗族侗族自治县,968.7,18.5,95.0,50.05638956581943,20.219583140264476
P3904,2025-06-03 19:00:00,26.65,109.385,617.2,怀化市,三锹,靖州苗族侗族自治县,940.0,17.9,94.0,36.1556866049067,19.26663459889123
P3909,2025-06-03 19:00:00,26.4108,109.4269,398.3,怀化市,藕团,靖州苗族侗族自治县,964.8,18.1,93.0,37.704906036508824,19.303060032674363
P3914,2025-06-03 19:00:00,26.2025,109.5192,359,怀化市,播阳,通道侗族自治县,968.6,18.6,94.0,45.570467410818246,20.132494536226968
P3917,2025-06-03 19:00:00,26.08,109.5481,455.3,怀化市,独坡,通道侗族自治县,957.7,17.5,100.0,50.647372891849045,19.985842878023494
P3918,2025-06-03 19:00:00,26.0089,109.7683,512,怀化市,陇城,通道侗族自治县,951.2,17.3,96.0,41.362708119581356,18.94538042620303
P4001,2025-06-03 19:00:00,28.8097,111.0122,73,怀化市,五强溪,沅陵县,999.5,19.8,100.0,48.618815807529245,23.081404983815023
P4014,2025-06-03 19:00:00,28.5272,110.2183,136,怀化市,高竹坪,沅陵县,993.9,19.9,100.0,43.45720835874904,23.225046174156986
P4019,2025-06-03 19:00:00,27.4256,109.3614,331,怀化市,新店坪镇上坪,芷江侗族自治县,971.2,19.3,100.0,48.09030648945227,22.37483075849228
P4021,2025-06-03 19:00:00,28.1625,110.6406,348.4,怀化市,低庄镇大渭溪,溆浦县,969.5,18.1,99.0,42.7591593916885,20.548418744459806
P4023,2025-06-03 19:00:00,26.325,109.4625,397,怀化市,靖州县新厂,靖州苗族侗族自治县,964.5,17.6,91.0,33.72317867848597,18.30230939443685
P4030,2025-06-03 19:00:00,28.6453,110.3453,320,怀化市,高砌头,沅陵县,971.4,20.2,86.0,52.19643665348775,20.348191267785207
P4038,2025-06-03 19:00:00,27.7356,110.5281,566.3,怀化市,统溪河,溆浦县,944.9,18.8,100.0,42.12490964801028,21.687315608864814
P4042,2025-06-03 19:00:00,27.4094,109.8139,369,怀化市,水宽,芷江侗族自治县,967.1,20.5,84.0,38.861558040523946,20.24692514733035
P4043,2025-06-03 19:00:00,28.0339,110.4381,488,怀化市,谭家场,辰溪县,951.3,18.4,92.0,37.53048715180817,19.458672009853537
P4050,2025-06-03 19:00:00,27.425,110.6067,541,怀化市,大华,溆浦县,948.5,17.3,100.0,34.97122464073337,19.734771277294826
P4051,2025-06-03 19:00:00,26.9703,109.7375,334,怀化市,坪村,会同县,970.3,19.6,94.0,49.414543943629724,21.428672150992163
P4055,2025-06-03 19:00:00,27.6414,110.3222,210,怀化市,铜鼎,中方县,986.8,20.2,98.0,45.53265646662057,23.18747377026687
P4056,2025-06-03 19:00:00,27.5292,110.3503,255,怀化市,接龙,中方县,977.4,18.7,100.0,42.34390783911862,21.55206085216996
P4057,2025-06-03 19:00:00,27.3539,109.8394,343,怀化市,桐木,中方县,969.9,19.2,100.0,48.761303604990744,22.235817183830736
P4059,2025-06-03 19:00:00,27.1203,109.6225,244,怀化市,洪江市托口,洪江市,978.7,20.7,99.0,44.33617897437745,24.158675132454945
P4061,2025-06-03 19:00:00,27.1197,109.6967,204,怀化市,江市,洪江市,984.4,19.5,99.0,44.447865031709235,22.42859698741517
P4063,2025-06-03 19:00:00,28.3528,110.3003,134,怀化市,盘古,沅陵县,992.9,20.1,100.0,47.096842078428715,23.514683799663736
P4068,2025-06-03 19:00:00,27.0119,109.8433,400,怀化市,大溪水库,会同县,963.8,19.1,97.0,50.19671913687736,21.434635531447313
P4069,2025-06-03 19:00:00,28.8036,110.6261,150,怀化市,大合坪,沅陵县,991.6,19.6,97.0,44.95280950642116,22.112565943045105
P4070,2025-06-03 19:00:00,28.5286,110.6353,320,怀化市,长界,沅陵县,973.0,18.9,96.0,45.12075218732869,20.950382519837937
P4079,2025-06-03 19:00:00,27.8842,110.7317,535.2,怀化市,桥江镇新田,溆浦县,949.6,19.5,88.0,37.36221715175176,19.93653065548015
P4080,2025-06-03 19:00:00,27.8681,110.0928,163,怀化市,红敏,辰溪县,990.2,20.9,100.0,40.40208810351144,24.70517536925033
P4092,2025-06-03 19:00:00,26.7067,109.7314,294.7,怀化市,靖州县甘棠,靖州苗族侗族自治县,975.0,19.2,95.0,47.59273642549218,21.1240263246392
P4093,2025-06-03 19:00:00,26.3322,109.335,482,怀化市,平茶,靖州苗族侗族自治县,955.0,17.3,94.0,35.02531513146121,18.550685000657136
P4094,2025-06-03 19:00:00,26.4539,109.895,381.9,怀化市,联团,通道侗族自治县,961.0,17.6,98.0,44.08678366132149,19.71017934785507
P4095,2025-06-03 19:00:00,26.2911,109.9364,433.1,怀化市,石岩,通道侗族自治县,959.3,16.2,92.0,36.90479226709289,16.930575550824
P4116,2025-06-03 19:00:00,27.8944,109.6364,220.1,怀化市,石羊哨,麻阳苗族自治县,983.7,20.3,98.0,47.9856197499735,23.33133633926662
P4121,2025-06-03 19:00:00,28.0506,110.7606,247.6,怀化市,祖师殿,溆浦县,980.7,19.6,100.0,48.40551776840038,22.796459735098047
P4122,2025-06-03 19:00:00,27.9525,110.7689,290.3,怀化市,油洋,溆浦县,976.4,19.7,93.0,42.900524068916475,21.332845957641457
P4123,2025-06-03 19:00:00,27.8836,110.3986,146.1,怀化市,大江口,溆浦县,992.1,20.2,96.0,51.85020192794925,22.714260019853256
P4126,2025-06-03 19:00:00,27.8461,110.6906,225.2,怀化市,陶金坪,溆浦县,982.7,18.6,100.0,49.91748270663269,21.41754737896486
P4131,2025-06-03 19:00:00,27.4036,110.5142,510,怀化市,龙潭镇横板桥,溆浦县,951.7,18.1,100.0,37.72030205281033,20.75597852975738
P4143,2025-06-03 19:00:00,27.315,110.1617,225,怀化市,洪江市安江,洪江市,982.3,19.8,96.0,50.10923889057601,22.15814878446242
P4144,2025-06-03 19:00:00,27.1914,110.1669,326,怀化市,洪江市熟坪,洪江市,972.4,18.9,100.0,39.361931419966574,21.823315124831183
P4149,2025-06-03 19:00:00,27.2317,109.7297,281,怀化市,岩垅,洪江市,976.0,19.8,95.0,47.54137235013547,21.92733473462427
P4155,2025-06-03 19:00:00,26.9625,110.0258,221.6,怀化市,会同县高椅,会同县,983.0,19.1,100.0,40.9675424722287,22.097562403553933
P4156,2025-06-03 19:00:00,26.9819,109.7731,340.4,怀化市,堡子,会同县,970.7,19.6,95.0,50.271071028294976,21.656636748343143
P4167,2025-06-03 19:00:00,26.3656,109.6619,349.9,怀化市,县溪镇江口,通道侗族自治县,966.0,18.1,99.0,44.386982422831814,20.548418744459806
P4175,2025-06-03 19:00:00,26.085,109.8053,407.3,怀化市,长安堡,通道侗族自治县,961.1,17.1,100.0,52.72220598848621,19.48647562718077
P4198,2025-06-03 19:00:00,28.6917,110.5306,158,怀化市,落坪,沅陵县,991.0,19.4,100.0,41.596144470917906,22.514606669494402
P4200,2025-06-03 19:00:00,27.4572,109.9464,236,怀化市,中方站,中方县,981.2,20.9,87.0,47.283952866624205,21.493502571247788
P4201,2025-06-03 19:00:00,27.8675,110.0128,207.8,怀化市,黄桑乡军田,麻阳苗族自治县,978.9,21.1,80.0,38.989259849648626,20.008745589818663
P4205,2025-06-03 19:00:00,26.6747,109.3367,635,怀化市,塘款,靖州苗族侗族自治县,937.5,19.7,78.0,33.02686107716653,17.892064351570255
P4404,2025-06-03 19:00:00,27.8869,111.5178,442,娄底市,华新,新化县,958.6,17.6,97.0,35.40283069373385,19.509055068795323
P4416,2025-06-03 19:00:00,27.6861,111.2781,211,娄底市,科头,新化县,982.3,19.3,94.0,47.43336999983862,21.032340912982743
P4420,2025-06-03 19:00:00,28.08,111.3736,243,娄底市,龙溪,新化县,978.8,18.5,94.0,45.69933392917904,20.006745422998534
P4432,2025-06-03 19:00:00,28.0161,111.2794,156.6,娄底市,何家坪,新化县,987.0,18.5,100.0,37.88025932700379,21.283771726594185
P4435,2025-06-03 19:00:00,27.7942,111.0617,504,娄底市,古台山林场,新化县,948.9,20.4,77.0,36.633015529083394,18.445413983985386
P4440,2025-06-03 19:00:00,27.6244,111.1006,274,娄底市,半山水库,新化县,977.7,17.8,100.0,40.347936079756124,20.367713020241688
P4446,2025-06-03 19:00:00,27.8789,111.3722,279.4,娄底市,水竹,新化县,976.5,18.8,94.0,44.981777473686996,20.386076672332926
P4481,2025-06-03 19:00:00,27.7511,110.8889,851.1,娄底市,大桥,新化县,914.5,17.5,86.0,35.17087765623386,17.1878248751002
P4512,2025-06-03 19:00:00,27.5672,111.3708,289,娄底市,连岩,冷水江市,974.3,18.5,91.0,40.5121222050335,19.36823227120071
P4515,2025-06-03 19:00:00,27.7794,111.4869,677,娄底市,谭家,冷水江市,931.0,19.5,73.0,31.16541131427177,16.53825838465967
P4516,2025-06-03 19:00:00,27.6011,111.4764,178,娄底市,杨源,冷水江市,986.1,18.5,98.0,31.624262654369307,20.858096292062303
P4517,2025-06-03 19:00:00,27.6461,111.5622,338,娄底市,大冲,冷水江市,970.8,20.5,73.0,36.72250378865517,17.595542092322805
P4561,2025-06-03 19:00:00,27.5222,111.7556,693,娄底市,龙山林场,涟源市,930.8,16.2,100.0,40.713784165748244,18.402799511765217
P4562,2025-06-03 19:00:00,27.85,111.7756,141,娄底市,迎宾,涟源市,990.0,19.9,86.0,40.25008246479261,19.973539709775004
P4563,2025-06-03 19:00:00,27.8811,111.6511,613.5,娄底市,古塘,涟源市,941.1,17.2,92.0,38.31572652285132,18.041455853206866
P4564,2025-06-03 19:00:00,27.72,111.6253,185,娄底市,芙蓉,涟源市,988.8,18.3,97.0,42.112854691640216,20.38786749617617
P4565,2025-06-03 19:00:00,27.8219,111.6697,350,娄底市,安平,涟源市,966.7,21.2,70.0,33.37960924276736,17.61553571085538
P4567,2025-06-03 19:00:00,27.9064,111.8492,181,娄底市,七星中学,涟源市,987.8,18.5,93.0,38.18535780081162,19.793907705732593
P4568,2025-06-03 19:00:00,27.7781,111.8789,97,娄底市,渡头塘,涟源市,994.9,19.0,97.0,43.741384939105664,21.301261002342876
P4569,2025-06-03 19:00:00,27.4906,111.9294,298.7,娄底市,坝塘,涟源市,970.3,19.8,56.0,20.50535379326353,12.925586790936414
P4570,2025-06-03 19:00:00,27.7767,111.7514,166,娄底市,龙塘,涟源市,987.8,19.9,85.0,47.199569919822714,19.741289248033436
P4571,2025-06-03 19:00:00,27.55,111.6817,185.6,娄底市,孙家桥,涟源市,986.2,17.8,96.0,47.83358821170489,19.55300449943202
P4572,2025-06-03 19:00:00,27.6306,111.9314,148,娄底市,水洞底,娄星区,993.0,19.0,95.0,48.14209305981738,20.862059744562615
P4573,2025-06-03 19:00:00,27.5897,111.9006,146.8,娄底市,荷塘,涟源市,989.7,18.2,97.0,51.54116794879228,20.260232146153044
P4574,2025-06-03 19:00:00,27.575,111.8128,148.8,娄底市,茶亭子,涟源市,988.7,18.6,93.0,45.7485922974006,19.91831906243732
P4575,2025-06-03 19:00:00,27.6592,111.8269,185,娄底市,斗笠山,涟源市,985.7,19.1,92.0,53.905229726764674,20.329757411269618
P4576,2025-06-03 19:00:00,27.6225,111.6239,281.2,娄底市,谢家,涟源市,981.8,17.4,97.0,53.3020405717185,19.264159684641584
P4577,2025-06-03 19:00:00,27.7153,111.7697,108,娄底市,湖泉,涟源市,993.8,18.5,98.0,47.148903624680216,20.858096292062303
P4578,2025-06-03 19:00:00,27.5856,111.7683,208.3,娄底市,茅塘,涟源市,982.6,18.8,89.0,42.0904734430001,19.301710891889687
P4580,2025-06-03 19:00:00,27.8442,111.8475,134.6,娄底市,桥头河,涟源市,993.1,19.2,100.0,44.978761655852,22.235817183830736
P4582,2025-06-03 19:00:00,27.6583,111.7725,146.5,娄底市,青树,涟源市,989.6,18.2,98.0,44.005063709310264,20.469100518793798
P4583,2025-06-03 19:00:00,27.9822,111.6572,488,娄底市,漆树,涟源市,951.6,17.6,100.0,36.93958345054314,20.11242790597456
P4594,2025-06-03 19:00:00,27.6264,111.6889,199,娄底市,杨岭水库,涟源市,983.4,17.5,97.0,46.78351135538976,19.386267591682785
P4601,2025-06-03 19:00:00,27.7633,111.9192,165,娄底市,石井,娄星区,990.1,19.5,98.0,47.17987153989203,22.202045502693807
P4602,2025-06-03 19:00:00,27.7783,111.9608,117,娄底市,黄泥塘,娄星区,993.4,19.5,92.0,39.49488963333403,20.842736594365615
P4611,2025-06-03 19:00:00,27.7747,112.0722,77,娄底市,春园中学,娄星区,995.4,19.3,96.0,46.66434365557415,21.47983752815259
P4614,2025-06-03 19:00:00,27.8078,112.0092,146,娄底市,花溪谷,娄星区,992.5,19.2,95.0,40.58488788100877,21.1240263246392
P4615,2025-06-03 19:00:00,27.6531,111.995,154,娄底市,军分区仓库,娄星区,991.7,27.1,69.0,45.97238263561323,24.749427164195154
P4618,2025-06-03 19:00:00,27.9219,111.9692,272,娄底市,双江水库,娄星区,979.4,17.8,97.0,47.03027516043481,19.756681629634436
P4627,2025-06-03 19:00:00,27.7464,112.0158,112.5,娄底市,乐坪,娄星区,993.5,20.4,85.0,49.107782556403635,20.361820631672177
P4639,2025-06-03 19:00:00,27.7286,112.0014,151.5,娄底市,市气象局,娄星区,991.0,21.8,83.0,49.0737670895364,21.66912179064198
P4651,2025-06-03 19:00:00,27.4397,112.1436,83.5,娄底市,金开街道,双峰县,997.4,20.4,94.0,41.22306661999633,22.51777811031982
P4657,2025-06-03 19:00:00,27.5836,112.0908,106,娄底市,洪福,娄星区,994.1,19.3,96.0,42.62131700919174,21.47983752815259
P4660,2025-06-03 19:00:00,27.6347,112.2511,68.4,娄底市,水府庙,双峰县,1000.3,18.3,24.0,8.579269219060397,5.044420823796166
P4661,2025-06-03 19:00:00,27.4411,111.9703,128.9,娄底市,甘棠,双峰县,992.2,19.3,94.0,43.81866792515456,21.032340912982743
P4662,2025-06-03 19:00:00,27.6261,112.2436,74.9,娄底市,杏子铺,双峰县,999.8,19.1,96.0,43.63196496879672,21.213659907411774
P4663,2025-06-03 19:00:00,27.5339,112.2253,56.5,娄底市,黄马洲,双峰县,1000.1,19.4,96.0,42.34660455094935,21.614022402714625
P4666,2025-06-03 19:00:00,27.3297,112.1042,106.8,娄底市,锁石,双峰县,995.4,20.6,95.0,48.488870190305725,23.040053059889534
P4667,2025-06-03 19:00:00,27.4825,112.1942,67,娄底市,茅坪,双峰县,998.8,20.4,94.0,47.680678630970796,22.51777811031982
P4668,2025-06-03 19:00:00,27.3981,111.9872,116.2,娄底市,三塘铺,双峰县,993.9,19.6,95.0,47.965261899513365,21.656636748343143
P4669,2025-06-03 19:00:00,27.4258,112.1083,83.5,娄底市,岳家,双峰县,996.0,19.8,96.0,45.78850802674376,22.15814878446242
P4670,2025-06-03 19:00:00,27.4661,112.4281,115.2,娄底市,井字,双峰县,992.7,19.6,95.0,43.95338858218387,21.656636748343143
P4671,2025-06-03 19:00:00,27.5189,112.1044,84.1,娄底市,走马街,双峰县,996.6,19.5,96.0,49.32159250071905,21.74894253325107
P4672,2025-06-03 19:00:00,27.3789,112.0317,106.2,娄底市,青树坪,双峰县,994.4,19.7,96.0,54.949874915599324,22.021002278855697
P4674,2025-06-03 19:00:00,27.3983,112.4289,118.2,娄底市,双鱼,双峰县,992.5,19.3,97.0,42.63594694528925,21.70358583573751
P4675,2025-06-03 19:00:00,27.5603,112.0128,88.5,娄底市,洪山殿,双峰县,996.3,19.0,93.0,40.90956295602441,20.42285848678235
P4676,2025-06-03 19:00:00,27.2908,112.0944,109.5,娄底市,花门,双峰县,994.5,20.1,96.0,55.903423267293526,22.574096447677185
P4677,2025-06-03 19:00:00,27.38,112.2297,116.2,娄底市,石牛,双峰县,991.8,18.9,97.0,41.996168310740195,21.168615671086247
P4678,2025-06-03 19:00:00,27.4853,112.2675,123.2,娄底市,民实,双峰县,991.3,19.4,100.0,35.48595505572228,22.514606669494402
P4801,2025-06-03 19:00:00,28.0036,112.4569,123,湘潭市,金石,湘乡市,995.2,18.3,98.0,43.044572858150815,20.59805169716768
P4802,2025-06-03 19:00:00,27.9392,113.0025,36,湘潭市,昭山,岳塘区,1003.4,20.4,95.0,57.61410125896879,22.75732894128067
P4804,2025-06-03 19:00:00,27.9589,112.4703,106.6,湘潭市,石屏,韶山市,995.7,19.5,90.0,49.923372688824244,20.38963362492288
P4806,2025-06-03 19:00:00,27.935,112.3047,72,湘潭市,金薮,湘乡市,988.3,19.8,98.0,58.1336909955707,22.619776884138723
P4807,2025-06-03 19:00:00,28.02,112.4997,111.3,湘潭市,云源,韶山市,993.9,18.4,97.0,44.14206667396407,20.516208532128182
P4815,2025-06-03 19:00:00,27.9203,112.4253,134.6,湘潭市,新联,韶山市,990.7,19.6,100.0,56.84362208765844,22.796459735098047
P4816,2025-06-03 19:00:00,27.8856,112.9744,60,湘潭市,荷塘,岳塘区,1000.6,20.9,94.0,41.42925554369886,23.222864847095313
P4818,2025-06-03 19:00:00,27.9178,112.5942,72.4,湘潭市,银田,韶山市,998.0,20.1,90.0,48.78821410803962,21.163215419697362
P4821,2025-06-03 19:00:00,27.89,112.5347,69.9,湘潭市,高铁南站,韶山市,997.8,19.5,96.0,41.54119717450474,21.74894253325107
P4829,2025-06-03 19:00:00,27.8378,112.5158,120,湘潭市,龙洞,湘乡市,998.4,19.0,95.0,51.22049634389229,20.862059744562615
P4831,2025-06-03 19:00:00,27.8344,112.9397,68,湘潭市,锦源广场,岳塘区,1000.4,20.5,94.0,50.08561965438847,22.65727337915539
P4834,2025-06-03 19:00:00,27.7967,112.5972,75,湘潭市,韶灌科研所,湘乡市,1000.4,20.1,95.0,50.83249328137834,22.33894960968055
P4835,2025-06-03 19:00:00,27.7922,112.9525,78,湘潭市,易俗河,湘潭县,1001.8,22.8,81.0,50.19152711439863,22.474879305677636
P4839,2025-06-03 19:00:00,27.7614,112.4711,90,湘潭市,泉塘,湘乡市,999.5,19.4,95.0,40.90687248868257,21.38887633601968
P4841,2025-06-03 19:00:00,27.7161,112.3417,57,湘潭市,潭市,湘乡市,1000.1,18.9,95.0,22.07311289050017,20.732149368589624
P4843,2025-06-03 19:00:00,27.6639,112.4522,75.4,湘潭市,洙津渡,湘乡市,1000.7,19.7,94.0,32.137492726579545,21.562231398046205
P4844,2025-06-03 19:00:00,27.6903,112.1053,99.7,湘潭市,毛田,湘乡市,996.9,19.0,96.0,40.244554782902945,21.081660373452745
P4845,2025-06-03 19:00:00,27.6383,112.5831,259.8,湘潭市,梅桥,湘乡市,978.1,22.0,74.0,35.879258082189196,19.55693099188291
P4846,2025-06-03 19:00:00,27.6442,112.3406,82,湘潭市,洋潭电站,湘乡市,999.1,19.3,95.0,40.487065793704986,21.256089220567667
P4847,2025-06-03 19:00:00,27.6442,112.6283,93.5,湘潭市,上石坝水库,湘潭县,995.4,19.5,95.0,46.067510058999495,21.52239104852971
P4848,2025-06-03 19:00:00,27.6269,112.3814,104,湘潭市,栗山,湘乡市,998.5,19.2,95.0,48.0731665075096,21.1240263246392
P4850,2025-06-03 19:00:00,27.6158,112.71,65.1,湘潭市,锦石,湘潭县,999.6,20.2,98.0,49.54715093162947,23.18747377026687
P4851,2025-06-03 19:00:00,27.5836,112.6533,98.7,湘潭市,严冲水库,湘潭县,997.4,19.2,98.0,56.53866257908436,21.791100840154122
P4852,2025-06-03 19:00:00,27.5608,112.9153,68.2,湘潭市,中路铺水库,湘潭县,1000.0,20.6,95.0,54.692092204653655,23.040053059889534
P4854,2025-06-03 19:00:00,27.5328,112.3353,140,湘潭市,中沙,湘乡市,992.4,18.7,96.0,39.30225019210556,20.68997841808316
P4855,2025-06-03 19:00:00,27.5292,112.5147,76.4,湘潭市,石鼓,湘潭县,997.1,19.5,97.0,48.81580275431491,21.975494017972437
P4858,2025-06-03 19:00:00,27.4975,112.8272,99,湘潭市,印子山水库,湘潭县,995.3,18.5,97.0,42.79349650914539,20.645258574796358
P4860,2025-06-03 19:00:00,27.4747,112.7319,84.2,湘潭市,龙口,湘潭县,997.0,20.2,96.0,43.76833217949186,22.714260019853256
P4862,2025-06-03 19:00:00,27.3747,112.825,76.9,湘潭市,茶恩寺,湘潭县,998.8,19.8,100.0,50.51702576353103,23.081404983815023
P4863,2025-06-03 19:00:00,27.7808,112.7739,63,湘潭市,杨嘉桥,湘潭县,1001.6,20.4,97.0,53.479546808246916,23.236430603202365
P4864,2025-06-03 19:00:00,27.8578,112.8989,30,湘潭市,白石公园,雨湖区,1003.8,21.4,91.0,48.44702450659079,23.182968462483036
P4865,2025-06-03 19:00:00,27.9172,112.9608,38,湘潭市,九华,雨湖区,1003.7,20.8,100.0,50.596667630335034,24.553530217940562
P4868,2025-06-03 19:00:00,27.8489,112.3881,102.6,湘潭市,白田,湘乡市,997.4,19.3,97.0,43.35208086051339,21.70358583573751
P4870,2025-06-03 19:00:00,27.8144,112.3172,90.2,湘潭市,褒忠山,湘乡市,997.3,18.7,95.0,43.283996400904726,20.47445780956146
P4873,2025-06-03 19:00:00,27.7042,112.9678,74.1,湘潭市,梅林桥,湘潭县,997.3,21.0,100.0,45.071509808920055,24.85764136776915
P4877,2025-06-03 19:00:00,27.6872,112.2133,132,湘潭市,水府旅游区,湘乡市,997.4,19.6,85.0,38.884486280674416,19.376990774833338
P4879,2025-06-03 19:00:00,27.7286,112.725,40.5,湘潭市,石潭,湘潭县,1002.4,21.0,95.0,48.571873544568355,23.614759299380694
P4881,2025-06-03 19:00:00,27.8331,113.0089,25,湘潭市,马家河,岳塘区,1003.4,21.1,96.0,51.39395726435792,24.01049470778239
P4885,2025-06-03 19:00:00,27.7089,112.5983,132.5,湘潭市,奇才,湘潭县,993.3,18.9,96.0,33.30007008558851,20.950382519837937
P4890,2025-06-03 19:00:00,27.6028,112.3539,98,湘潭市,虞唐,湘乡市,993.9,19.3,92.0,44.82480352314835,20.5848442978129
P4919,2025-06-03 19:00:00,27.8208,112.225,228.9,湘潭市,农之源,湘乡市,982.3,17.9,95.0,45.225585250099705,19.471598796751774
P5101,2025-06-03 19:00:00,28.1106,113.0253,72,长沙市,省植物园,雨花区,998.2,21.6,85.0,44.98426754150612,21.92140434238231
P5103,2025-06-03 19:00:00,28.0467,113.0011,83,长沙市,西湖小学,天心区,998.0,20.4,95.0,51.17730404542366,22.75732894128067
P5104,2025-06-03 19:00:00,28.3772,113.44,91,长沙市,中洲,浏阳市,998.0,20.2,94.0,51.44062216460615,22.24104626943965
P5106,2025-06-03 19:00:00,28.5328,113.2044,119,长沙市,福临,长沙县,994.8,20.7,95.0,50.8029717434736,23.182567046295148
P5107,2025-06-03 19:00:00,28.4536,113.0375,73,长沙市,北山镇福高,长沙县,1000.0,20.6,92.0,42.362823531946304,22.312472436945654
P5108,2025-06-03 19:00:00,28.5322,113.3683,78,长沙市,金井,长沙县,998.9,19.9,100.0,43.16094732868649,23.225046174156986
P5110,2025-06-03 19:00:00,28.2892,113.1817,58,长沙市,银龙,长沙县,1002.0,20.1,98.0,51.53220914013248,23.044390123670464
P5111,2025-06-03 19:00:00,28.5892,113.3836,140,长沙市,白石洞水库,长沙县,991.9,20.2,93.0,46.94583737936926,22.004439394232843
P5112,2025-06-03 19:00:00,28.5469,113.2,113,长沙市,西冲水库,长沙县,995.2,20.9,88.0,51.80897867345359,21.74055432494029
P5114,2025-06-03 19:00:00,28.4783,112.8044,45,长沙市,铜官,望城区,1002.3,21.6,92.0,51.84321478810991,23.72669646469615
P5115,2025-06-03 19:00:00,28.5142,112.7536,24,长沙市,苏蓼垸,望城区,1004.0,22.8,95.0,54.70984080545132,26.359426346165122
P5116,2025-06-03 19:00:00,28.2419,112.7236,71,长沙市,光明,望城区,1000.4,19.6,97.0,51.92493232128856,22.112565943045105
P5118,2025-06-03 19:00:00,28.485,113.3806,96,长沙市,桐仁桥水库,长沙县,996.5,20.6,94.0,44.744764172608235,22.797526185574906
P5121,2025-06-03 19:00:00,28.3467,112.8169,55,长沙市,和园公园,望城区,1002.7,22.2,85.0,39.8635004344362,22.739750072384318
P5123,2025-06-03 19:00:00,28.6153,113.2478,64,长沙市,枫林市,长沙县,1000.9,20.5,100.0,28.94471401123841,24.103482318250418
P5124,2025-06-03 19:00:00,28.4675,113.0103,392,长沙市,黑麋峰水电站,望城区,962.4,20.9,80.0,25.9492265825175,19.764140295400267
P5126,2025-06-03 19:00:00,28.2311,113.0644,71,长沙市,金科公园,长沙县,1001.3,22.7,81.0,44.31548676465966,22.33888010782318
P5132,2025-06-03 19:00:00,28.2947,112.7897,194,长沙市,英雄岭,望城区,987.1,20.5,92.0,50.411187585860695,22.175203732790386
P5137,2025-06-03 19:00:00,28.4061,112.7758,97,长沙市,廖家坪,望城区,997.3,19.1,100.0,50.57826178200091,22.097562403553933
P5140,2025-06-03 19:00:00,27.9883,112.9792,31,长沙市,兴马洲,天心区,1004.2,21.1,92.0,49.12218027768075,23.01005742829146
P5142,2025-06-03 19:00:00,28.2556,113.1589,47.5,长沙市,长龙,长沙县,1001.3,21.5,88.0,43.93296871663048,22.556526643507546
P5143,2025-06-03 19:00:00,28.0861,113.1761,23,长沙市,黄兴镇林塘,长沙县,1002.7,19.2,100.0,47.749840374852255,22.235817183830736
P5150,2025-06-03 19:00:00,28.3217,112.8728,53,长沙市,大泽湖,望城区,1002.6,20.6,92.0,40.10164332683596,22.312472436945654
P5151,2025-06-03 19:00:00,28.3128,112.8869,55,长沙市,永通车管所,望城区,1003.0,20.9,93.0,46.8471898713992,22.97581309340281
P5156,2025-06-03 19:00:00,28.3111,112.9056,40,长沙市,四医院,望城区,1003.3,21.4,91.0,56.397055951167395,23.182968462483036
P5157,2025-06-03 19:00:00,28.4072,114.1969,531,长沙市,东麓园,浏阳市,950.8,19.1,95.0,45.77433485851313,20.992684283376235
P5161,2025-06-03 19:00:00,28.4922,112.7303,28,长沙市,乔口,望城区,1004.8,22.5,90.0,54.025135992566064,24.52115938894506
P5162,2025-06-03 19:00:00,28.3003,112.92,44,长沙市,新奥佳园,望城区,1003.7,22.3,86.0,58.71221657405592,23.147874114892293
P5163,2025-06-03 19:00:00,28.2825,112.9075,61,长沙市,金峰园,望城区,1002.0,22.1,82.0,40.57317754176186,21.803826734252194
P5164,2025-06-03 19:00:00,28.2931,112.8494,54,长沙市,李家祠堂,望城区,1003.1,20.4,95.0,46.339114023292325,22.75732894128067
P5165,2025-06-03 19:00:00,28.5281,113.3594,78,长沙市,石壁湖,长沙县,1000.8,20.2,96.0,38.31454146645349,22.714260019853256
P5175,2025-06-03 19:00:00,28.4675,113.3308,61.1,长沙市,锦绣,长沙县,1000.0,19.6,100.0,49.78602426031509,22.796459735098047
P5187,2025-06-03 19:00:00,28.49,113.1111,53,长沙市,新桥,长沙县,1002.1,20.5,96.0,48.83062662835218,23.1393430255204
P5188,2025-06-03 19:00:00,28.4061,112.9925,85,长沙市,北山水库,长沙县,997.7,20.8,86.0,41.22304500838854,21.11603598742888
P5189,2025-06-03 19:00:00,28.4369,112.9975,64,长沙市,洞阳,望城区,1001.1,18.6,98.0,43.79253663014954,20.98919643138556
P5190,2025-06-03 19:00:00,28.2758,112.9675,32,长沙市,江湾,开福区,1003.9,23.1,88.0,48.909659688998154,24.865149185860936
P5195,2025-06-03 19:00:00,28.4267,112.9922,120,长沙市,黑麋峰,望城区,993.5,19.3,97.0,47.14222463374491,21.70358583573751
P5199,2025-06-03 19:00:00,27.975,113.7275,125,长沙市,大瑶,浏阳市,993.5,20.1,100.0,47.700054546045564,23.514683799663736
P5201,2025-06-03 19:00:00,28.4103,113.22,52,长沙市,明月,长沙县,1002.4,20.1,97.0,47.31635193766756,22.809243285673823
P5206,2025-06-03 19:00:00,28.3222,113.3075,66,长沙市,红旗水库,长沙县,1000.7,20.8,94.0,40.855568529375724,23.08031840486413
P5215,2025-06-03 19:00:00,28.4372,113.6556,268,长沙市,周洛,浏阳市,977.0,18.1,100.0,42.79297415563012,20.75597852975738
P5218,2025-06-03 19:00:00,28.2203,112.9436,49,长沙市,咸嘉湖,岳麓区,1003.1,21.9,89.0,50.536217226497826,23.377986693093074
P5221,2025-06-03 19:00:00,28.4306,113.5953,145,长沙市,石牛,浏阳市,991.3,19.4,93.0,43.476390113515436,20.938584202629794
P5225,2025-06-03 19:00:00,28.2489,113.0753,61,长沙市,县政府,长沙县,1001.2,22.7,81.0,44.656044410726665,22.33888010782318
P5230,2025-06-03 19:00:00,28.2311,112.6875,41,长沙市,天马新村,宁乡市,1002.9,20.1,96.0,44.90077496177965,22.574096447677185
P5231,2025-06-03 19:00:00,28.3489,112.8297,44,长沙市,望府路,望城区,1003.1,21.9,76.0,41.157672400723065,19.96322459185476
P5233,2025-06-03 19:00:00,28.2806,112.5453,67,长沙市,玉潭,宁乡市,1000.4,20.2,93.0,49.57662692585493,22.004439394232843
P5235,2025-06-03 19:00:00,28.4014,113.1228,69,长沙市,和平,长沙县,999.7,20.8,76.0,37.43485083131729,18.660682965634827
P5245,2025-06-03 19:00:00,28.3578,113.7469,192,长沙市,宝盖寺,浏阳市,988.2,19.2,100.0,44.748137351654016,22.235817183830736
P5249,2025-06-03 19:00:00,28.4283,114.1492,1437,长沙市,大围山,浏阳市,853.1,13.9,92.0,41.51239947353637,14.600852276782634
P5259,2025-06-03 19:00:00,28.4119,112.9264,47,长沙市,桥驿,望城区,1002.4,20.6,95.0,50.38663083596949,23.040053059889534
P5266,2025-06-03 19:00:00,28.225,112.1089,242,长沙市,石龙洞,宁乡市,980.6,17.4,100.0,49.810151495748556,19.85995843777483
P5269,2025-06-03 19:00:00,28.28,112.6847,60,长沙市,关山,宁乡市,1001.5,20.9,90.0,39.64936759441973,22.234657832325297
P5273,2025-06-03 19:00:00,28.32,112.7211,52,长沙市,乌山,望城区,1003.1,20.4,97.0,44.97647941420318,23.236430603202365
P5275,2025-06-03 19:00:00,28.3381,113.2011,41,长沙市,果园,长沙县,1003.9,20.7,99.0,44.945298845697145,24.158675132454945
P5281,2025-06-03 19:00:00,28.2647,112.9558,46,长沙市,观沙岭,岳麓区,1003.5,21.9,83.0,49.33582518145668,21.8019426463677
P5290,2025-06-03 19:00:00,28.3578,113.8136,136,长沙市,礼花,浏阳市,993.9,19.4,93.0,40.883674485368104,20.938584202629794
P5291,2025-06-03 19:00:00,28.4119,113.9247,125,长沙市,椒花水库,浏阳市,994.4,18.6,95.0,38.16078065611325,20.346670010016616
P5292,2025-06-03 19:00:00,28.2658,114.0942,207,长沙市,皇碑,浏阳市,985.3,19.8,97.0,50.03732727644843,22.38896283430057
P5293,2025-06-03 19:00:00,28.0658,113.5647,88,长沙市,青草,浏阳市,1000.4,19.5,96.0,40.98057074555188,21.74894253325107
P5294,2025-06-03 19:00:00,27.9958,113.7706,94,长沙市,澄潭江,浏阳市,997.1,19.3,100.0,49.25349094108576,22.37483075849228
P5295,2025-06-03 19:00:00,28.0739,113.9867,166,长沙市,岩前,浏阳市,988.3,19.3,96.0,42.15144123696388,21.47983752815259
P5296,2025-06-03 19:00:00,28.1881,113.5158,417,长沙市,菖蒲岭,浏阳市,960.8,20.2,89.0,45.03522421538502,21.058011893405624
P5298,2025-06-03 19:00:00,28.2083,112.7342,75,长沙市,白箬铺,望城区,1000.5,19.6,97.0,50.96142414084835,22.112565943045105
P5303,2025-06-03 19:00:00,28.3167,112.9208,43,长沙市,月亮岛公园,望城区,1004.1,22.1,100.0,52.32681461968672,26.59003260274658
P5304,2025-06-03 19:00:00,28.1058,112.9289,46,长沙市,大王山,岳麓区,1002.9,21.4,88.0,41.46624412136616,22.41869477690667
P5305,2025-06-03 19:00:00,28.0719,112.9189,39,长沙市,巴溪洲,岳麓区,1004.1,19.7,100.0,45.10915624086763,22.938544040474685
P5306,2025-06-03 19:00:00,28.1253,112.9214,30,长沙市,洋湖湿地,岳麓区,1004.7,20.5,100.0,49.424926339738164,24.103482318250418
P5307,2025-06-03 19:00:00,28.2764,112.8547,64,长沙市,观音岩水库,望城区,1000.7,20.5,94.0,53.834658282021756,22.65727337915539
P5309,2025-06-03 19:00:00,28.2733,112.8256,50,长沙市,黄金园,望城区,1002.3,20.3,97.0,47.38061652024716,23.09326147866186
P5314,2025-06-03 19:00:00,28.2231,113.1889,70,长沙市,黄龙小学,长沙县,1000.2,21.0,90.0,35.3685974302739,22.371877230992233
P5315,2025-06-03 19:00:00,28.2975,113.4322,74.4,长沙市,北盛,浏阳市,999.9,19.9,97.0,29.695897731553714,22.528294788932275
P5322,2025-06-03 19:00:00,28.2247,112.2611,121,长沙市,喻家坳,宁乡市,995.2,19.0,95.0,54.77388530871117,20.862059744562615
P5323,2025-06-03 19:00:00,28.2836,113.9053,122,长沙市,铁山,浏阳市,993.8,20.1,96.0,40.449911364363075,22.574096447677185
P5328,2025-06-03 19:00:00,28.2336,112.9639,65,长沙市,岳北,岳麓区,1003.8,22.7,87.0,54.596556289476204,23.99361196766193
P5329,2025-06-03 19:00:00,28.4608,112.7889,44,长沙市,靖港电排,望城区,1004.5,22.2,96.0,52.864824719373615,25.68254125822229
P5330,2025-06-03 19:00:00,28.1872,112.9747,64,长沙市,天心公园,天心区,1002.2,22.8,83.0,47.49417876557589,23.029814597175847
P5331,2025-06-03 19:00:00,28.1886,111.9597,574,长沙市,沩山,宁乡市,940.9,18.8,83.0,36.8715553494202,18.000471955357796
P5332,2025-06-03 19:00:00,28.1672,113.1039,37,长沙市,敢胜,长沙县,1004.0,21.1,97.0,49.23937208547697,24.260604027655123
P5333,2025-06-03 19:00:00,28.145,112.9647,92,长沙市,南郊公园,天心区,998.8,21.8,87.0,51.50524090378818,22.71341681669702
P5335,2025-06-03 19:00:00,28.31,112.4928,78,长沙市,菁华铺,宁乡市,999.7,19.3,100.0,53.94374188412371,22.37483075849228
P5336,2025-06-03 19:00:00,28.1936,112.5236,67,长沙市,金州村,宁乡市,1000.6,18.8,98.0,43.398798571789285,21.25356929668752
P5337,2025-06-03 19:00:00,28.1239,112.23,112,长沙市,云山,宁乡市,996.6,19.0,95.0,44.618368283020764,20.862059744562615
P5339,2025-06-03 19:00:00,28.0281,112.0342,348,长沙市,草冲,宁乡市,968.9,22.0,79.0,44.436318159300455,20.878345248091218
P5342,2025-06-03 19:00:00,27.9244,112.1153,201,长沙市,田心铺,宁乡市,986.5,18.1,96.0,44.74594751862641,19.92573938856708
P5343,2025-06-03 19:00:00,28.1831,112.765,70,长沙市,牌楼坝,望城区,999.8,20.0,95.0,44.42760586761055,22.20099767236121
P5345,2025-06-03 19:00:00,28.2161,112.8033,36,长沙市,真人桥,望城区,999.9,19.6,100.0,50.58607591327418,22.796459735098047
P5346,2025-06-03 19:00:00,28.2114,112.9578,36,长沙市,银盆岭,岳麓区,1003.9,23.1,78.0,36.573962173603306,22.039564051104012
P5347,2025-06-03 19:00:00,28.1581,112.9825,104,长沙市,七里庙,雨花区,997.7,23.2,82.0,45.66512454449491,23.31043177186237
P5348,2025-06-03 19:00:00,28.0739,113.1175,122,长沙市,冬斯港,雨花区,995.2,21.4,85.0,51.646105743956056,21.654421091330303
P5352,2025-06-03 19:00:00,28.3069,113.7983,106,长沙市,沿溪,浏阳市,998.1,19.9,100.0,38.30080273833245,23.225046174156986
P5359,2025-06-03 19:00:00,28.185,113.8469,121,长沙市,株树桥水库,浏阳市,995.8,18.9,96.0,45.12712747387355,20.950382519837937
P5363,2025-06-03 19:00:00,28.2042,114.0764,223,长沙市,小河,浏阳市,982.0,19.5,97.0,43.8663160040455,21.975494017972437
P5372,2025-06-03 19:00:00,28.2153,113.1131,58,长沙市,长桥公园,长沙县,1001.7,21.8,87.0,40.92329420122942,22.71341681669702
P5373,2025-06-03 19:00:00,28.1264,112.0311,192,长沙市,联花,宁乡市,987.7,18.2,97.0,37.435678850457045,20.260232146153044
P5382,2025-06-03 19:00:00,28.0978,112.7422,59,长沙市,莲花,岳麓区,1000.8,19.1,100.0,51.9558043178051,22.097562403553933
P5383,2025-06-03 19:00:00,28.1314,112.9047,38,长沙市,学士,岳麓区,1004.3,21.9,88.0,54.67931308886311,23.115312685305515
P5384,2025-06-03 19:00:00,28.1669,112.945,34,长沙市,天马,岳麓区,1004.3,22.4,83.0,56.150284578723195,22.476809359560548
P5387,2025-06-03 19:00:00,28.4106,113.0097,88,长沙市,蒿塘,长沙县,1000.4,20.1,95.0,42.30374509510726,22.33894960968055
P5388,2025-06-03 19:00:00,28.1344,112.6739,74,长沙市,泉水冲水库,岳麓区,999.9,18.4,100.0,48.67937057057751,21.150730445492975
P5390,2025-06-03 19:00:00,28.0997,112.8567,60,长沙市,含浦,岳麓区,1000.2,19.6,96.0,33.422698911876466,21.884601345694126
P5398,2025-06-03 19:00:00,28.0856,113.8717,189,长沙市,中和,浏阳市,987.2,18.2,98.0,37.34526142253067,20.469100518793798
